"","id","name","terminalName","lastCommWithServer","lat","long","installed","locked","installDate","removalDate","temporary","public","nbBikes","nbEmptyDocks","latestUpdateTime","date","total","percentBikes","percentDocks"
"1","1","20th & Bell St","31000","1403472084247","38.8561","-77.0512","true","false","1316059200000","","false","true",24,20,"1403470629806",2014-06-22 16:57:09,44,0.545454545454545,0.454545454545455
"2","2","18th & Eads St.","31001","1403472097206","38.85725","-77.05332","true","false","1284989400000","","false","true",23,24,"1403469331529",2014-06-22 16:35:31,47,0.48936170212766,0.51063829787234
"3","3","20th & Crystal Dr","31002","1403472127223","38.8564","-77.0492","true","false","1284464580000","","false","true",22,29,"1403467792629",2014-06-22 16:09:52,51,0.431372549019608,0.568627450980392
"4","4","15th & Crystal Dr","31003","1403472145894","38.86017","-77.049593","true","false","1284464880000","","false","true",23,24,"1403471741487",2014-06-22 17:15:41,47,0.48936170212766,0.51063829787234
"5","5","Aurora Hills Community Ctr/18th & Hayes St","31004","1403472037084","38.857866","-77.05949","true","false","1284464880000","","false","true",23,24,"1403468771777",2014-06-22 16:26:11,47,0.48936170212766,0.51063829787234
"6","6","12th & Hayes St /  Pentagon City Metro","31005","1403472153414","38.862303","-77.059936","true","false","1284464940000","","false","true",24,4,"1403470946250",2014-06-22 17:02:26,28,0.857142857142857,0.142857142857143
"7","7","S Joyce & Army Navy Dr","31006","1403471971050","38.8637","-77.0633","true","false","1284464940000","","false","true",23,24,"1403471004081",2014-06-22 17:03:24,47,0.48936170212766,0.51063829787234
"8","8","Crystal City Metro / 18th & Bell St","31007","1403472129243","38.8573","-77.0511","true","false","1284465000000","","false","true",3,28,"1403470333833",2014-06-22 16:52:13,31,0.0967741935483871,0.903225806451613
"9","9","12th & Army Navy Dr","31008","1403471935226","38.8629","-77.0528","true","false","1284465000000","","false","true",20,27,"1403471934744",2014-06-22 17:18:54,47,0.425531914893617,0.574468085106383
"10","10","27th & Crystal Dr","31009","1403472136680","38.848441","-77.051516","true","false","1284465060000","","false","true",20,8,"1403471653347",2014-06-22 17:14:13,28,0.714285714285714,0.285714285714286
"11","11","S Glebe & Potomac Ave","31010","1403472109638","38.8426","-77.0502","true","false","1284465120000","","false","true",22,25,"1403471867226",2014-06-22 17:17:47,47,0.468085106382979,0.531914893617021
"12","12","23rd & Crystal Dr","31011","1403472064458","38.8533","-77.0498","true","false","1284465120000","","false","true",25,28,"1403470042500",2014-06-22 16:47:22,53,0.471698113207547,0.528301886792453
"13","13","26th & S Clark St","31012","1403471989278","38.850688","-77.05152","true","false","1284465300000","","false","true",20,27,"1403464838547",2014-06-22 15:20:38,47,0.425531914893617,0.574468085106383
"14","14","19th St & Pennsylvania Ave NW","31100","1403472162204","38.9003","-77.0429","true","false","1284465360000","","false","true",3,25,"1403472161612",2014-06-22 17:22:41,28,0.107142857142857,0.892857142857143
"15","15","14th & V St NW","31101","1403472067542","38.9176","-77.0321","true","false","1284465420000","","false","true",23,14,"1403472067269",2014-06-22 17:21:07,37,0.621621621621622,0.378378378378378
"16","16","11th & Kenyon St NW","31102","1403472153411","38.929464","-77.027822","true","false","1286539080000","","false","true",2,18,"1403471911643",2014-06-22 17:18:31,20,0.1,0.9
"17","17","16th & Harvard St NW","31103","1403472118404","38.926088","-77.036536","true","false","1284465480000","","false","true",2,22,"1403472117079",2014-06-22 17:21:57,24,0.0833333333333333,0.916666666666667
"18","18","Adams Mill & Columbia Rd NW","31104","1403472075971","38.922925","-77.042581","true","false","1284465540000","","false","true",13,6,"1403472074840",2014-06-22 17:21:14,19,0.684210526315789,0.315789473684211
"19","19","14th & Harvard St NW","31105","1403471951284","38.9268","-77.0322","true","false","1284465540000","","false","true",1,11,"1403471467468",2014-06-22 17:11:07,12,0.0833333333333333,0.916666666666667
"20","20","Calvert & Biltmore St NW","31106","1403471991005","38.923203","-77.047637","true","false","1284465600000","","false","true",2,16,"1403469544611",2014-06-22 16:39:04,18,0.111111111111111,0.888888888888889
"21","21","Lamont & Mt Pleasant NW","31107","1403472073033","38.9319","-77.0388","true","false","1284465600000","","false","true",1,12,"1403471830985",2014-06-22 17:17:10,13,0.0769230769230769,0.923076923076923
"22","22","4th & M St SW","31108","1403472146961","38.8767","-77.0178","true","false","1284465660000","","false","true",13,15,"1403471904979",2014-06-22 17:18:24,28,0.464285714285714,0.535714285714286
"23","23","15th & P St NW","31201","1403472127216","38.90985","-77.034438","true","false","1284465660000","","false","true",9,13,"1403471970816",2014-06-22 17:19:30,22,0.409090909090909,0.590909090909091
"24","24","14th & R St NW","31202","1403472128564","38.912682","-77.031681","true","false","1284465720000","","false","true",21,3,"1403472127638",2014-06-22 17:22:07,24,0.875,0.125
"25","25","14th & Rhode Island Ave NW","31203","1403472006363","38.9086","-77.0323","true","false","1284465780000","","false","true",24,8,"1403472005959",2014-06-22 17:20:05,32,0.75,0.25
"26","26","20th & E St NW","31204","1403472162245","38.8963","-77.045","true","false","1284465840000","","false","true",22,29,"1403471920051",2014-06-22 17:18:40,51,0.431372549019608,0.568627450980392
"27","27","21st & I St NW","31205","1403472057298","38.9008","-77.047","true","false","1283861040000","","false","true",14,8,"1403471814507",2014-06-22 17:16:54,22,0.636363636363636,0.363636363636364
"28","28","Georgia & New Hampshire Ave NW","31400","1403472016259","38.936043","-77.024649","true","false","1284465900000","","false","true",19,5,"1403471774047",2014-06-22 17:16:14,24,0.791666666666667,0.208333333333333
"29","29","14th St & Spring Rd NW","31401","1403472035859","38.9375","-77.0328","true","false","1284465960000","","false","true",20,27,"1403470105267",2014-06-22 16:48:25,47,0.425531914893617,0.574468085106383
"30","30","John McCormack Dr & Michigan Ave NE","31502","1403472034546","38.9346","-76.9955","true","false","1284465960000","","false","true",22,25,"1403469612501",2014-06-22 16:40:12,47,0.468085106382979,0.531914893617021
"31","31","5th & K St NW","31600","1403472060297","38.90304","-77.019027","true","false","1284466020000","","false","true",1,12,"1403470611579",2014-06-22 16:56:51,13,0.0769230769230769,0.923076923076923
"32","32","19th & East Capitol St SE","31601","1403472116759","38.8896","-76.9769","true","false","1284466020000","","false","true",20,4,"1403470909178",2014-06-22 17:01:49,24,0.833333333333333,0.166666666666667
"33","33","Park Rd & Holmead Pl NW","31602","1403472074846","38.9308","-77.0315","true","false","1284466080000","","false","true",1,12,"1403471832446",2014-06-22 17:17:12,13,0.0769230769230769,0.923076923076923
"34","34","Good Hope & Naylor Rd SE","31700","1403472066208","38.8601","-76.9672","true","false","1284466140000","","false","true",19,28,"1403459619792",2014-06-22 13:53:39,47,0.404255319148936,0.595744680851064
"35","35","Connecticut Ave & Newark St NW / Cleveland Park","31305","1403472107490","38.934267","-77.057979","true","false","1289241840000","","false","true",2,3,"1403471865148",2014-06-22 17:17:45,5,0.4,0.6
"36","36","Randle Circle & Minnesota Ave SE","31702","1403472157720","38.878","-76.9607","true","false","1284466200000","","false","true",21,26,"1403410018845",2014-06-22 00:06:58,47,0.446808510638298,0.553191489361702
"37","37","Minnesota Ave Metro/DOES","31703","1403472008934","38.897063","-76.947446","true","false","1284466200000","","false","true",19,28,"1403462005930",2014-06-22 14:33:25,47,0.404255319148936,0.595744680851064
"38","38","Nannie Helen Burroughs & Minnesota Ave NE","31704","1403472130486","38.901385","-76.941877","true","false","1386766320000","1298396940000","false","true",21,26,"1403469233800",2014-06-22 16:33:53,47,0.446808510638298,0.553191489361702
"39","39","Anacostia Metro","31801","1403472146940","38.862669","-76.994637","true","false","1284466260000","","false","true",23,24,"1403463605666",2014-06-22 15:00:05,47,0.48936170212766,0.51063829787234
"40","40","Good Hope Rd & MLK Ave SE","31802","1403471958352","38.867373","-76.988039","true","false","1305288720000","","false","true",21,26,"1403467906061",2014-06-22 16:11:46,47,0.446808510638298,0.553191489361702
"41","41","19th & E Street NW","31206","1403472068378","38.8952","-77.0436","true","false","1284545040000","","false","true",21,26,"1403468118176",2014-06-22 16:15:18,47,0.446808510638298,0.553191489361702
"42","42","4th St & Rhode Island Ave NE","31500","1403471929480","38.919488","-77.000624","true","false","1289970000000","","false","true",19,27,"1403470238508",2014-06-22 16:50:38,46,0.41304347826087,0.58695652173913
"43","43","10th & U St NW","31111","1403472060740","38.9172","-77.0259","true","false","1285822380000","","false","true",6,13,"1403472059454",2014-06-22 17:20:59,19,0.315789473684211,0.684210526315789
"44","44","Georgia Ave and Fairmont St NW","31207","1403472103743","38.9249","-77.0222","true","false","1285041600000","","false","true",20,27,"1403471137342",2014-06-22 17:05:37,47,0.425531914893617,0.574468085106383
"45","45","1st & N St  SE","31209","1403471973405","38.8743","-77.0057","true","false","1285041600000","","false","true",2,23,"1403471333498",2014-06-22 17:08:53,25,0.08,0.92
"46","46","20th St & Florida Ave NW","31110","1403472149257","38.9154","-77.0446","true","false","1285217520000","","false","true",23,28,"1403472148138",2014-06-22 17:22:28,51,0.450980392156863,0.549019607843137
"47","47","7th & T St NW","31109","1403472092214","38.9155","-77.0222","true","false","1285735680000","","false","true",6,13,"1403471847938",2014-06-22 17:17:27,19,0.315789473684211,0.684210526315789
"48","48","23rd & Eads St","31013","1403472151758","38.853613","-77.053535","true","false","1287562620000","","false","true",23,20,"1403470219175",2014-06-22 16:50:19,43,0.534883720930233,0.465116279069767
"49","49","M St & New Jersey Ave SE","31208","1403472013655","38.8763","-77.0037","true","false","1285041600000","","false","true",1,10,"1403471047656",2014-06-22 17:04:07,11,0.0909090909090909,0.909090909090909
"50","51","Massachusetts Ave & Dupont Circle NW","31200","1403472120107","38.9101","-77.0444","true","false","1284523200000","","false","true",15,17,"1403472119458",2014-06-22 17:21:59,32,0.46875,0.53125
"51","52","1st & M St NE","31603","1403472118290","38.9057","-77.0056","true","false","1287115200000","","false","true",21,3,"1403472117032",2014-06-22 17:21:57,24,0.875,0.125
"52","53","21st & M St NW","31212","1403472124466","38.90534","-77.046774","true","false","1285041600000","","false","true",7,25,"1403471882647",2014-06-22 17:18:02,32,0.21875,0.78125
"53","54","17th & K St NW","31213","1403472049715","38.90276","-77.03863","true","false","1306236960000","","false","true",25,3,"1403472048442",2014-06-22 17:20:48,28,0.892857142857143,0.107142857142857
"54","55","3rd & H St NW","31604","1403472154579","38.899408","-77.015289","true","false","1287028800000","","false","true",19,5,"1403472153752",2014-06-22 17:22:33,24,0.791666666666667,0.208333333333333
"55","56","3rd & D St SE","31605","1403471943864","38.8851","-77.0023","true","false","1287201600000","","false","true",19,28,"1403471943530",2014-06-22 17:19:03,47,0.404255319148936,0.595744680851064
"56","57","Potomac & Pennsylvania Ave SE","31606","1403471952519","38.8803","-76.9862","true","false","1287460800000","","false","true",21,29,"1403471950488",2014-06-22 17:19:10,50,0.42,0.58
"57","58","14th & D St SE","31607","1403472136577","38.884","-76.9861","true","false","1287374400000","","false","true",19,5,"1403471653326",2014-06-22 17:14:13,24,0.791666666666667,0.208333333333333
"58","59","17th & Corcoran St NW","31214","1403472081609","38.9121","-77.0387","true","false","1294078980000","","false","true",25,3,"1403472080607",2014-06-22 17:21:20,28,0.892857142857143,0.107142857142857
"59","60","Van Ness Metro / UDC","31300","1403472018055","38.944551","-77.063896","true","false","1289624400000","","false","true",25,26,"1403469528228",2014-06-22 16:38:48,51,0.490196078431373,0.509803921568627
"60","61","Florida Ave & R St NW","31503","1403472129243","38.9126","-77.0135","true","false","1290056400000","","false","true",2,6,"1403471417476",2014-06-22 17:10:17,8,0.25,0.75
"61","62","8th & Eye St SE / Barracks Row","31608","1403472062832","38.8792","-76.9953","true","false","1287374400000","","false","true",23,24,"1403472062051",2014-06-22 17:21:02,47,0.48936170212766,0.51063829787234
"62","63","Ward Circle / American University","31301","1403471961415","38.938736","-77.087171","true","false","1289538000000","","false","true",2,7,"1403469730206",2014-06-22 16:42:10,9,0.222222222222222,0.777777777777778
"63","64","Idaho Ave & Newark St NW [on 2nd District patio]","31302","1403471993604","38.934751","-77.074647","true","false","1289970000000","","false","true",13,6,"1403471269275",2014-06-22 17:07:49,19,0.684210526315789,0.315789473684211
"64","65","14th St Heights / 14th & Crittenden St NW","31402","1403471935125","38.947774","-77.032818","true","false","1289970000000","","false","true",19,28,"1403468276893",2014-06-22 16:17:56,47,0.404255319148936,0.595744680851064
"65","66","Anacostia Library","31804","1403472041937","38.865784","-76.9784","true","false","1288584000000","","false","true",22,25,"1403459969138",2014-06-22 13:59:29,47,0.468085106382979,0.531914893617021
"66","67","Pennsylvania & Minnesota Ave SE","31805","1403471966841","38.873057","-76.971015","true","false","1288584000000","","false","true",24,20,"1403463355049",2014-06-22 14:55:55,44,0.545454545454545,0.454545454545455
"67","68","Eastern Market / 7th & North Carolina Ave SE","31610","1403472130001","38.886952","-76.996806","true","false","1282363200000","","false","true",13,6,"1403472129011",2014-06-22 17:22:09,19,0.684210526315789,0.315789473684211
"68","69","McPherson Square / 14th & H St NW","31216","1403472072200","38.899641","-77.032005","true","false","1284436800000","","false","true",23,5,"1403471588807",2014-06-22 17:13:08,28,0.821428571428571,0.178571428571429
"69","70","Benning Branch Library","31705","1403472101044","38.894","-76.947974","true","false","1288584000000","","false","true",21,26,"1403410043578",2014-06-22 00:07:23,47,0.446808510638298,0.553191489361702
"70","71","USDA / 12th & Independence Ave SW","31217","1403471989228","38.887237","-77.028226","true","false","1286297580000","","false","true",4,19,"1403471747070",2014-06-22 17:15:47,23,0.173913043478261,0.826086956521739
"71","72","Georgetown Harbor / 30th St NW","31215","1403472045198","38.9022212","-77.059219","true","false","1286300580000","","false","true",22,6,"1403471079012",2014-06-22 17:04:39,28,0.785714285714286,0.214285714285714
"72","73","12th & Newton St NE","31501","1403471975204","38.933668","-76.991016","true","false","1286306220000","","false","true",20,27,"1403471250726",2014-06-22 17:07:30,47,0.425531914893617,0.574468085106383
"73","74","US Dept of State / Virginia Ave & 21st St NW","31220","1403472129307","38.894919","-77.046587","true","false","1286661900000","","false","true",1,8,"1403466698332",2014-06-22 15:51:38,9,0.111111111111111,0.888888888888889
"74","75","L'Enfant Plaza / 7th & C St SW","31218","1403471927245","38.886266","-77.022241","true","false","1286410980000","","false","true",23,28,"1403468527212",2014-06-22 16:22:07,51,0.450980392156863,0.549019607843137
"75","76","10th St & Constitution Ave NW","31219","1403471943694","38.893028","-77.026013","true","false","1286497620000","","false","true",18,20,"1403471701813",2014-06-22 17:15:01,38,0.473684210526316,0.526315789473684
"76","77","Kennedy Center","31211","1403472070580","38.895184","-77.054845","true","false","1286325060000","","false","true",24,20,"1403470863637",2014-06-22 17:01:03,44,0.545454545454545,0.454545454545455
"77","78","Eastern Market Metro / Pennsylvania Ave & 7th St SE","31613","1403472094521","38.884","-76.995397","true","false","1286411820000","","false","true",23,5,"1403471852008",2014-06-22 17:17:32,28,0.821428571428571,0.178571428571429
"78","79","18th & M St NW","31221","1403472063382","38.904742","-77.041606","true","false","1286458140000","","false","true",20,8,"1403472061997",2014-06-22 17:21:01,28,0.714285714285714,0.285714285714286
"79","80","Tenleytown / Wisconsin Ave & Albemarle St NW","31303","1403472119822","38.947607","-77.079382","true","false","1287150300000","","false","true",20,4,"1403472118242",2014-06-22 17:21:58,24,0.833333333333333,0.166666666666667
"80","81","13th & H St NE","31611","1403471941255","38.9003","-76.9882","true","false","1286547000000","","false","true",17,13,"1403471939951",2014-06-22 17:18:59,30,0.566666666666667,0.433333333333333
"81","82","5th & F St NW","31620","1403472156177","38.897222","-77.019347","true","false","1286492280000","","false","true",25,16,"1403472154399",2014-06-22 17:22:34,41,0.609756097560976,0.390243902439024
"82","83","New York Ave & 15th St NW","31222","1403472048585","38.8991","-77.0337","true","false","1286631960000","","false","true",7,1,"1403471806531",2014-06-22 17:16:46,8,0.875,0.125
"83","84","Convention Center / 7th & M St NW","31223","1403472023526","38.90572","-77.022264","true","false","1286631960000","","false","true",13,10,"1403472021752",2014-06-22 17:20:21,23,0.565217391304348,0.434782608695652
"84","85","Harvard St & Adams Mill Rd NW","31112","1403472094435","38.927872","-77.043358","true","false","1294164840000","","false","true",5,20,"1403471369322",2014-06-22 17:09:29,25,0.2,0.8
"85","86","19th & L St NW","31224","1403472159043","38.903407","-77.043648","true","false","1287182880000","","false","true",25,26,"1403471192689",2014-06-22 17:06:32,51,0.490196078431373,0.509803921568627
"86","87","C & O Canal & Wisconsin Ave NW","31225","1403472034557","38.90375","-77.06269","true","false","1287460800000","","false","true",23,9,"1403472033582",2014-06-22 17:20:33,32,0.71875,0.28125
"87","88","6th & Water St SW / SW Waterfront","31609","1403472097125","38.87675","-77.02127","true","false","1287720000000","","false","true",25,29,"1403471855123",2014-06-22 17:17:35,54,0.462962962962963,0.537037037037037
"88","89","D St & Maryland Ave NE","31612","1403471941093","38.894758","-76.997114","true","false","1330094460000","","false","true",1,15,"1403471457614",2014-06-22 17:10:57,16,0.0625,0.9375
"89","90","34th St & Wisconsin Ave NW","31226","1403472135674","38.916442","-77.0682","true","false","1287182760000","","false","true",23,24,"1403471652710",2014-06-22 17:14:12,47,0.48936170212766,0.51063829787234
"90","91","13th St & New York Ave NW","31227","1403472071370","38.900283","-77.029822","true","false","1287416880000","","false","true",4,5,"1403470980789",2014-06-22 17:03:00,9,0.444444444444444,0.555555555555556
"91","92","8th & H St NW","31228","1403472165571","38.8997","-77.023086","true","false","1287115200000","","false","true",10,9,"1403472142846",2014-06-22 17:22:22,19,0.526315789473684,0.473684210526316
"92","93","10th & Monroe St NE","31504","1403472051061","38.932514","-76.992889","true","false","1287096120000","","false","true",21,26,"1403469395187",2014-06-22 16:36:35,47,0.446808510638298,0.553191489361702
"93","94","Eckington Pl & Q St NE","31505","1403472003140","38.910972","-77.00495","true","false","1287096120000","","false","true",2,3,"1403471760474",2014-06-22 17:16:00,5,0.4,0.6
"94","95","6th & H St NE","31615","1403472154720","38.900384","-76.99831","true","false","1323696720000","","false","true",10,26,"1403472153709",2014-06-22 17:22:33,36,0.277777777777778,0.722222222222222
"95","96","3rd & H St NE","31616","1403472059349","38.900412","-77.001949","true","false","1287096060000","","false","true",11,2,"1403472057490",2014-06-22 17:20:57,13,0.846153846153846,0.153846153846154
"96","97","Bladensburg Rd & Benning Rd NE","31617","1403472026527","38.900413","-76.982872","true","false","1288200360000","","false","true",4,24,"1403470818209",2014-06-22 17:00:18,28,0.142857142857143,0.857142857142857
"97","98","4th & East Capitol St NE","31618","1403471971224","38.889955","-77.000349","true","false","1287028800000","","false","true",21,26,"1403471969363",2014-06-22 17:19:29,47,0.446808510638298,0.553191489361702
"98","99","Lincoln Park / 13th & East Capitol St NE ","31619","1403472111627","38.890461","-76.988355","true","false","1288038900000","","false","true",20,15,"1403471868557",2014-06-22 17:17:48,35,0.571428571428571,0.428571428571429
"99","100","Branch & Pennsylvania Ave SE","31701","1403472150370","38.8692","-76.9599","true","false","1309008600000","","false","true",20,27,"1403410007375",2014-06-22 00:06:47,47,0.425531914893617,0.574468085106383
"100","101","13th & D St NE","31622","1403472082629","38.894832","-76.987633","true","false","1288114080000","","false","true",4,14,"1403471840395",2014-06-22 17:17:20,18,0.222222222222222,0.777777777777778
"101","102","New Hampshire Ave & T St NW","31229","1403472046081","38.91554","-77.03818","true","false","1287178020000","","false","true",19,12,"1403472044559",2014-06-22 17:20:44,31,0.612903225806452,0.387096774193548
"102","103","Metro Center / 12th & G St NW","31230","1403472164751","38.898364","-77.027869","true","false","1305259200000","","false","true",10,7,"1403472162900",2014-06-22 17:22:42,17,0.588235294117647,0.411764705882353
"103","104","14th & D St NW / Ronald Reagan Building","31231","1403472143763","38.894514","-77.031617","true","false","1303306260000","","false","true",16,20,"1403472142797",2014-06-22 17:22:22,36,0.444444444444444,0.555555555555556
"104","105","7th & F St NW / National Portrait Gallery","31232","1403472080849","38.897324","-77.022322","true","false","1304108940000","","false","true",5,26,"1403472079602",2014-06-22 17:21:19,31,0.161290322580645,0.838709677419355
"105","106","17th & K St NW / Farragut Square","31233","1403472035473","38.902061","-77.038322","true","false","1304022480000","","false","true",3,10,"1403472034147",2014-06-22 17:20:34,13,0.230769230769231,0.769230769230769
"106","107","20th & O St NW / Dupont South","31234","1403471933126","38.908905","-77.04478","true","false","1328850000000","","false","true",12,1,"1403471932311",2014-06-22 17:18:52,13,0.923076923076923,0.0769230769230769
"107","108","4th & D St NW / Judiciary Square","31621","1403471986137","38.895344","-77.016106","true","false","1304481600000","","false","true",20,4,"1403471502086",2014-06-22 17:11:42,24,0.833333333333333,0.166666666666667
"108","109","19th St & Constitution Ave NW","31235","1403471995609","38.8923","-77.0436","true","false","1287607080000","","false","true",25,18,"1403469841941",2014-06-22 16:44:01,43,0.581395348837209,0.418604651162791
"109","110","37th & O St NW / Georgetown University","31236","1403472081906","38.90774","-77.071652","true","false","1288037580000","","false","true",13,15,"1403471115766",2014-06-22 17:05:15,28,0.464285714285714,0.535714285714286
"110","111","11th & H St NE","31614","1403472061486","38.899983","-76.991383","true","false","1323666000000","","false","true",24,4,"1403472060947",2014-06-22 17:21:00,28,0.857142857142857,0.142857142857143
"111","112","25th St & Pennsylvania Ave NW","31237","1403472103418","38.903827","-77.053485","true","false","1288551000000","","false","true",20,4,"1403471860943",2014-06-22 17:17:40,24,0.833333333333333,0.166666666666667
"112","113","Columbus Circle / Union Station","31623","1403472032444","38.89696","-77.00493","true","false","1285905600000","","false","true",4,19,"1403471548628",2014-06-22 17:12:28,23,0.173913043478261,0.826086956521739
"113","114","North Capitol St & F St NW","31624","1403472153858","38.897446","-77.009888","true","false","1288122720000","","false","true",19,14,"1403472152935",2014-06-22 17:22:32,33,0.575757575757576,0.424242424242424
"114","115","11th & M St NW","31266","1403472132704","38.905607","-77.027137","true","false","1364995680000","","false","true",19,8,"1403472130930",2014-06-22 17:22:10,27,0.703703703703704,0.296296296296296
"115","116","36th & Calvert St NW / Glover Park","31304","1403471945229","38.922581","-77.070334","true","false","1289236620000","","false","true",13,6,"1403471702978",2014-06-22 17:15:02,19,0.684210526315789,0.315789473684211
"116","117","14th & G St NW","31238","1403472095944","38.898069","-77.031823","true","false","1289237340000","","false","true",9,26,"1403471611925",2014-06-22 17:13:31,35,0.257142857142857,0.742857142857143
"117","118","Potomac Ave & 35th St S","31052","1403472140558","38.844015","-77.050537","true","false","1351092960000","","false","true",22,10,"1403470932064",2014-06-22 17:02:12,32,0.6875,0.3125
"118","124","Ohio Dr & West Basin Dr SW / MLK & FDR Memorials","31240","1403472035736","38.88412","-77.04657","true","false","1331904960000","","false","true",23,9,"1403472034828",2014-06-22 17:20:34,32,0.71875,0.28125
"119","125","11th & F St NW","31262","1403471943462","38.897857","-77.026975","true","false","1359981840000","","false","true",5,13,"1403471459788",2014-06-22 17:10:59,18,0.277777777777778,0.722222222222222
"120","126","23rd & E St NW ","31260","1403472028891","38.896104","-77.049882","true","false","1359652440000","","false","true",3,29,"1403472027823",2014-06-22 17:20:27,32,0.09375,0.90625
"121","127","Lynn & 19th St North","31014","1403466618349","38.897315","-77.070993","true","false","1302957060000","","false","true",7,20,"1403469136578",2014-06-22 16:32:16,27,0.259259259259259,0.740740740740741
"122","128","Rosslyn Metro / Wilson Blvd & Ft Myer Dr","31015","1403472041905","38.8946","-77.072305","true","false","1302957120000","","false","true",24,26,"1403471967773",2014-06-22 17:19:27,50,0.48,0.52
"123","129","Clarendon Blvd & Pierce St","31016","1403472073597","38.893648","-77.076701","true","false","1302957960000","","false","true",24,13,"1403469900772",2014-06-22 16:45:00,37,0.648648648648649,0.351351351351351
"124","130","Court House Metro / Wilson Blvd & N Uhle St","31017","1403472056372","38.891696","-77.0846","true","false","1320933600000","","false","true",21,3,"1403471330986",2014-06-22 17:08:50,24,0.875,0.125
"125","131","N Rhodes & 16th St N","31018","1403472156278","38.892164","-77.079375","true","false","1302963480000","","false","true",21,26,"1403470465713",2014-06-22 16:54:25,47,0.446808510638298,0.553191489361702
"126","132","Fairfax Village","31706","1403471932288","38.86559","-76.952103","true","false","1311771600000","","false","true",21,3,"1403410012298",2014-06-22 00:06:52,24,0.875,0.125
"127","133","21st St & Constitution Ave NW","31261","1403472155390","38.892459","-77.046567","true","false","1359639120000","","false","true",1,8,"1403468521585",2014-06-22 16:22:01,9,0.111111111111111,0.888888888888889
"128","134","Wilson Blvd & N Edgewood St","31019","1403472036821","38.889","-77.0925","true","false","1321015980000","","false","true",2,7,"1403468169675",2014-06-22 16:16:09,9,0.222222222222222,0.777777777777778
"129","135","Columbia Rd & Belmont St NW","31113","1403472107154","38.920669","-77.04368","true","false","1321625100000","","false","true",1,12,"1403471864791",2014-06-22 17:17:44,13,0.0769230769230769,0.923076923076923
"130","136","17th & Rhode Island Ave NW","31239","1403472164398","38.906602","-77.038785","true","false","1321639800000","","false","true",6,3,"1403472163895",2014-06-22 17:22:43,9,0.666666666666667,0.333333333333333
"131","137","Thomas Circle","31241","1403472151505","38.9059","-77.0325","true","false","1321714320000","","false","true",19,21,"1403471909265",2014-06-22 17:18:29,40,0.475,0.525
"132","138","Wilson Blvd & Franklin Rd","31020","1403472102187","38.8904","-77.0889","true","false","1322715600000","","false","true",2,3,"1403458088436",2014-06-22 13:28:08,5,0.4,0.6
"133","139","Clarendon Blvd & N Fillmore St","31021","1403472036827","38.8881","-77.09308","true","false","1321981080000","","false","true",22,28,"1403469863363",2014-06-22 16:44:23,50,0.44,0.56
"134","140","Clarendon Metro / Wilson Blvd & N Highland St","31022","1403471930815","38.88786","-77.094875","true","false","1321983480000","","false","true",24,29,"1403471446999",2014-06-22 17:10:46,53,0.452830188679245,0.547169811320755
"135","141","18th St & Pennsylvania Ave NW","31242","1403471951597","38.89968","-77.041539","true","false","1322571600000","","false","true",6,2,"1403471227393",2014-06-22 17:07:07,8,0.75,0.25
"136","142","Maryland & Independence Ave SW","31243","1403472060584","38.887299","-77.018939","true","false","1327669020000","","false","true",2,23,"1403471093615",2014-06-22 17:04:53,25,0.08,0.92
"137","143","4th & E St SW","31244","1403471987354","38.88412","-77.017445","true","false","1322756880000","","false","true",23,5,"1403471262561",2014-06-22 17:07:42,28,0.821428571428571,0.178571428571429
"138","144","3rd & G St SE","31625","1403472145239","38.881185","-77.001828","true","false","1322661660000","","false","true",2,10,"1403472143719",2014-06-22 17:22:23,12,0.166666666666667,0.833333333333333
"139","145","7th & R St NW / Shaw Library","31245","1403472021432","38.912719","-77.022155","true","false","1322583120000","","false","true",19,27,"1403471157294",2014-06-22 17:05:57,46,0.41304347826087,0.58695652173913
"140","146","9th & Upshur St NW","31404","1403472032240","38.9418","-77.0251","true","false","1323194880000","","false","true",20,4,"1403471790217",2014-06-22 17:16:30,24,0.833333333333333,0.166666666666667
"141","147","1st & Rhode Island Ave NW","31506","1403471945167","38.915417","-77.012289","true","false","1323178380000","","false","true",25,26,"1403471943850",2014-06-22 17:19:03,51,0.490196078431373,0.509803921568627
"142","148","Columbia Rd & Georgia Ave NW","31115","1403472067265","38.928156","-77.02344","true","false","1323234000000","","false","true",2,11,"1403472066156",2014-06-22 17:21:06,13,0.153846153846154,0.846153846153846
"143","149","California St & Florida Ave NW","31116","1403472004959","38.917761","-77.04062","true","false","1323752400000","","false","true",13,9,"1403471520715",2014-06-22 17:12:00,22,0.590909090909091,0.409090909090909
"144","150","Benning Rd & East Capitol St NE / Benning Rd Metro","31707","1403472047453","38.889935","-76.93723","true","false","1324404360000","","false","true",3,29,"1403468372770",2014-06-22 16:19:32,32,0.09375,0.90625
"145","151","3000 Connecticut Ave NW / National Zoo","31307","1403471925251","38.930282","-77.055599","true","false","1324496640000","","false","true",1,7,"1403471682724",2014-06-22 17:14:42,8,0.125,0.875
"146","152","Anacostia Ave & Benning Rd NE / River Terrace ","31708","1403471996667","38.896544","-76.96012","true","false","1324402320000","","false","true",20,4,"1403471512829",2014-06-22 17:11:52,24,0.833333333333333,0.166666666666667
"147","153","M St & Pennsylvania Ave NW","31246","1403472128836","38.905126","-77.056887","true","false","1324485480000","","false","true",5,27,"1403472127504",2014-06-22 17:22:07,32,0.15625,0.84375
"148","154","15th St & Massachusetts Ave SE","31626","1403471945576","38.88732","-76.983569","true","false","1324565040000","","false","true",8,1,"1403471462550",2014-06-22 17:11:02,9,0.888888888888889,0.111111111111111
"149","155","Congress Heights Metro","31806","1403472160238","38.844711","-76.987823","true","false","1324581180000","","false","true",20,3,"1403410041407",2014-06-22 00:07:21,23,0.869565217391304,0.130434782608696
"150","156","N Quincy St & Glebe Rd","31035","1403471999153","38.876393","-77.107735","true","false","1335552600000","","false","true",19,28,"1403469433832",2014-06-22 16:37:13,47,0.404255319148936,0.595744680851064
"151","157","Wilson Blvd & N Oakland St","31033","1403472063691","38.8815","-77.10396","true","false","1335387720000","","false","true",13,29,"1403469083714",2014-06-22 16:31:23,42,0.30952380952381,0.69047619047619
"152","158","N Veitch  & 20th St N","31029","1403472056230","38.896923","-77.086502","true","false","1335213360000","","false","true",3,25,"1403471329734",2014-06-22 17:08:49,28,0.107142857142857,0.892857142857143
"153","159","11th & K St NW","31263","1403472085365","38.90268","-77.02674","true","false","1360936140000","","false","true",8,20,"1403470877880",2014-06-22 17:01:17,28,0.285714285714286,0.714285714285714
"154","160","Fairfax Dr & Wilson Blvd","31023","1403472022145","38.885801","-77.097745","true","false","1335545880000","","false","true",13,28,"1403470868268",2014-06-22 17:01:08,41,0.317073170731707,0.682926829268293
"155","161","Key Blvd & N Quinn St","31027","1403472004050","38.896015","-77.078107","true","false","1335195480000","","false","true",20,26,"1403469170091",2014-06-22 16:32:50,46,0.434782608695652,0.565217391304348
"156","162","1st & K St SE","31628","1403472078438","38.87861","-77.006004","true","false","1328717220000","","false","true",1,8,"1403471836487",2014-06-22 17:17:16,9,0.111111111111111,0.888888888888889
"157","163","39th & Calvert St NW / Stoddert","31306","1403472076660","38.922649","-77.077271","true","false","1328898300000","","false","true",25,3,"1403471351371",2014-06-22 17:09:11,28,0.892857142857143,0.107142857142857
"158","164","1st & Washington Hospital Center NW","31507","1403472056575","38.928743","-77.012457","true","false","1329153540000","","false","true",22,29,"1403440559371",2014-06-22 08:35:59,51,0.431372549019608,0.568627450980392
"159","165","Virginia Square Metro / N Monroe St & 9th St N","31024","1403472089634","38.882788","-77.103148","true","false","1329508980000","","false","true",20,8,"1403470398523",2014-06-22 16:53:18,28,0.714285714285714,0.285714285714286
"160","166","Central Library / N Quincy St & 10th St N","31025","1403472080365","38.88397","-77.10783","true","false","1329493920000","","false","true",20,26,"1403471114174",2014-06-22 17:05:14,46,0.434782608695652,0.565217391304348
"161","167","Washington Blvd & 10th St N","31026","1403472052784","38.884734","-77.093485","true","false","1329944340000","","false","true",13,6,"1403467677343",2014-06-22 16:07:57,19,0.684210526315789,0.315789473684211
"162","168","Jefferson Dr & 14th St SW","31247","1403472163842","38.888553","-77.032429","true","false","1331911860000","","false","true",3,5,"1403471980670",2014-06-22 17:19:40,8,0.375,0.625
"163","169","Smithsonian / Jefferson Dr & 12th St SW","31248","1403472161138","38.888767","-77.02858","true","false","1333369620000","","false","true",20,12,"1403471969115",2014-06-22 17:19:29,32,0.625,0.375
"164","170","George Mason Dr & Wilson Blvd","31036","1403471931610","38.87887","-77.1207","true","false","1335805380000","","false","true",25,25,"1403470964695",2014-06-22 17:02:44,50,0.5,0.5
"165","171","6th St & Indiana Ave NW","31264","1403472110397","38.894573","-77.01994","true","false","1364990040000","","false","true",20,7,"1403472109161",2014-06-22 17:21:49,27,0.740740740740741,0.259259259259259
"166","172","N Veitch & Key Blvd","31028","1403471976732","38.893241","-77.086045","true","false","1335202980000","","false","true",20,27,"1403471975369",2014-06-22 17:19:35,47,0.425531914893617,0.574468085106383
"167","173","N Adams St & Lee Hwy","31030","1403472022293","38.89593","-77.089006","true","false","1335369060000","","false","true",2,7,"1403471295612",2014-06-22 17:08:15,9,0.222222222222222,0.777777777777778
"168","174","15th & N Scott St","31031","1403472061707","38.89054","-77.08095","true","false","1335362100000","","false","true",2,3,"1403470129710",2014-06-22 16:48:49,5,0.4,0.6
"169","175","Washington Blvd & 7th St N","31032","1403472010720","38.880834","-77.091129","true","false","1335794400000","","false","true",13,29,"1403471768263",2014-06-22 17:16:08,42,0.30952380952381,0.69047619047619
"170","176","Ballston Metro / N Stuart & 9th St N","31037","1403472164793","38.881044","-77.111768","true","false","1335817440000","","false","true",13,10,"1403466547528",2014-06-22 15:49:07,23,0.565217391304348,0.434782608695652
"171","177","N Randolph St & Fairfax Dr","31034","1403472143230","38.882629","-77.109366","true","false","1335542580000","","false","true",2,3,"1403470967083",2014-06-22 17:02:47,5,0.4,0.6
"172","178","Jefferson Memorial","31249","1403472154125","38.879819","-77.037413","true","false","1335969180000","","false","true",23,9,"1403472027071",2014-06-22 17:20:27,32,0.71875,0.28125
"173","179","Good Hope Rd & 14th St SE","31803","1403472013904","38.866611","-76.985238","true","false","1335981060000","","false","true",25,26,"1403410043983",2014-06-22 00:07:23,51,0.490196078431373,0.509803921568627
"174","180","Glebe Rd & 11th St N","31038","1403472074826","38.883921","-77.116817","true","false","1337269200000","","false","true",21,26,"1403471832410",2014-06-22 17:17:12,47,0.446808510638298,0.553191489361702
"175","181","N Quincy St & Wilson Blvd","31039","1403472022062","38.880151","-77.107673","true","false","1338301620000","","false","true",23,24,"1403472021636",2014-06-22 17:20:21,47,0.48936170212766,0.51063829787234
"176","182","Fairfax Dr & Kenmore St","31040","1403472005593","38.884616","-77.10108","true","false","1366814880000","","false","true",20,27,"1403469349438",2014-06-22 16:35:49,47,0.425531914893617,0.574468085106383
"177","183","Gallaudet / 8th St & Florida Ave NE","31508","1403472164398","38.90509","-76.9941","true","false","1342033620000","","false","true",23,5,"1403472163417",2014-06-22 17:22:43,28,0.821428571428571,0.178571428571429
"178","185","20th & L St NW","31250","1403472125205","38.903584","-77.044789","true","false","1340632500000","","false","true",1,11,"1403469199836",2014-06-22 16:33:19,12,0.0833333333333333,0.916666666666667
"179","186","12th & L St NW","31251","1403472091464","38.903819","-77.0284","true","false","1340639640000","","false","true",13,10,"1403472090399",2014-06-22 17:21:30,23,0.565217391304348,0.434782608695652
"180","187","21st St & Pennsylvania Ave NW","31252","1403472145724","38.901539","-77.046564","true","false","1340811180000","","false","true",25,3,"1403467266134",2014-06-22 16:01:06,28,0.892857142857143,0.107142857142857
"181","188","19th & K St NW","31253","1403472103882","38.902204","-77.04337","true","false","1340801880000","","false","true",25,7,"1403470711547",2014-06-22 16:58:31,32,0.78125,0.21875
"182","189","Prince St & Union St","31041","1403472049229","38.803124","-77.040363","true","false","1346070420000","","false","true",24,4,"1403466466676",2014-06-22 15:47:46,28,0.857142857142857,0.142857142857143
"183","190","Market Square / King St & Royal St","31042","1403472111349","38.804718","-77.043363","true","false","1346077680000","","false","true",25,25,"1403471145010",2014-06-22 17:05:45,50,0.5,0.5
"184","191","Saint Asaph St & Pendleton  St","31043","1403472138727","38.810743","-77.044664","true","false","1346084880000","","false","true",23,28,"1403471308951",2014-06-22 17:08:28,51,0.450980392156863,0.549019607843137
"185","192","King St & Patrick St","31044","1403471963381","38.805317","-77.049883","true","false","1346442900000","","false","true",5,20,"1403468930144",2014-06-22 16:28:50,25,0.2,0.8
"186","193","15th & K St NW","31254","1403472038414","38.902","-77.03353","true","false","1341232920000","","false","true",5,26,"1403472037178",2014-06-22 17:20:37,31,0.161290322580645,0.838709677419355
"187","194","Commerce St & Fayette St","31045","1403472118925","38.805648","-77.05293","true","false","1346442960000","","false","true",21,29,"1403467614398",2014-06-22 16:06:54,50,0.42,0.58
"188","195","Henry St & Pendleton St","31046","1403472087498","38.811456","-77.050276","true","false","1346442960000","","false","true",22,4,"1403467237579",2014-06-22 16:00:37,26,0.846153846153846,0.153846153846154
"189","196","Braddock Rd Metro","31047","1403472125407","38.814577","-77.052808","true","false","1346442960000","","false","true",12,1,"1403471034659",2014-06-22 17:03:54,13,0.923076923076923,0.0769230769230769
"190","197","King St Metro","31048","1403471960095","38.805767","-77.06072","true","false","1346443020000","","false","true",7,25,"1403471229968",2014-06-22 17:07:09,32,0.21875,0.78125
"191","198","24th & N St NW","31255","1403472102994","38.9066","-77.05152","true","false","1341575340000","","false","true",3,25,"1403471860961",2014-06-22 17:17:40,28,0.107142857142857,0.892857142857143
"192","199","10th & E St NW","31256","1403472146368","38.895914","-77.026064","true","false","1342109700000","","false","true",6,13,"1403472145461",2014-06-22 17:22:25,19,0.315789473684211,0.684210526315789
"193","200","22nd & I St NW / Foggy Bottom","31257","1403472146968","38.90088","-77.048911","true","false","1342442220000","","false","true",4,24,"1403472146321",2014-06-22 17:22:26,28,0.142857142857143,0.857142857142857
"194","201","Utah St & 11th St N ","31049","1403472074324","38.883669","-77.113905","true","false","1342539420000","","false","true",20,27,"1403471832439",2014-06-22 17:17:12,47,0.425531914893617,0.574468085106383
"195","202","Barton St & 10th St N","31050","1403472089890","38.884961","-77.08777","true","false","1346771820000","","false","true",21,26,"1403467270694",2014-06-22 16:01:10,47,0.446808510638298,0.553191489361702
"196","203","Arlington Blvd & N Queen St","31051","1403472011776","38.889365","-77.077294","true","false","1346776740000","","false","true",21,26,"1403470922294",2014-06-22 17:02:02,47,0.446808510638298,0.553191489361702
"197","204","Lincoln Memorial","31258","1403472143581","38.888251","-77.049426","true","false","1349268360000","","false","true",23,10,"1403472142158",2014-06-22 17:22:22,33,0.696969696969697,0.303030303030303
"198","206","20th St & Virginia Ave NW","31259","1403471991993","38.894722","-77.045128","true","false","1359646980000","","false","true",1,8,"1403469769381",2014-06-22 16:42:49,9,0.111111111111111,0.888888888888889
"199","207","5th St & Massachusetts Ave NW","31265","1403472136468","38.90093","-77.018677","true","false","1367842440000","","false","true",2,11,"1403472135569",2014-06-22 17:22:15,13,0.153846153846154,0.846153846153846
"200","208","39th & Veazey St NW","31308","1403471958631","38.943837","-77.077078","true","false","1360598160000","","false","true",22,29,"1403468681644",2014-06-22 16:24:41,51,0.431372549019608,0.568627450980392
"201","209","Fessenden St & Wisconsin Ave NW","31309","1403472119142","38.954812","-77.082426","true","false","1360588560000","","false","true",19,5,"1403472118000",2014-06-22 17:21:58,24,0.791666666666667,0.208333333333333
"202","210","M St & Delaware Ave NE","31627","1403472096283","38.905707","-77.003041","true","false","1360929900000","","false","true",20,12,"1403472094921",2014-06-22 17:21:34,32,0.625,0.375
"203","211","Columbia Pike & S Courthouse Rd","31053","1403472096204","38.863833","-77.080319","true","false","1364482620000","","false","true",21,3,"1403470058937",2014-06-22 16:47:38,24,0.875,0.125
"204","212","Walter Reed Community Center / Walter Reed Dr & 16th St S","31054","1403471969422","38.857803","-77.086733","true","false","1364466180000","","false","true",22,25,"1403471244279",2014-06-22 17:07:24,47,0.468085106382979,0.531914893617021
"205","213","28th St S & S Meade St","31055","1403472109361","38.846222","-77.069275","true","false","1364476320000","","false","true",21,3,"1403470153097",2014-06-22 16:49:13,24,0.875,0.125
"206","214","18th St & Wyoming Ave NW","31114","1403472057417","38.918809","-77.041571","true","false","1365003300000","","false","true",24,8,"1403472056300",2014-06-22 17:20:56,32,0.75,0.25
"207","215","5th & Kennedy St NW","31403","1403471943351","38.956595","-77.019815","true","false","1365777420000","","false","true",21,3,"1403469286973",2014-06-22 16:34:46,24,0.875,0.125
"208","216","Georgia Ave & Emerson St NW","31405","1403472141318","38.949662","-77.027333","true","false","1365783540000","","false","true",3,28,"1403454254466",2014-06-22 12:24:14,31,0.0967741935483871,0.903225806451613
"209","217","14th & Upshur St NW","31406","1403472094046","38.942016","-77.032652","true","false","1365794820000","","false","true",21,7,"1403471369192",2014-06-22 17:09:29,28,0.75,0.25
"210","218","14th St & Colorado Ave NW","31407","1403472040211","38.956432","-77.032947","true","false","1365798900000","","false","true",13,10,"1403467983838",2014-06-22 16:13:03,23,0.565217391304348,0.434782608695652
"211","219","S Troy St & 26th St S","31056","1403471955466","38.847977","-77.075104","true","false","1366725840000","","false","true",23,24,"1403467384418",2014-06-22 16:03:04,47,0.48936170212766,0.51063829787234
"212","220","S Four Mile Run Dr & S Shirlington Rd","31057","1403472003405","38.8444","-77.085931","true","false","1366729200000","","false","true",23,24,"1403472002784",2014-06-22 17:20:02,47,0.48936170212766,0.51063829787234
"213","221","S Oakland St & Columbia Pike","31058","1403472126429","38.860789","-77.09586","true","false","1366735380000","","false","true",21,26,"1403410019025",2014-06-22 00:06:59,47,0.446808510638298,0.553191489361702
"214","222","S Abingdon St & 36th St S","31059","1403472093564","38.835213","-77.094295","true","false","1366739700000","","false","true",19,27,"1403410018813",2014-06-22 00:06:58,46,0.41304347826087,0.58695652173913
"215","223","S Arlington Mill Dr & Campbell Ave","31060","1403472076085","38.84232","-77.089555","true","false","1366802400000","","false","true",23,27,"1403466483805",2014-06-22 15:48:03,50,0.46,0.54
"216","224","S Kenmore & 24th St S","31061","1403472152227","38.848454","-77.084918","true","false","1366825140000","","false","true",21,26,"1403410041144",2014-06-22 00:07:21,47,0.446808510638298,0.553191489361702
"217","225","13th St & Eastern Ave","32006","1403472144091","38.987","-77.029417","true","false","1380292680000","","false","true",23,28,"1403410039936",2014-06-22 00:07:19,51,0.450980392156863,0.549019607843137
"218","226","Wisconsin Ave & O St NW","31312","1403472120239","38.90849","-77.063586","true","false","1366910820000","","false","true",19,9,"1403472119215",2014-06-22 17:21:59,28,0.678571428571429,0.321428571428571
"219","227","S George Mason Dr & 13th St S","31062","1403472049102","38.854691","-77.100555","true","false","1372694040000","","false","true",21,26,"1403410038697",2014-06-22 00:07:18,47,0.446808510638298,0.553191489361702
"220","228","Connecticut & Nebraska Ave NW","31310","1403472101090","38.955016","-77.069956","true","false","1366894140000","","false","true",5,4,"1403469768156",2014-06-22 16:42:48,9,0.555555555555556,0.444444444444444
"221","229","17th St & Massachusetts Ave NW","31267","1403471990636","38.908142","-77.038359","true","false","1367851920000","","false","true",2,11,"1403471506721",2014-06-22 17:11:46,13,0.153846153846154,0.846153846153846
"222","230","15th & Euclid St  NW","31117","1403472073819","38.92333","-77.0352","true","false","1367856780000","","false","true",19,5,"1403472072606",2014-06-22 17:21:12,24,0.791666666666667,0.208333333333333
"223","231","8th & East Capitol St NE","31629","1403472009060","38.889988","-76.995193","true","false","1368545580000","","false","true",2,3,"1403472008383",2014-06-22 17:20:08,5,0.4,0.6
"224","232","New Jersey Ave & R St NW","31509","1403472120663","38.912659","-77.017669","true","false","1368532680000","","false","true",5,20,"1403471636964",2014-06-22 17:13:56,25,0.2,0.8
"225","233","15th & East Capitol St NE","31630","1403472164077","38.889908","-76.983326","true","false","1368541260000","","false","true",20,27,"1403471921747",2014-06-22 17:18:41,47,0.425531914893617,0.574468085106383
"226","234","8th & F St NE","31631","1403472018110","38.897274","-76.994749","true","false","1368552540000","","false","true",3,24,"1403471776160",2014-06-22 17:16:16,27,0.111111111111111,0.888888888888889
"227","235","18th St & Rhode Island Ave NE","31510","1403471966853","38.927095","-76.978924","true","false","1369915500000","","false","true",24,27,"1403471000432",2014-06-22 17:03:20,51,0.470588235294118,0.529411764705882
"228","236","15th & F St NE","31632","1403471942801","38.897195","-76.983575","true","false","1369928820000","","false","true",23,5,"1403470975945",2014-06-22 17:02:55,28,0.821428571428571,0.178571428571429
"229","237","12th & Irving St NE","31511","1403471929754","38.928644","-76.990955","true","false","1369923120000","","false","true",3,25,"1403464290061",2014-06-22 15:11:30,28,0.107142857142857,0.892857142857143
"230","238","34th St & Minnesota Ave SE","31709","1403471988934","38.884085","-76.957461","true","false","1370358840000","","false","true",22,25,"1403410031849",2014-06-22 00:07:11,47,0.468085106382979,0.531914893617021
"231","239","Alabama & MLK Ave SE","31800","1403472050699","38.843222","-76.999388","true","false","1370345160000","","false","true",21,26,"1403410041205",2014-06-22 00:07:21,47,0.446808510638298,0.553191489361702
"232","240","Pleasant St & MLK Ave SE","31807","1403471945627","38.863897","-76.990037","true","false","1370351820000","","false","true",21,26,"1403410040899",2014-06-22 00:07:20,47,0.446808510638298,0.553191489361702
"233","241","Neal St & Trinidad Ave NE","31512","1403472135173","38.903732","-76.987211","true","false","1371221640000","","false","true",23,28,"1403469720147",2014-06-22 16:42:00,51,0.450980392156863,0.549019607843137
"234","242","13th & U St NW","31268","1403472051263","38.916794","-77.029779","true","false","1371231240000","","false","true",21,11,"1403471808918",2014-06-22 17:16:48,32,0.65625,0.34375
"235","243","S George Mason Dr & Four Mile Run","31063","1403472163266","38.852248","-77.105022","true","false","1372690500000","","false","true",24,20,"1403457880199",2014-06-22 13:24:40,44,0.545454545454545,0.454545454545455
"236","244","S Stafford & 34th St S","31064","1403472089931","38.834108","-77.087323","true","false","1372701360000","","false","true",23,27,"1403410032316",2014-06-22 00:07:12,50,0.46,0.54
"237","245","N Pershing Dr & Wayne St","31065","1403472140993","38.880705","-77.08596","true","false","1372680300000","","false","true",20,27,"1403470691531",2014-06-22 16:58:11,47,0.425531914893617,0.574468085106383
"238","246","Columbia Pike & S Orme St","31066","1403472151141","38.867262","-77.072315","true","false","1372684620000","","false","true",13,29,"1403454383669",2014-06-22 12:26:23,42,0.30952380952381,0.69047619047619
"239","247","3rd St & Pennsylvania Ave SE","31269","1403471926260","38.887378","-77.001955","true","false","1374598740000","","false","true",1,8,"1403471925594",2014-06-22 17:18:45,9,0.111111111111111,0.888888888888889
"240","248","8th & D St NW","31270","1403472162371","38.894851","-77.02324","true","false","1374581640000","","false","true",19,5,"1403471916253",2014-06-22 17:18:36,24,0.791666666666667,0.208333333333333
"241","249","3rd & Elm St NW","31118","1403472134244","38.917622","-77.01597","true","false","1374589740000","","false","true",13,4,"1403471650218",2014-06-22 17:14:10,17,0.764705882352941,0.235294117647059
"242","250","Rhode Island Ave & V St NE","31513","1403472129047","38.918155","-77.004746","true","false","1375196700000","","false","true",21,6,"1403470680107",2014-06-22 16:58:00,27,0.777777777777778,0.222222222222222
"243","251","Constitution Ave & 2nd St NW/DOL","31271","1403472005832","38.892275","-77.013917","true","false","1375190280000","","false","true",21,15,"1403471762894",2014-06-22 17:16:02,36,0.583333333333333,0.416666666666667
"244","252","Washington & Independence Ave SW/HHS","31272","1403472127212","38.88731","-77.01397","true","false","1375445040000","","false","true",12,26,"1403471643086",2014-06-22 17:14:03,38,0.315789473684211,0.684210526315789
"245","253","Independence Ave & L'Enfant Plaza SW/DOE","31633","1403472014427","38.887397","-77.026154","true","false","1375789680000","","false","true",1,8,"1403466469433",2014-06-22 15:47:49,9,0.111111111111111,0.888888888888889
"246","254","Hamlin & 7th St NE","31514","1403472032099","38.927497","-76.997194","true","false","1376653440000","","false","true",5,20,"1403471547718",2014-06-22 17:12:27,25,0.2,0.8
"247","255","Columbia Pike & S Walter Reed Dr","31067","1403472092795","38.862478","-77.086599","true","false","1377605340000","","false","true",1,5,"1403469196017",2014-06-22 16:33:16,6,0.166666666666667,0.833333333333333
"248","256","Columbia Pike & S Dinwiddie St / Arlington Mill Community Center","31068","1403472110953","38.856319","-77.11153","true","false","1377776460000","","false","true",23,28,"1403466105296",2014-06-22 15:41:45,51,0.450980392156863,0.549019607843137
"249","257","Pershing & N George Mason Dr","31069","1403472133882","38.871822","-77.107906","true","false","1377792000000","","false","true",21,26,"1403470443499",2014-06-22 16:54:03,47,0.446808510638298,0.553191489361702
"250","258","Fenton St & New York Ave ","32001","1403472068727","38.985404","-77.023082","true","false","1380292620000","","false","true",23,28,"1403410034206",2014-06-22 00:07:14,51,0.450980392156863,0.549019607843137
"251","259","Bethesda Ave & Arlington Blvd","32002","1403472060859","38.981103","-77.097426","true","false","1380292620000","","false","true",23,5,"1403471094628",2014-06-22 17:04:54,28,0.821428571428571,0.178571428571429
"252","260","Montgomery Ave & Waverly St ","32003","1403472080594","38.983838","-77.09221","true","false","1382208480000","","false","true",23,24,"1403464521789",2014-06-22 15:15:21,47,0.48936170212766,0.51063829787234
"253","261","Fallsgrove Blvd & Fallsgrove Dr","32004","1403472087963","39.096312","-77.192672","true","false","1380292620000","","false","true",24,4,"1403471846355",2014-06-22 17:17:26,28,0.857142857142857,0.142857142857143
"254","262","Traville Gateway Dr & Gudelsky Dr","32005","1403471999892","39.093783","-77.202501","true","false","1380292680000","","false","true",24,4,"1403446636906",2014-06-22 10:17:16,28,0.857142857142857,0.142857142857143
"255","263","Norfolk Ave & Fairmont St","32000","1403472093029","38.988562","-77.096539","true","false","1380292560000","","false","true",22,25,"1403472092153",2014-06-22 17:21:32,47,0.468085106382979,0.531914893617021
"256","264","E Montgomery Ave & Maryland Ave","32007","1403472159380","39.084125","-77.151291","true","false","1380292560000","","false","true",23,28,"1403464426340",2014-06-22 15:13:46,51,0.450980392156863,0.549019607843137
"257","265","Cordell & Norfolk Ave","32008","1403472056836","38.98954","-77.098029","true","false","1380292740000","","false","true",22,25,"1403462454155",2014-06-22 14:40:54,47,0.468085106382979,0.531914893617021
"258","266","Frederick Ave & Horners Ln","32009","1403472009178","39.094772","-77.145213","true","false","1380292740000","","false","true",23,24,"1403410029447",2014-06-22 00:07:09,47,0.48936170212766,0.51063829787234
"259","267","Philadelphia & Maple Ave","32010","1403472014430","38.98128","-77.011336","true","false","1380292740000","","false","true",23,28,"1403462337132",2014-06-22 14:38:57,51,0.450980392156863,0.549019607843137
"260","268","Maple & Ritchie Ave","32011","1403472023362","38.983627","-77.006311","true","false","1380292800000","","false","true",4,28,"1403466052226",2014-06-22 15:40:52,32,0.125,0.875
"261","269","Silver Spring Metro/Colesville Rd & Wayne Ave","32012","1403472129301","38.99521","-77.02918","true","false","1380292800000","","false","true",25,3,"1403468761231",2014-06-22 16:26:01,28,0.892857142857143,0.107142857142857
"262","270","Montgomery & East Ln","32013","1403471937145","38.983525","-77.095367","true","false","1380292800000","","false","true",19,28,"1403460967318",2014-06-22 14:16:07,47,0.404255319148936,0.595744680851064
"263","271","Friendship Hts Metro/Wisconsin Ave & Wisconsin Cir","32014","1403472076367","38.961763","-77.085998","true","false","1380292860000","","false","true",3,29,"1403469661288",2014-06-22 16:41:01,32,0.09375,0.90625
"264","272","14th & Belmont St NW","31119","1403472073763","38.921074","-77.031887","true","false","1380719160000","","false","true",21,3,"1403471831149",2014-06-22 17:17:11,24,0.875,0.125
"265","273","3rd & Tingey St SE","31634","1403472011498","38.87501","-77.0024","true","false","1380722700000","","false","true",2,11,"1403471769527",2014-06-22 17:16:09,13,0.153846153846154,0.846153846153846
"266","274","10th & Florida Ave NW","31120","1403472004671","38.920387","-77.025672","true","false","1381320720000","","false","true",7,24,"1403472004370",2014-06-22 17:20:04,31,0.225806451612903,0.774193548387097
"267","275","Potomac Ave & 8th St SE","31635","1403472018738","38.876737","-76.994468","true","false","1381333800000","","false","true",22,29,"1403471776499",2014-06-22 17:16:16,51,0.431372549019608,0.568627450980392
"268","276","Crabbs Branch Way & Redland Rd","32015","1403472155666","39.120045","-77.156985","true","false","1382100480000","","false","true",21,3,"1403462499628",2014-06-22 14:41:39,24,0.875,0.125
"269","277","Fallsgrove Dr & W Montgomery Ave","32016","1403472083297","39.099376","-77.188014","true","false","1382120580000","","false","true",24,27,"1403410010885",2014-06-22 00:06:50,51,0.470588235294118,0.529411764705882
"270","278","Monroe St & Monroe Pl","32017","1403472105091","39.083705","-77.149443","true","false","1383309240000","","false","true",21,29,"1403468078927",2014-06-22 16:14:38,50,0.42,0.58
"271","279","Needwood Rd & Eagles Head Ct","32018","1403471941261","39.123513","-77.15741","true","false","1382107020000","","false","true",22,29,"1403410014879",2014-06-22 00:06:54,51,0.431372549019608,0.568627450980392
"272","280","East West Hwy & Blair Mill Rd","32019","1403472002069","38.990249","-77.02935","true","false","1383148920000","","false","true",21,3,"1403456038780",2014-06-22 12:53:58,24,0.875,0.125
"273","281","Crabbs Branch Way & Calhoun Pl","32020","1403472103211","39.107709","-77.152072","true","false","1382111460000","","false","true",23,28,"1403410011268",2014-06-22 00:06:51,51,0.450980392156863,0.549019607843137
"274","282","47th & Elm St","32021","1403471995268","38.982456","-77.091991","true","false","1382208540000","","false","true",21,3,"1403468090041",2014-06-22 16:14:50,24,0.875,0.125
"275","283","Garland Ave & Walden Rd","32022","1403471993251","39.000578","-77.00149","true","false","1383059580000","","false","true",22,29,"1403465363298",2014-06-22 15:29:23,51,0.431372549019608,0.568627450980392
"276","284","Montgomery College/W Campus Dr & Mannakee St","32023","1403472119724","39.095661","-77.159048","true","false","1382199120000","","false","true",23,7,"1403465951943",2014-06-22 15:39:11,30,0.766666666666667,0.233333333333333
"277","285","Fenton St & Gist Ave","32024","1403472115460","38.989724","-77.023854","true","false","1383054960000","","false","true",22,25,"1403471390531",2014-06-22 17:09:50,47,0.468085106382979,0.531914893617021
"278","286","Carroll & Westmoreland Ave","32025","1403472064072","38.975","-77.01121","true","false","1383065460000","","false","true",21,3,"1403470373721",2014-06-22 16:52:53,24,0.875,0.125
"279","287","Carroll & Ethan Allen Ave","32026","1403471998420","38.977933","-77.006472","true","false","1383070440000","","false","true",20,4,"1403469345900",2014-06-22 16:35:45,24,0.833333333333333,0.166666666666667
"280","288","Battery Ln & Trolley Trail","32027","1403472051296","38.992375","-77.100104","true","false","1382712300000","","false","true",25,26,"1403469771634",2014-06-22 16:42:51,51,0.490196078431373,0.509803921568627
"281","289","Norfolk & Rugby Ave","32028","1403472083596","38.990639","-77.100239","true","false","1382715180000","","false","true",22,25,"1403460311748",2014-06-22 14:05:11,47,0.468085106382979,0.531914893617021
"282","290","Offutt Ln & Chevy Chase Dr","32029","1403471998474","38.977093","-77.094589","true","false","1382722080000","","false","true",19,28,"1403464692376",2014-06-22 15:18:12,47,0.404255319148936,0.595744680851064
"283","291","Broschart & Blackwell Rd","32030","1403471980783","39.102099","-77.200322","true","false","1382798640000","","false","true",22,29,"1403410014094",2014-06-22 00:06:54,51,0.431372549019608,0.568627450980392
"284","292","Taft St & E Gude Dr","32031","1403472095513","39.094103","-77.132954","true","false","1382804520000","","false","true",21,3,"1403410009887",2014-06-22 00:06:49,24,0.875,0.125
"285","293","Fleet St & Ritchie Pkwy","32032","1403472118359","39.076331","-77.141378","true","false","1382809500000","","false","true",24,27,"1403469945433",2014-06-22 16:45:45,51,0.470588235294118,0.529411764705882
"286","294","Piccard & W Gude Dr","32033","1403472163328","39.102212","-77.177091","true","false","1382795700000","","false","true",3,29,"1403456989177",2014-06-22 13:09:49,32,0.09375,0.90625
"287","295","Ripley & Bonifant St","32034","1403472109842","38.992679","-77.029457","true","false","1383141360000","","false","true",23,28,"1403469281742",2014-06-22 16:34:41,51,0.450980392156863,0.549019607843137
"288","296","Georgia Ave & Spring St","32035","1403471959739","38.999388","-77.031555","true","false","1383146520000","","false","true",21,26,"1403471717179",2014-06-22 17:15:17,47,0.446808510638298,0.553191489361702
"289","297","Fenton St & Ellsworth Dr ","32036","1403472078833","38.997033","-77.025608","true","false","1383135960000","","false","true",22,29,"1403471112379",2014-06-22 17:05:12,51,0.431372549019608,0.568627450980392
"290","298","King Farm Blvd & Pleasant Dr","32037","1403472039505","39.114688","-77.171487","true","false","1383323580000","","false","true",24,3,"1403462060364",2014-06-22 14:34:20,27,0.888888888888889,0.111111111111111
"291","299","King Farm Blvd & Piccard Dr","32038","1403472080935","39.110314","-77.182669","true","false","1383318120000","","false","true",23,28,"1403410036625",2014-06-22 00:07:16,51,0.450980392156863,0.549019607843137
"292","301","Calvert St & Woodley Pl NW","31121","1403472083899","38.923583","-77.050046","true","false","1383657120000","","false","true",21,7,"1403472082454",2014-06-22 17:21:22,28,0.75,0.25
"293","302","New Jersey Ave & N St NW/Dunbar HS","31636","1403472077882","38.90706","-77.015231","true","false","1383662880000","","false","true",4,28,"1403470628723",2014-06-22 16:57:08,32,0.125,0.875
"294","303","Nannie Helen Burroughs Ave & 49th St NE","31710","1403472029905","38.898536","-76.931862","true","false","1383923280000","","false","true",21,26,"1403412482971",2014-06-22 00:48:02,47,0.446808510638298,0.553191489361702
"295","304","Deanwood Rec Center","31711","1403472082397","38.908473","-76.933099","true","false","1383923280000","","false","true",23,28,"1403462531509",2014-06-22 14:42:11,51,0.450980392156863,0.549019607843137
"296","305","Hains Point/Buckeye & Ohio Dr SW","31273","1403472135226","38.878433","-77.03023","true","false","1383929160000","","false","true",25,28,"1403471079747",2014-06-22 17:04:39,53,0.471698113207547,0.528301886792453
"297","306","Arlington Blvd & Fillmore St","31070","1403472074841","38.873755","-77.089233","true","false","1384527780000","","false","true",20,26,"1403461257171",2014-06-22 14:20:57,46,0.434782608695652,0.565217391304348
"298","307","Long Bridge Park/Long Bridge Dr & 6th St S","31071","1403472158587","38.86646","-77.04826","true","false","1384520760000","","false","true",22,29,"1403471729950",2014-06-22 17:15:29,51,0.431372549019608,0.568627450980392
"299","308","Old Georgetown Rd & Southwick St","32039","1403472121723","38.999634","-77.109647","true","false","1384367940000","","false","true",25,3,"1403459410205",2014-06-22 13:50:10,28,0.892857142857143,0.107142857142857
"300","309","Friendship Blvd & Willard Ave","32040","1403472101948","38.96115","-77.088659","true","false","1384355760000","","false","true",25,3,"1403457252748",2014-06-22 13:14:12,28,0.892857142857143,0.107142857142857
"301","310","North Capitol St & G Pl NE","31637","1403472098256","38.899703","-77.008911","true","false","1386954360000","","false","true",13,10,"1403463199730",2014-06-22 14:53:19,23,0.565217391304348,0.434782608695652
"302","311","31st & Woodrow St S","31072","1403471978329","38.837666","-77.09482","true","false","1387298640000","","false","true",23,24,"1403410030217",2014-06-22 00:07:10,47,0.48936170212766,0.51063829787234
"303","312","Washington Blvd & Walter Reed Dr ","31073","1403472054323","38.873219","-77.082104","true","false","1387287180000","","false","true",24,27,"1403455693388",2014-06-22 12:48:13,51,0.470588235294118,0.529411764705882
"304","313","Thomas Jefferson Cmty Ctr / 2nd St S & Ivy","31074","1403472113126","38.869675","-77.093586","true","false","1386774900000","","false","true",21,26,"1403410028788",2014-06-22 00:07:08,47,0.446808510638298,0.553191489361702
"305","314","Connecticut Ave & Tilden St NW","31313","1403472079135","38.941154","-77.062036","true","false","1386954480000","","false","true",13,6,"1403467613229",2014-06-22 16:06:53,19,0.684210526315789,0.315789473684211
"306","315","Medical Center Dr & Key West Ave","32041","1403472049967","39.103091","-77.196442","true","false","1389273960000","","false","true",24,27,"1403410011220",2014-06-22 00:06:51,51,0.470588235294118,0.529411764705882
"307","316","Shady Grove Hospital","32042","1403472063664","39.097636","-77.196636","true","false","1389287040000","","false","true",25,3,"1403410034313",2014-06-22 00:07:14,28,0.892857142857143,0.107142857142857
"308","317","Veterans Pl & Pershing Dr ","32043","1403471988063","38.997445","-77.023894","true","false","1391876460000","","false","true",23,24,"1403435180977",2014-06-22 07:06:20,47,0.48936170212766,0.51063829787234
"309","318","Rockville Metro East","32044","1403472079610","39.085394","-77.145803","true","false","1393000800000","","false","true",21,28,"1403410029214",2014-06-22 00:07:09,49,0.428571428571429,0.571428571428571
"310","319","1st & H St NW","31638","1403472086340","38.900358","-77.012108","true","false","1392727500000","","false","true",3,24,"1403471602166",2014-06-22 17:13:22,27,0.111111111111111,0.888888888888889
"311","320","Fort Totten Metro","31515","1403472107457","38.952369","-77.002721","true","false","1392825840000","","false","true",22,6,"1403469692435",2014-06-22 16:41:32,28,0.785714285714286,0.214285714285714
"312","321","Takoma Metro","31408","1403471938604","38.975219","-77.016855","true","false","1392833400000","","false","true",3,29,"1403468692814",2014-06-22 16:24:52,32,0.09375,0.90625
"313","322","Rhode Island Ave Metro","31516","1403472024558","38.920682","-76.995876","true","false","1393259520000","","false","true",2,11,"1403467890765",2014-06-22 16:11:30,13,0.153846153846154,0.846153846153846
"314","323","Rolfe St & 9th St S","31075","1403472086521","38.866471","-77.076131","true","false","1394630640000","","false","true",24,20,"1403410013259",2014-06-22 00:06:53,44,0.545454545454545,0.454545454545455
"315","324","Shirlington Transit Center / S Quincy & Randolph St","31076","1403472125850","38.839912","-77.087083","true","false","1394637480000","","false","true",23,28,"1403452593235",2014-06-22 11:56:33,51,0.450980392156863,0.549019607843137
"316","325","Shady Grove Metro West","32045","1403472004749","39.119765","-77.166093","true","false","1397837820000","","false","true",23,5,"1403471520968",2014-06-22 17:12:00,28,0.821428571428571,0.178571428571429
"317","326","River Rd & Landy Ln","32046","1403472101945","38.964992","-77.103381","true","false","1396972380000","","false","true",6,26,"1403471859376",2014-06-22 17:17:39,32,0.1875,0.8125
"318","327","Rockville Metro West","32047","1403472027891","39.084379","-77.146866","true","false","1397847900000","","false","true",4,28,"1403407327106",2014-06-21 23:22:07,32,0.125,0.875
"319","328","Bethesda Metro","32048","1403472036960","38.984691","-77.094537","true","false","1398786060000","","false","true",21,27,"1403462678402",2014-06-22 14:44:38,48,0.4375,0.5625
"320","329","Iwo Jima Memorial/N Meade & 14th St N","31077","1403471948142","38.88992","-77.071301","true","false","1402585680000","","false","true",25,3,"1403470368589",2014-06-22 16:52:48,28,0.892857142857143,0.107142857142857
