"","id","name","terminalName","lastCommWithServer","lat","long","installed","locked","installDate","removalDate","temporary","public","nbBikes","nbEmptyDocks","latestUpdateTime","date","total","percentBikes","percentDocks"
"1","1","20th & Bell St","31000","1404410345658","38.8561","-77.0512","true","false","1316059200000","","false","true",24,23,"1404392006396",2014-07-03 08:53:26,47,0.51063829787234,0.48936170212766
"2","2","18th & Eads St.","31001","1404410385560","38.85725","-77.05332","true","false","1284989400000","","false","true",20,27,"1404408163295",2014-07-03 13:22:43,47,0.425531914893617,0.574468085106383
"3","3","20th & Crystal Dr","31002","1404410247432","38.8564","-77.0492","true","false","1284464580000","","false","true",3,24,"1404404412155",2014-07-03 12:20:12,27,0.111111111111111,0.888888888888889
"4","4","15th & Crystal Dr","31003","1404410442860","38.86017","-77.049593","true","false","1284464880000","","false","true",25,21,"1404409475705",2014-07-03 13:44:35,46,0.543478260869565,0.456521739130435
"5","5","Aurora Hills Community Ctr/18th & Hayes St","31004","1404410295480","38.857866","-77.05949","true","false","1284464880000","","false","true",23,24,"1404410294759",2014-07-03 13:58:14,47,0.48936170212766,0.51063829787234
"6","6","12th & Hayes St /  Pentagon City Metro","31005","1404410406116","38.862303","-77.059936","true","false","1284464940000","","false","true",26,3,"1404410163964",2014-07-03 13:56:03,29,0.896551724137931,0.103448275862069
"7","7","S Joyce & Army Navy Dr","31006","1404410315400","38.8637","-77.0633","true","false","1284464940000","","false","true",23,24,"1404409278699",2014-07-03 13:41:18,47,0.48936170212766,0.51063829787234
"8","8","Crystal City Metro / 18th & Bell St","31007","1404410423085","38.8573","-77.0511","true","false","1284465000000","","false","true",26,28,"1404410421263",2014-07-03 14:00:21,54,0.481481481481481,0.518518518518518
"9","9","12th & Army Navy Dr","31008","1404410387736","38.8629","-77.0528","true","false","1284465000000","","false","true",24,23,"1404409904667",2014-07-03 13:51:44,47,0.51063829787234,0.48936170212766
"10","10","27th & Crystal Dr","31009","1404410418870","38.848441","-77.051516","true","false","1284465060000","","false","true",5,26,"1404409935451",2014-07-03 13:52:15,31,0.161290322580645,0.838709677419355
"11","11","S Glebe & Potomac Ave","31010","1404410263186","38.8426","-77.0502","true","false","1284465120000","","false","true",23,24,"1404404631665",2014-07-03 12:23:51,47,0.48936170212766,0.51063829787234
"12","12","23rd & Crystal Dr","31011","1404410390387","38.8533","-77.0498","true","false","1284465120000","","false","true",23,4,"1404408865571",2014-07-03 13:34:25,27,0.851851851851852,0.148148148148148
"13","13","26th & S Clark St","31012","1404410331389","38.850688","-77.05152","true","false","1284465300000","","false","true",26,13,"1404410330880",2014-07-03 13:58:50,39,0.666666666666667,0.333333333333333
"14","14","19th St & Pennsylvania Ave NW","31100","1404410443427","38.9003","-77.0429","true","false","1284465360000","","false","true",22,28,"1404408563856",2014-07-03 13:29:23,50,0.44,0.56
"15","15","14th & V St NW","31101","1404410367220","38.9176","-77.0321","true","false","1284465420000","","false","true",21,17,"1404410324820",2014-07-03 13:58:44,38,0.552631578947368,0.447368421052632
"16","16","11th & Kenyon St NW","31102","1404410333287","38.929464","-77.027822","true","false","1286539080000","","false","true",21,17,"1404410090312",2014-07-03 13:54:50,38,0.552631578947368,0.447368421052632
"17","17","16th & Harvard St NW","31103","1404410453227","38.926088","-77.036536","true","false","1284465480000","","false","true",26,18,"1404410211569",2014-07-03 13:56:51,44,0.590909090909091,0.409090909090909
"18","18","Adams Mill & Columbia Rd NW","31104","1404410250758","38.922925","-77.042581","true","false","1284465540000","","false","true",12,4,"1404410249077",2014-07-03 13:57:29,16,0.75,0.25
"19","19","14th & Harvard St NW","31105","1404410275879","38.9268","-77.0322","true","false","1284465540000","","false","true",23,6,"1404409279599",2014-07-03 13:41:19,29,0.793103448275862,0.206896551724138
"20","20","Calvert & Biltmore St NW","31106","1404410321217","38.923203","-77.047637","true","false","1284465600000","","false","true",12,15,"1404404454058",2014-07-03 12:20:54,27,0.444444444444444,0.555555555555556
"21","21","Lamont & Mt Pleasant NW","31107","1404410301013","38.9319","-77.0388","true","false","1284465600000","","false","true",21,8,"1404409817520",2014-07-03 13:50:17,29,0.724137931034483,0.275862068965517
"22","22","4th & M St SW","31108","1404410467437","38.8767","-77.0178","true","false","1284465660000","","false","true",6,3,"1404410225086",2014-07-03 13:57:05,9,0.666666666666667,0.333333333333333
"23","23","15th & P St NW","31201","1404410285000","38.90985","-77.034438","true","false","1284465660000","","false","true",8,23,"1404409801375",2014-07-03 13:50:01,31,0.258064516129032,0.741935483870968
"24","24","14th & R St NW","31202","1404410276586","38.912682","-77.031681","true","false","1284465720000","","false","true",3,23,"1404409310232",2014-07-03 13:41:50,26,0.115384615384615,0.884615384615385
"25","25","14th & Rhode Island Ave NW","31203","1404410368326","38.9086","-77.0323","true","false","1284465780000","","false","true",13,13,"1404410367040",2014-07-03 13:59:27,26,0.5,0.5
"26","26","20th & E St NW","31204","1404410414026","38.8963","-77.045","true","false","1284465840000","","false","true",8,1,"1404406474829",2014-07-03 12:54:34,9,0.888888888888889,0.111111111111111
"27","27","21st & I St NW","31205","1404410448339","38.9008","-77.047","true","false","1283861040000","","false","true",17,27,"1404410446454",2014-07-03 14:00:46,44,0.386363636363636,0.613636363636364
"28","28","Georgia & New Hampshire Ave NW","31400","1404410255546","38.936043","-77.024649","true","false","1284465900000","","false","true",23,28,"1404409324739",2014-07-03 13:42:04,51,0.450980392156863,0.549019607843137
"29","29","14th St & Spring Rd NW","31401","1404410396600","38.9375","-77.0328","true","false","1284465960000","","false","true",21,26,"1404409940111",2014-07-03 13:52:20,47,0.446808510638298,0.553191489361702
"30","30","John McCormack Dr & Michigan Ave NE","31502","1404410365477","38.9346","-76.9955","true","false","1284465960000","","false","true",21,26,"1404389338368",2014-07-03 08:08:58,47,0.446808510638298,0.553191489361702
"31","31","5th & K St NW","31600","1404410349733","38.90304","-77.019027","true","false","1284466020000","","false","true",26,3,"1404409382862",2014-07-03 13:43:02,29,0.896551724137931,0.103448275862069
"32","32","19th & East Capitol St SE","31601","1404410423341","38.8896","-76.9769","true","false","1284466020000","","false","true",22,3,"1404408973558",2014-07-03 13:36:13,25,0.88,0.12
"33","33","Park Rd & Holmead Pl NW","31602","1404410456725","38.9308","-77.0315","true","false","1284466080000","","false","true",26,3,"1404410214274",2014-07-03 13:56:54,29,0.896551724137931,0.103448275862069
"34","34","Good Hope & Naylor Rd SE","31700","1404410373203","38.8601","-76.9672","true","false","1284466140000","","false","true",20,27,"1404387824388",2014-07-03 07:43:44,47,0.425531914893617,0.574468085106383
"35","35","Connecticut Ave & Newark St NW / Cleveland Park","31305","1404410374829","38.934267","-77.057979","true","false","1289241840000","","false","true",20,27,"1404409648707",2014-07-03 13:47:28,47,0.425531914893617,0.574468085106383
"36","36","Randle Circle & Minnesota Ave SE","31702","1404410446731","38.878","-76.9607","true","false","1284466200000","","false","true",22,25,"1404337602993",2014-07-02 17:46:42,47,0.468085106382979,0.531914893617021
"37","37","Minnesota Ave Metro/DOES","31703","1404410252400","38.897063","-76.947446","true","false","1284466200000","","false","true",22,25,"1404350075318",2014-07-02 21:14:35,47,0.468085106382979,0.531914893617021
"38","38","Nannie Helen Burroughs & Minnesota Ave NE","31704","1404410422477","38.901385","-76.941877","true","false","1386766320000","1298396940000","false","true",25,21,"1404338397272",2014-07-02 17:59:57,46,0.543478260869565,0.456521739130435
"39","39","Anacostia Metro","31801","1404410360095","38.862669","-76.994637","true","false","1284466260000","","false","true",20,27,"1404403293316",2014-07-03 12:01:33,47,0.425531914893617,0.574468085106383
"40","40","Good Hope Rd & MLK Ave SE","31802","1404410398956","38.867373","-76.988039","true","false","1305288720000","","false","true",24,23,"1404405558772",2014-07-03 12:39:18,47,0.51063829787234,0.48936170212766
"41","41","19th & E Street NW","31206","1404410422632","38.8952","-77.0436","true","false","1284545040000","","false","true",1,4,"1404409125119",2014-07-03 13:38:45,5,0.2,0.8
"42","42","4th St & Rhode Island Ave NE","31500","1404410274360","38.919488","-77.000624","true","false","1289970000000","","false","true",1,4,"1404408264244",2014-07-03 13:24:24,5,0.2,0.8
"43","43","10th & U St NW","31111","1404410455548","38.9172","-77.0259","true","false","1285822380000","","false","true",22,28,"1404410212528",2014-07-03 13:56:52,50,0.44,0.56
"44","44","Georgia Ave and Fairmont St NW","31207","1404410423606","38.9249","-77.0222","true","false","1285041600000","","false","true",24,23,"1404409940141",2014-07-03 13:52:20,47,0.51063829787234,0.48936170212766
"45","45","1st & N St  SE","31209","1404410319300","38.8743","-77.0057","true","false","1285041600000","","false","true",21,22,"1404404432496",2014-07-03 12:20:32,43,0.488372093023256,0.511627906976744
"46","46","20th St & Florida Ave NW","31110","1404410285038","38.9154","-77.0446","true","false","1285217520000","","false","true",2,7,"1404410043237",2014-07-03 13:54:03,9,0.222222222222222,0.777777777777778
"47","47","7th & T St NW","31109","1404410337858","38.9155","-77.0222","true","false","1285735680000","","false","true",24,27,"1404410336669",2014-07-03 13:58:56,51,0.470588235294118,0.529411764705882
"48","48","23rd & Eads St","31013","1404410272057","38.853613","-77.053535","true","false","1287562620000","","false","true",24,23,"1404408339937",2014-07-03 13:25:39,47,0.51063829787234,0.48936170212766
"49","49","M St & New Jersey Ave SE","31208","1404410252676","38.8763","-77.0037","true","false","1285041600000","","false","true",6,23,"1404409044968",2014-07-03 13:37:24,29,0.206896551724138,0.793103448275862
"50","51","Massachusetts Ave & Dupont Circle NW","31200","1404410284172","38.9101","-77.0444","true","false","1284523200000","","false","true",16,10,"1404410162149",2014-07-03 13:56:02,26,0.615384615384615,0.384615384615385
"51","52","1st & M St NE","31603","1404410407607","38.9057","-77.0056","true","false","1287115200000","","false","true",20,5,"1404407992724",2014-07-03 13:19:52,25,0.8,0.2
"52","53","21st & M St NW","31212","1404410320142","38.90534","-77.046774","true","false","1285041600000","","false","true",4,27,"1404409595297",2014-07-03 13:46:35,31,0.129032258064516,0.870967741935484
"53","54","17th & K St NW","31213","1404410368051","38.90276","-77.03863","true","false","1306236960000","","false","true",26,26,"1404410366465",2014-07-03 13:59:26,52,0.5,0.5
"54","55","3rd & H St NW","31604","1404410390758","38.899408","-77.015289","true","false","1287028800000","","false","true",24,27,"1404408746049",2014-07-03 13:32:26,51,0.470588235294118,0.529411764705882
"55","56","3rd & D St SE","31605","1404410394082","38.8851","-77.0023","true","false","1287201600000","","false","true",20,27,"1404409909537",2014-07-03 13:51:49,47,0.425531914893617,0.574468085106383
"56","57","Potomac & Pennsylvania Ave SE","31606","1404410295291","38.8803","-76.9862","true","false","1287460800000","","false","true",21,4,"1404409648974",2014-07-03 13:47:28,25,0.84,0.16
"57","58","14th & D St SE","31607","1404410348970","38.884","-76.9861","true","false","1287374400000","","false","true",21,4,"1404410347210",2014-07-03 13:59:07,25,0.84,0.16
"58","59","17th & Corcoran St NW","31214","1404410367728","38.9121","-77.0387","true","false","1294078980000","","false","true",21,8,"1404410365888",2014-07-03 13:59:25,29,0.724137931034483,0.275862068965517
"59","60","Van Ness Metro / UDC","31300","1404410355266","38.944551","-77.063896","true","false","1289624400000","","false","true",21,4,"1404410112036",2014-07-03 13:55:12,25,0.84,0.16
"60","61","Florida Ave & R St NW","31503","1404410444852","38.9126","-77.0135","true","false","1290056400000","","false","true",12,6,"1404409719578",2014-07-03 13:48:39,18,0.666666666666667,0.333333333333333
"61","62","8th & Eye St SE / Barracks Row","31608","1404410384980","38.8792","-76.9953","true","false","1287374400000","","false","true",22,25,"1404408935009",2014-07-03 13:35:35,47,0.468085106382979,0.531914893617021
"62","63","Ward Circle / American University","31301","1404410267463","38.938736","-77.087171","true","false","1289538000000","","false","true",26,25,"1404404846172",2014-07-03 12:27:26,51,0.509803921568627,0.490196078431373
"63","64","Idaho Ave & Newark St NW [on 2nd District patio]","31302","1404410422034","38.934751","-77.074647","true","false","1289970000000","","false","true",3,24,"1404409370141",2014-07-03 13:42:50,27,0.111111111111111,0.888888888888889
"64","65","14th St Heights / 14th & Crittenden St NW","31402","1404410448344","38.947774","-77.032818","true","false","1289970000000","","false","true",22,25,"1404408030044",2014-07-03 13:20:30,47,0.468085106382979,0.531914893617021
"65","66","Anacostia Library","31804","1404410282699","38.865784","-76.9784","true","false","1288584000000","","false","true",23,24,"1404408885700",2014-07-03 13:34:45,47,0.48936170212766,0.51063829787234
"66","67","Pennsylvania & Minnesota Ave SE","31805","1404410361013","38.873057","-76.971015","true","false","1288584000000","","false","true",24,23,"1404404243921",2014-07-03 12:17:23,47,0.51063829787234,0.48936170212766
"67","68","Eastern Market / 7th & North Carolina Ave SE","31610","1404410353145","38.886952","-76.996806","true","false","1282363200000","","false","true",2,6,"1404409868511",2014-07-03 13:51:08,8,0.25,0.75
"68","69","McPherson Square / 14th & H St NW","31216","1404410347583","38.899641","-77.032005","true","false","1284436800000","","false","true",8,23,"1404410104952",2014-07-03 13:55:04,31,0.258064516129032,0.741935483870968
"69","70","Benning Branch Library","31705","1404410317015","38.894","-76.947974","true","false","1288584000000","","false","true",22,24,"1404393911817",2014-07-03 09:25:11,46,0.478260869565217,0.521739130434783
"70","71","USDA / 12th & Independence Ave SW","31217","1404410463004","38.887237","-77.028226","true","false","1286297580000","","false","true",18,3,"1404409754644",2014-07-03 13:49:14,21,0.857142857142857,0.142857142857143
"71","72","Georgetown Harbor / 30th St NW","31215","1404410384696","38.9022212","-77.059219","true","false","1286300580000","","false","true",3,28,"1404408202105",2014-07-03 13:23:22,31,0.0967741935483871,0.903225806451613
"72","73","12th & Newton St NE","31501","1404410396377","38.933668","-76.991016","true","false","1286306220000","","false","true",22,25,"1404391864551",2014-07-03 08:51:04,47,0.468085106382979,0.531914893617021
"73","74","US Dept of State / Virginia Ave & 21st St NW","31220","1404410337764","38.894919","-77.046587","true","false","1286661900000","","false","true",5,21,"1404407951975",2014-07-03 13:19:11,26,0.192307692307692,0.807692307692308
"74","75","L'Enfant Plaza / 7th & C St SW","31218","1404410386045","38.886266","-77.022241","true","false","1286410980000","","false","true",25,24,"1404410384962",2014-07-03 13:59:44,49,0.510204081632653,0.489795918367347
"75","76","10th St & Constitution Ave NW","31219","1404410460199","38.893028","-77.026013","true","false","1286497620000","","false","true",6,11,"1404410459207",2014-07-03 14:00:59,17,0.352941176470588,0.647058823529412
"76","77","Kennedy Center","31211","1404410226745","38.895184","-77.054845","true","false","1286325060000","","false","true",3,2,"1404405276047",2014-07-03 12:34:36,5,0.6,0.4
"77","78","Eastern Market Metro / Pennsylvania Ave & 7th St SE","31613","1404410372327","38.884","-76.995397","true","false","1286411820000","","false","true",1,11,"1404409216701",2014-07-03 13:40:16,12,0.0833333333333333,0.916666666666667
"78","79","18th & M St NW","31221","1404410357607","38.904742","-77.041606","true","false","1286458140000","","false","true",25,4,"1404409873337",2014-07-03 13:51:13,29,0.862068965517241,0.137931034482759
"79","80","Tenleytown / Wisconsin Ave & Albemarle St NW","31303","1404410333537","38.947607","-77.079382","true","false","1287150300000","","false","true",3,24,"1404402228517",2014-07-03 11:43:48,27,0.111111111111111,0.888888888888889
"80","81","13th & H St NE","31611","1404410334799","38.9003","-76.9882","true","false","1286547000000","","false","true",2,20,"1404410333472",2014-07-03 13:58:53,22,0.0909090909090909,0.909090909090909
"81","82","5th & F St NW","31620","1404410439364","38.897222","-77.019347","true","false","1286492280000","","false","true",13,3,"1404409714943",2014-07-03 13:48:34,16,0.8125,0.1875
"82","83","New York Ave & 15th St NW","31222","1404410310187","38.8991","-77.0337","true","false","1286631960000","","false","true",3,23,"1404409344064",2014-07-03 13:42:24,26,0.115384615384615,0.884615384615385
"83","84","Convention Center / 7th & M St NW","31223","1404410255649","38.90572","-77.022264","true","false","1286631960000","","false","true",26,3,"1404410254181",2014-07-03 13:57:34,29,0.896551724137931,0.103448275862069
"84","85","Harvard St & Adams Mill Rd NW","31112","1404410467443","38.927872","-77.043358","true","false","1294164840000","","false","true",20,5,"1404407856764",2014-07-03 13:17:36,25,0.8,0.2
"85","86","19th & L St NW","31224","1404410337889","38.903407","-77.043648","true","false","1287182880000","","false","true",20,5,"1404410094614",2014-07-03 13:54:54,25,0.8,0.2
"86","87","C & O Canal & Wisconsin Ave NW","31225","1404410395518","38.90375","-77.06269","true","false","1287460800000","","false","true",6,3,"1404409429160",2014-07-03 13:43:49,9,0.666666666666667,0.333333333333333
"87","88","6th & Water St SW / SW Waterfront","31609","1404410437014","38.87675","-77.02127","true","false","1287720000000","","false","true",4,27,"1404408508595",2014-07-03 13:28:28,31,0.129032258064516,0.870967741935484
"88","89","D St & Maryland Ave NE","31612","1404410351179","38.894758","-76.997114","true","false","1330094460000","","false","true",22,10,"1404408548687",2014-07-03 13:29:08,32,0.6875,0.3125
"89","90","34th St & Wisconsin Ave NW","31226","1404410397700","38.916442","-77.0682","true","false","1287182760000","","false","true",21,26,"1404407977639",2014-07-03 13:19:37,47,0.446808510638298,0.553191489361702
"90","91","13th St & New York Ave NW","31227","1404410371650","38.900283","-77.029822","true","false","1287416880000","","false","true",14,13,"1404409887539",2014-07-03 13:51:27,27,0.518518518518518,0.481481481481481
"91","92","8th & H St NW","31228","1404410364190","38.8997","-77.023086","true","false","1287115200000","","false","true",10,9,"1404410363202",2014-07-03 13:59:23,19,0.526315789473684,0.473684210526316
"92","93","10th & Monroe St NE","31504","1404410456514","38.932514","-76.992889","true","false","1287096120000","","false","true",23,23,"1404409542719",2014-07-03 13:45:42,46,0.5,0.5
"93","94","Eckington Pl & Q St NE","31505","1404410239737","38.910972","-77.00495","true","false","1287096120000","","false","true",12,28,"1404409273085",2014-07-03 13:41:13,40,0.3,0.7
"94","95","6th & H St NE","31615","1404410312091","38.900384","-76.99831","true","false","1323696720000","","false","true",3,6,"1404410310159",2014-07-03 13:58:30,9,0.333333333333333,0.666666666666667
"95","96","3rd & H St NE","31616","1404410456010","38.900412","-77.001949","true","false","1287096060000","","false","true",2,10,"1404409971668",2014-07-03 13:52:51,12,0.166666666666667,0.833333333333333
"96","97","Bladensburg Rd & Benning Rd NE","31617","1404410393715","38.900413","-76.982872","true","false","1288200360000","","false","true",12,6,"1404408564153",2014-07-03 13:29:24,18,0.666666666666667,0.333333333333333
"97","98","4th & East Capitol St NE","31618","1404410428849","38.889955","-77.000349","true","false","1287028800000","","false","true",20,27,"1404409944491",2014-07-03 13:52:24,47,0.425531914893617,0.574468085106383
"98","99","Lincoln Park / 13th & East Capitol St NE ","31619","1404410454866","38.890461","-76.988355","true","false","1288038900000","","false","true",20,16,"1404409971211",2014-07-03 13:52:51,36,0.555555555555556,0.444444444444444
"99","100","Branch & Pennsylvania Ave SE","31701","1404410369844","38.8692","-76.9599","true","false","1309008600000","","false","true",24,23,"1404352008828",2014-07-02 21:46:48,47,0.51063829787234,0.48936170212766
"100","101","13th & D St NE","31622","1404410345718","38.894832","-76.987633","true","false","1288114080000","","false","true",26,16,"1404410345085",2014-07-03 13:59:05,42,0.619047619047619,0.380952380952381
"101","102","New Hampshire Ave & T St NW","31229","1404410327748","38.91554","-77.03818","true","false","1287178020000","","false","true",23,10,"1404409843758",2014-07-03 13:50:43,33,0.696969696969697,0.303030303030303
"102","103","Metro Center / 12th & G St NW","31230","1404410423527","38.898364","-77.027869","true","false","1305259200000","","false","true",8,9,"1404409939388",2014-07-03 13:52:19,17,0.470588235294118,0.529411764705882
"103","104","14th & D St NW / Ronald Reagan Building","31231","1404410246609","38.894514","-77.031617","true","false","1303306260000","","false","true",6,5,"1404410245534",2014-07-03 13:57:25,11,0.545454545454545,0.454545454545455
"104","105","7th & F St NW / National Portrait Gallery","31232","1404410360636","38.897324","-77.022322","true","false","1304108940000","","false","true",9,13,"1404410117935",2014-07-03 13:55:17,22,0.409090909090909,0.590909090909091
"105","106","17th & K St NW / Farragut Square","31233","1404410413036","38.902061","-77.038322","true","false","1304022480000","","false","true",11,27,"1404410412006",2014-07-03 14:00:12,38,0.289473684210526,0.710526315789474
"106","107","20th & O St NW / Dupont South","31234","1404410266909","38.908905","-77.04478","true","false","1328850000000","","false","true",6,25,"1404410265381",2014-07-03 13:57:45,31,0.193548387096774,0.806451612903226
"107","108","4th & D St NW / Judiciary Square","31621","1404410241517","38.895344","-77.016106","true","false","1304481600000","","false","true",12,6,"1404407902388",2014-07-03 13:18:22,18,0.666666666666667,0.333333333333333
"108","109","19th St & Constitution Ave NW","31235","1404410318929","38.8923","-77.0436","true","false","1287607080000","","false","true",3,19,"1404410263469",2014-07-03 13:57:43,22,0.136363636363636,0.863636363636364
"109","110","37th & O St NW / Georgetown University","31236","1404410462216","38.90774","-77.071652","true","false","1288037580000","","false","true",7,28,"1404410461306",2014-07-03 14:01:01,35,0.2,0.8
"110","111","11th & H St NE","31614","1404410421632","38.899983","-76.991383","true","false","1323666000000","","false","true",21,6,"1404408971365",2014-07-03 13:36:11,27,0.777777777777778,0.222222222222222
"111","112","25th St & Pennsylvania Ave NW","31237","1404410310961","38.903827","-77.053485","true","false","1288551000000","","false","true",12,6,"1404410067800",2014-07-03 13:54:27,18,0.666666666666667,0.333333333333333
"112","113","Columbus Circle / Union Station","31623","1404410449144","38.89696","-77.00493","true","false","1285905600000","","false","true",18,3,"1404410206247",2014-07-03 13:56:46,21,0.857142857142857,0.142857142857143
"113","114","North Capitol St & F St NW","31624","1404410450035","38.897446","-77.009888","true","false","1288122720000","","false","true",21,12,"1404410449509",2014-07-03 14:00:49,33,0.636363636363636,0.363636363636364
"114","115","11th & M St NW","31266","1404410320317","38.905607","-77.027137","true","false","1364995680000","","false","true",25,4,"1404410077290",2014-07-03 13:54:37,29,0.862068965517241,0.137931034482759
"115","116","36th & Calvert St NW / Glover Park","31304","1404410453409","38.922581","-77.070334","true","false","1289236620000","","false","true",23,28,"1404408453189",2014-07-03 13:27:33,51,0.450980392156863,0.549019607843137
"116","117","14th & G St NW","31238","1404410325244","38.898069","-77.031823","true","false","1289237340000","","false","true",21,12,"1404410324093",2014-07-03 13:58:44,33,0.636363636363636,0.363636363636364
"117","118","Potomac Ave & 35th St S","31052","1404410238027","38.844015","-77.050537","true","false","1351092960000","","false","true",7,28,"1404410237162",2014-07-03 13:57:17,35,0.2,0.8
"118","124","Ohio Dr & West Basin Dr SW / MLK & FDR Memorials","31240","1404410370439","38.88412","-77.04657","true","false","1331904960000","","false","true",20,14,"1404408314113",2014-07-03 13:25:14,34,0.588235294117647,0.411764705882353
"119","125","11th & F St NW","31262","1404410365653","38.897857","-77.026975","true","false","1359981840000","","false","true",20,4,"1404408361928",2014-07-03 13:26:01,24,0.833333333333333,0.166666666666667
"120","126","23rd & E St NW ","31260","1404410448256","38.896104","-77.049882","true","false","1359652440000","","false","true",9,21,"1404410447159",2014-07-03 14:00:47,30,0.3,0.7
"121","127","Lynn & 19th St North","31014","1404410460426","38.897315","-77.070993","true","false","1302957060000","","false","true",5,26,"1404408730587",2014-07-03 13:32:10,31,0.161290322580645,0.838709677419355
"122","128","Rosslyn Metro / Wilson Blvd & Ft Myer Dr","31015","1404410273233","38.8946","-77.072305","true","false","1302957120000","","false","true",3,24,"1404409788989",2014-07-03 13:49:48,27,0.111111111111111,0.888888888888889
"123","129","Clarendon Blvd & Pierce St","31016","1404410255169","38.893648","-77.076701","true","false","1302957960000","","false","true",24,23,"1404409709739",2014-07-03 13:48:29,47,0.51063829787234,0.48936170212766
"124","130","Court House Metro / Wilson Blvd & N Uhle St","31017","1404410304536","38.891696","-77.0846","true","false","1320933600000","","false","true",2,7,"1404409820375",2014-07-03 13:50:20,9,0.222222222222222,0.777777777777778
"125","131","N Rhodes & 16th St N","31018","1404410263340","38.892164","-77.079375","true","false","1302963480000","","false","true",23,24,"1404408330997",2014-07-03 13:25:30,47,0.48936170212766,0.51063829787234
"126","132","Fairfax Village","31706","1404410386054","38.86559","-76.952103","true","false","1311771600000","","false","true",24,27,"1404277074154",2014-07-02 00:57:54,51,0.470588235294118,0.529411764705882
"127","133","21st St & Constitution Ave NW","31261","1404410366046","38.892459","-77.046567","true","false","1359639120000","","false","true",1,8,"1404406737926",2014-07-03 12:58:57,9,0.111111111111111,0.888888888888889
"128","134","Wilson Blvd & N Edgewood St","31019","1404410350049","38.889","-77.0925","true","false","1321015980000","","false","true",21,4,"1404409576328",2014-07-03 13:46:16,25,0.84,0.16
"129","135","Columbia Rd & Belmont St NW","31113","1404410242917","38.920669","-77.04368","true","false","1321625100000","","false","true",20,9,"1404410000443",2014-07-03 13:53:20,29,0.689655172413793,0.310344827586207
"130","136","17th & Rhode Island Ave NW","31239","1404410373410","38.906602","-77.038785","true","false","1321639800000","","false","true",3,6,"1404409786869",2014-07-03 13:49:46,9,0.333333333333333,0.666666666666667
"131","137","Thomas Circle","31241","1404410391988","38.9059","-77.0325","true","false","1321714320000","","false","true",3,16,"1404409857829",2014-07-03 13:50:57,19,0.157894736842105,0.842105263157895
"132","138","Wilson Blvd & Franklin Rd","31020","1404410270415","38.8904","-77.0889","true","false","1322715600000","","false","true",21,26,"1404410270099",2014-07-03 13:57:50,47,0.446808510638298,0.553191489361702
"133","139","Clarendon Blvd & N Fillmore St","31021","1404410337328","38.8881","-77.09308","true","false","1321981080000","","false","true",24,27,"1404409784579",2014-07-03 13:49:44,51,0.470588235294118,0.529411764705882
"134","140","Clarendon Metro / Wilson Blvd & N Highland St","31022","1404410329074","38.88786","-77.094875","true","false","1321983480000","","false","true",3,26,"1404410086896",2014-07-03 13:54:46,29,0.103448275862069,0.896551724137931
"135","141","18th St & Pennsylvania Ave NW","31242","1404410251464","38.89968","-77.041539","true","false","1322571600000","","false","true",23,28,"1404410008218",2014-07-03 13:53:28,51,0.450980392156863,0.549019607843137
"136","142","Maryland & Independence Ave SW","31243","1404410458232","38.887299","-77.018939","true","false","1327669020000","","false","true",19,27,"1404410455989",2014-07-03 14:00:55,46,0.41304347826087,0.58695652173913
"137","143","4th & E St SW","31244","1404410241846","38.88412","-77.017445","true","false","1322756880000","","false","true",23,5,"1404410240377",2014-07-03 13:57:20,28,0.821428571428571,0.178571428571429
"138","144","3rd & G St SE","31625","1404410360780","38.881185","-77.001828","true","false","1322661660000","","false","true",23,6,"1404408231008",2014-07-03 13:23:51,29,0.793103448275862,0.206896551724138
"139","145","7th & R St NW / Shaw Library","31245","1404410256558","38.912719","-77.022155","true","false","1322583120000","","false","true",3,24,"1404410255106",2014-07-03 13:57:35,27,0.111111111111111,0.888888888888889
"140","146","9th & Upshur St NW","31404","1404410369762","38.9418","-77.0251","true","false","1323194880000","","false","true",25,26,"1404408920050",2014-07-03 13:35:20,51,0.490196078431373,0.509803921568627
"141","147","1st & Rhode Island Ave NW","31506","1404410369499","38.915417","-77.012289","true","false","1323178380000","","false","true",21,4,"1404409088501",2014-07-03 13:38:08,25,0.84,0.16
"142","148","Columbia Rd & Georgia Ave NW","31115","1404410369625","38.928156","-77.02344","true","false","1323234000000","","false","true",25,4,"1404405558443",2014-07-03 12:39:18,29,0.862068965517241,0.137931034482759
"143","149","California St & Florida Ave NW","31116","1404410275012","38.917761","-77.04062","true","false","1323752400000","","false","true",23,6,"1404410273679",2014-07-03 13:57:53,29,0.793103448275862,0.206896551724138
"144","150","Benning Rd & East Capitol St NE / Benning Rd Metro","31707","1404410420831","38.889935","-76.93723","true","false","1324404360000","","false","true",26,3,"1404379574672",2014-07-03 05:26:14,29,0.896551724137931,0.103448275862069
"145","151","3000 Connecticut Ave NW / National Zoo","31307","1404410357901","38.930282","-77.055599","true","false","1324496640000","","false","true",24,27,"1404408908600",2014-07-03 13:35:08,51,0.470588235294118,0.529411764705882
"146","152","Anacostia Ave & Benning Rd NE / River Terrace ","31708","1404410343014","38.896544","-76.96012","true","false","1324402320000","","false","true",22,3,"1404380865194",2014-07-03 05:47:45,25,0.88,0.12
"147","153","M St & Pennsylvania Ave NW","31246","1404410359336","38.905126","-77.056887","true","false","1324485480000","","false","true",11,1,"1404409187555",2014-07-03 13:39:47,12,0.916666666666667,0.0833333333333333
"148","154","15th St & Massachusetts Ave SE","31626","1404410431158","38.88732","-76.983569","true","false","1324565040000","","false","true",1,8,"1404410188916",2014-07-03 13:56:28,9,0.111111111111111,0.888888888888889
"149","155","Congress Heights Metro","31806","1404410355654","38.844711","-76.987823","true","false","1324581180000","","false","true",26,25,"1404351173819",2014-07-02 21:32:53,51,0.509803921568627,0.490196078431373
"150","156","N Quincy St & Glebe Rd","31035","1404410425547","38.876393","-77.107735","true","false","1335552600000","","false","true",20,27,"1404405276803",2014-07-03 12:34:36,47,0.425531914893617,0.574468085106383
"151","157","Wilson Blvd & N Oakland St","31033","1404410349671","38.8815","-77.10396","true","false","1335387720000","","false","true",2,3,"1404407534539",2014-07-03 13:12:14,5,0.4,0.6
"152","158","N Veitch  & 20th St N","31029","1404410227446","38.896923","-77.086502","true","false","1335213360000","","false","true",23,28,"1404405036425",2014-07-03 12:30:36,51,0.450980392156863,0.549019607843137
"153","159","11th & K St NW","31263","1404410295703","38.90268","-77.02674","true","false","1360936140000","","false","true",25,4,"1404409811270",2014-07-03 13:50:11,29,0.862068965517241,0.137931034482759
"154","160","Fairfax Dr & Wilson Blvd","31023","1404410268649","38.885801","-77.097745","true","false","1335545880000","","false","true",25,21,"1404405954914",2014-07-03 12:45:54,46,0.543478260869565,0.456521739130435
"155","161","Key Blvd & N Quinn St","31027","1404410351712","38.896015","-77.078107","true","false","1335195480000","","false","true",21,26,"1404394525573",2014-07-03 09:35:25,47,0.446808510638298,0.553191489361702
"156","162","1st & K St SE","31628","1404410320741","38.87861","-77.006004","true","false","1328717220000","","false","true",21,4,"1404410080429",2014-07-03 13:54:40,25,0.84,0.16
"157","163","39th & Calvert St NW / Stoddert","31306","1404410410007","38.922649","-77.077271","true","false","1328898300000","","false","true",21,8,"1404401983362",2014-07-03 11:39:43,29,0.724137931034483,0.275862068965517
"158","164","1st & Washington Hospital Center NW","31507","1404410294508","38.928743","-77.012457","true","false","1329153540000","","false","true",24,27,"1404410292620",2014-07-03 13:58:12,51,0.470588235294118,0.529411764705882
"159","165","Virginia Square Metro / N Monroe St & 9th St N","31024","1404410439953","38.882788","-77.103148","true","false","1329508980000","","false","true",26,3,"1404407877022",2014-07-03 13:17:57,29,0.896551724137931,0.103448275862069
"160","166","Central Library / N Quincy St & 10th St N","31025","1404410396095","38.88397","-77.10783","true","false","1329493920000","","false","true",22,25,"1404402194709",2014-07-03 11:43:14,47,0.468085106382979,0.531914893617021
"161","167","Washington Blvd & 10th St N","31026","1404410445848","38.884734","-77.093485","true","false","1329944340000","","false","true",2,7,"1404409851164",2014-07-03 13:50:51,9,0.222222222222222,0.777777777777778
"162","168","Jefferson Dr & 14th St SW","31247","1404410314593","38.888553","-77.032429","true","false","1331911860000","","false","true",8,26,"1404409588857",2014-07-03 13:46:28,34,0.235294117647059,0.764705882352941
"163","169","Smithsonian / Jefferson Dr & 12th St SW","31248","1404410433589","38.888767","-77.02858","true","false","1333369620000","","false","true",15,1,"1404408810289",2014-07-03 13:33:30,16,0.9375,0.0625
"164","170","George Mason Dr & Wilson Blvd","31036","1404410282266","38.87887","-77.1207","true","false","1335805380000","","false","true",12,6,"1404407289235",2014-07-03 13:08:09,18,0.666666666666667,0.333333333333333
"165","171","6th St & Indiana Ave NW","31264","1404410348860","38.894573","-77.01994","true","false","1364990040000","","false","true",3,28,"1404410107028",2014-07-03 13:55:07,31,0.0967741935483871,0.903225806451613
"166","172","N Veitch & Key Blvd","31028","1404410299868","38.893241","-77.086045","true","false","1335202980000","","false","true",20,27,"1404405529469",2014-07-03 12:38:49,47,0.425531914893617,0.574468085106383
"167","173","N Adams St & Lee Hwy","31030","1404410306350","38.89593","-77.089006","true","false","1335369060000","","false","true",20,5,"1404410064079",2014-07-03 13:54:24,25,0.8,0.2
"168","174","15th & N Scott St","31031","1404410370203","38.89054","-77.08095","true","false","1335362100000","","false","true",23,24,"1404409886587",2014-07-03 13:51:26,47,0.48936170212766,0.51063829787234
"169","175","Washington Blvd & 7th St N","31032","1404410256154","38.880834","-77.091129","true","false","1335794400000","","false","true",21,26,"1404410013677",2014-07-03 13:53:33,47,0.446808510638298,0.553191489361702
"170","176","Ballston Metro / N Stuart & 9th St N","31037","1404410239708","38.881044","-77.111768","true","false","1335817440000","","false","true",25,4,"1404409250964",2014-07-03 13:40:50,29,0.862068965517241,0.137931034482759
"171","177","N Randolph St & Fairfax Dr","31034","1404410356736","38.882629","-77.109366","true","false","1335542580000","","false","true",12,28,"1404406588378",2014-07-03 12:56:28,40,0.3,0.7
"172","178","Jefferson Memorial","31249","1404410287951","38.879819","-77.037413","true","false","1335969180000","","false","true",23,10,"1404410287041",2014-07-03 13:58:07,33,0.696969696969697,0.303030303030303
"173","179","Good Hope Rd & 14th St SE","31803","1404410324816","38.866611","-76.985238","true","false","1335981060000","","false","true",25,25,"1404392700424",2014-07-03 09:05:00,50,0.5,0.5
"174","180","Glebe Rd & 11th St N","31038","1404410375684","38.883921","-77.116817","true","false","1337269200000","","false","true",20,27,"1404406861086",2014-07-03 13:01:01,47,0.425531914893617,0.574468085106383
"175","181","N Quincy St & Wilson Blvd","31039","1404410399948","38.880151","-77.107673","true","false","1338301620000","","false","true",23,24,"1404408074797",2014-07-03 13:21:14,47,0.48936170212766,0.51063829787234
"176","182","Fairfax Dr & Kenmore St","31040","1404410232484","38.884616","-77.10108","true","false","1366814880000","","false","true",20,27,"1404409538557",2014-07-03 13:45:38,47,0.425531914893617,0.574468085106383
"177","183","Gallaudet / 8th St & Florida Ave NE","31508","1404410324110","38.90509","-76.9941","true","false","1342033620000","","false","true",5,26,"1404407826777",2014-07-03 13:17:06,31,0.161290322580645,0.838709677419355
"178","185","20th & L St NW","31250","1404410345161","38.903584","-77.044789","true","false","1340632500000","","false","true",24,5,"1404410102637",2014-07-03 13:55:02,29,0.827586206896552,0.172413793103448
"179","186","12th & L St NW","31251","1404410298587","38.903819","-77.0284","true","false","1340639640000","","false","true",7,21,"1404410056481",2014-07-03 13:54:16,28,0.25,0.75
"180","187","21st St & Pennsylvania Ave NW","31252","1404410305367","38.901539","-77.046564","true","false","1340811180000","","false","true",22,6,"1404409579964",2014-07-03 13:46:19,28,0.785714285714286,0.214285714285714
"181","188","19th & K St NW","31253","1404410467727","38.902204","-77.04337","true","false","1340801880000","","false","true",9,26,"1404409018420",2014-07-03 13:36:58,35,0.257142857142857,0.742857142857143
"182","189","Prince St & Union St","31041","1404410389021","38.803124","-77.040363","true","false","1346070420000","","false","true",5,26,"1404410146849",2014-07-03 13:55:46,31,0.161290322580645,0.838709677419355
"183","190","Market Square / King St & Royal St","31042","1404410426921","38.804718","-77.043363","true","false","1346077680000","","false","true",3,24,"1404408736660",2014-07-03 13:32:16,27,0.111111111111111,0.888888888888889
"184","191","Saint Asaph St & Pendleton  St","31043","1404410406589","38.810743","-77.044664","true","false","1346084880000","","false","true",25,26,"1404401533493",2014-07-03 11:32:13,51,0.490196078431373,0.509803921568627
"185","192","King St & Patrick St","31044","1404410341797","38.805317","-77.049883","true","false","1346442900000","","false","true",26,25,"1404405597371",2014-07-03 12:39:57,51,0.509803921568627,0.490196078431373
"186","193","15th & K St NW","31254","1404410465769","38.902","-77.03353","true","false","1341232920000","","false","true",21,7,"1404409981562",2014-07-03 13:53:01,28,0.75,0.25
"187","194","Commerce St & Fayette St","31045","1404410420840","38.805648","-77.05293","true","false","1346442960000","","false","true",12,6,"1404398838208",2014-07-03 10:47:18,18,0.666666666666667,0.333333333333333
"188","195","Henry St & Pendleton St","31046","1404410456331","38.811456","-77.050276","true","false","1346442960000","","false","true",26,27,"1404406070670",2014-07-03 12:47:50,53,0.490566037735849,0.509433962264151
"189","196","Braddock Rd Metro","31047","1404410315369","38.814577","-77.052808","true","false","1346442960000","","false","true",5,26,"1404404709393",2014-07-03 12:25:09,31,0.161290322580645,0.838709677419355
"190","197","King St Metro","31048","1404410416701","38.805767","-77.06072","true","false","1346443020000","","false","true",25,4,"1404408154858",2014-07-03 13:22:34,29,0.862068965517241,0.137931034482759
"191","198","24th & N St NW","31255","1404410265848","38.9066","-77.05152","true","false","1341575340000","","false","true",20,4,"1404410264320",2014-07-03 13:57:44,24,0.833333333333333,0.166666666666667
"192","199","10th & E St NW","31256","1404410465884","38.895914","-77.026064","true","false","1342109700000","","false","true",21,4,"1404410465382",2014-07-03 14:01:05,25,0.84,0.16
"193","200","22nd & I St NW / Foggy Bottom","31257","1404410342176","38.90088","-77.048911","true","false","1342442220000","","false","true",21,3,"1404410099689",2014-07-03 13:54:59,24,0.875,0.125
"194","201","Utah St & 11th St N ","31049","1404410436961","38.883669","-77.113905","true","false","1342539420000","","false","true",20,27,"1404410193713",2014-07-03 13:56:33,47,0.425531914893617,0.574468085106383
"195","202","Barton St & 10th St N","31050","1404410315773","38.884961","-77.08777","true","false","1346771820000","","false","true",22,25,"1404398928844",2014-07-03 10:48:48,47,0.468085106382979,0.531914893617021
"196","203","Arlington Blvd & N Queen St","31051","1404410377310","38.889365","-77.077294","true","false","1346776740000","","false","true",22,25,"1404410134939",2014-07-03 13:55:34,47,0.468085106382979,0.531914893617021
"197","204","Lincoln Memorial","31258","1404410456619","38.888251","-77.049426","true","false","1349268360000","","false","true",23,11,"1404410455531",2014-07-03 14:00:55,34,0.676470588235294,0.323529411764706
"198","206","20th St & Virginia Ave NW","31259","1404410396347","38.894722","-77.045128","true","false","1359646980000","","false","true",3,24,"1404409726741",2014-07-03 13:48:46,27,0.111111111111111,0.888888888888889
"199","207","5th St & Massachusetts Ave NW","31265","1404410314210","38.90093","-77.018677","true","false","1367842440000","","false","true",20,7,"1404410071873",2014-07-03 13:54:31,27,0.740740740740741,0.259259259259259
"200","208","39th & Veazey St NW","31308","1404410404764","38.943837","-77.077078","true","false","1360598160000","","false","true",24,27,"1404408713545",2014-07-03 13:31:53,51,0.470588235294118,0.529411764705882
"201","209","Fessenden St & Wisconsin Ave NW","31309","1404410417757","38.954812","-77.082426","true","false","1360588560000","","false","true",5,21,"1404392897485",2014-07-03 09:08:17,26,0.192307692307692,0.807692307692308
"202","210","M St & Delaware Ave NE","31627","1404410194624","38.905707","-77.003041","true","false","1360929900000","","false","true",6,27,"1404408833801",2014-07-03 13:33:53,33,0.181818181818182,0.818181818181818
"203","211","Columbia Pike & S Courthouse Rd","31053","1404410287461","38.863833","-77.080319","true","false","1364482620000","","false","true",23,28,"1404390992573",2014-07-03 08:36:32,51,0.450980392156863,0.549019607843137
"204","212","Walter Reed Community Center / Walter Reed Dr & 16th St S","31054","1404410280803","38.857803","-77.086733","true","false","1364466180000","","false","true",22,25,"1404335716548",2014-07-02 17:15:16,47,0.468085106382979,0.531914893617021
"205","213","28th St S & S Meade St","31055","1404410305305","38.846222","-77.069275","true","false","1364476320000","","false","true",22,3,"1404408360206",2014-07-03 13:26:00,25,0.88,0.12
"206","214","18th St & Wyoming Ave NW","31114","1404410456744","38.918809","-77.041571","true","false","1365003300000","","false","true",22,11,"1404410455920",2014-07-03 14:00:55,33,0.666666666666667,0.333333333333333
"207","215","5th & Kennedy St NW","31403","1404410411070","38.956595","-77.019815","true","false","1365777420000","","false","true",26,25,"1404399531219",2014-07-03 10:58:51,51,0.509803921568627,0.490196078431373
"208","216","Georgia Ave & Emerson St NW","31405","1404410271890","38.949662","-77.027333","true","false","1365783540000","","false","true",6,25,"1404403541410",2014-07-03 12:05:41,31,0.193548387096774,0.806451612903226
"209","217","14th & Upshur St NW","31406","1404410429336","38.942016","-77.032652","true","false","1365794820000","","false","true",6,25,"1404409719324",2014-07-03 13:48:39,31,0.193548387096774,0.806451612903226
"210","218","14th St & Colorado Ave NW","31407","1404410251178","38.956432","-77.032947","true","false","1365798900000","","false","true",22,7,"1404409220330",2014-07-03 13:40:20,29,0.758620689655172,0.241379310344828
"211","219","S Troy St & 26th St S","31056","1404410274436","38.847977","-77.075104","true","false","1366725840000","","false","true",21,26,"1404365577955",2014-07-03 01:32:57,47,0.446808510638298,0.553191489361702
"212","220","S Four Mile Run Dr & S Shirlington Rd","31057","1404410321295","38.8444","-77.085931","true","false","1366729200000","","false","true",24,23,"1404397343357",2014-07-03 10:22:23,47,0.51063829787234,0.48936170212766
"213","221","S Oakland St & Columbia Pike","31058","1404410391268","38.860789","-77.09586","true","false","1366735380000","","false","true",24,23,"1404391130217",2014-07-03 08:38:50,47,0.51063829787234,0.48936170212766
"214","222","S Abingdon St & 36th St S","31059","1404410283406","38.835213","-77.094295","true","false","1366739700000","","false","true",12,27,"1404395075511",2014-07-03 09:44:35,39,0.307692307692308,0.692307692307692
"215","223","S Arlington Mill Dr & Campbell Ave","31060","1404410344439","38.84232","-77.089555","true","false","1366802400000","","false","true",23,28,"1404402877827",2014-07-03 11:54:37,51,0.450980392156863,0.549019607843137
"216","224","S Kenmore & 24th St S","31061","1404410354836","38.848454","-77.084918","true","false","1366825140000","","false","true",20,27,"1404402604427",2014-07-03 11:50:04,47,0.425531914893617,0.574468085106383
"217","225","13th St & Eastern Ave","32006","1404410345736","38.987","-77.029417","true","false","1380292680000","","false","true",24,27,"1404387112890",2014-07-03 07:31:52,51,0.470588235294118,0.529411764705882
"218","226","Wisconsin Ave & O St NW","31312","1404410379859","38.90849","-77.063586","true","false","1366910820000","","false","true",24,5,"1404408914312",2014-07-03 13:35:14,29,0.827586206896552,0.172413793103448
"219","227","S George Mason Dr & 13th St S","31062","1404410410006","38.854691","-77.100555","true","false","1372694040000","","false","true",22,25,"1404277089232",2014-07-02 00:58:09,47,0.468085106382979,0.531914893617021
"220","228","Connecticut & Nebraska Ave NW","31310","1404410306803","38.955016","-77.069956","true","false","1366894140000","","false","true",24,9,"1404408616010",2014-07-03 13:30:16,33,0.727272727272727,0.272727272727273
"221","229","17th St & Massachusetts Ave NW","31267","1404410314390","38.908142","-77.038359","true","false","1367851920000","","false","true",3,28,"1404410071601",2014-07-03 13:54:31,31,0.0967741935483871,0.903225806451613
"222","230","15th & Euclid St  NW","31117","1404410346079","38.92333","-77.0352","true","false","1367856780000","","false","true",1,7,"1404410103221",2014-07-03 13:55:03,8,0.125,0.875
"223","231","8th & East Capitol St NE","31629","1404410322680","38.889988","-76.995193","true","false","1368545580000","","false","true",25,21,"1404408148818",2014-07-03 13:22:28,46,0.543478260869565,0.456521739130435
"224","232","New Jersey Ave & R St NW","31509","1404410309167","38.912659","-77.017669","true","false","1368532680000","","false","true",21,4,"1404408628334",2014-07-03 13:30:28,25,0.84,0.16
"225","233","15th & East Capitol St NE","31630","1404410409160","38.889908","-76.983326","true","false","1368541260000","","false","true",12,28,"1404410165708",2014-07-03 13:56:05,40,0.3,0.7
"226","234","8th & F St NE","31631","1404410400873","38.897274","-76.994749","true","false","1368552540000","","false","true",26,25,"1404410400501",2014-07-03 14:00:00,51,0.509803921568627,0.490196078431373
"227","235","18th St & Rhode Island Ave NE","31510","1404410453961","38.927095","-76.978924","true","false","1369915500000","","false","true",25,26,"1404389979568",2014-07-03 08:19:39,51,0.490196078431373,0.509803921568627
"228","236","15th & F St NE","31632","1404410280499","38.897195","-76.983575","true","false","1369928820000","","false","true",22,7,"1404408106106",2014-07-03 13:21:46,29,0.758620689655172,0.241379310344828
"229","237","12th & Irving St NE","31511","1404410359580","38.928644","-76.990955","true","false","1369923120000","","false","true",5,21,"1404410358504",2014-07-03 13:59:18,26,0.192307692307692,0.807692307692308
"230","238","34th St & Minnesota Ave SE","31709","1404410309426","38.884085","-76.957461","true","false","1370358840000","","false","true",22,24,"1404277084642",2014-07-02 00:58:04,46,0.478260869565217,0.521739130434783
"231","239","Alabama & MLK Ave SE","31800","1404410347884","38.843222","-76.999388","true","false","1370345160000","","false","true",24,23,"1404351413234",2014-07-02 21:36:53,47,0.51063829787234,0.48936170212766
"232","240","Pleasant St & MLK Ave SE","31807","1404410451756","38.863897","-76.990037","true","false","1370351820000","","false","true",22,25,"1404398717880",2014-07-03 10:45:17,47,0.468085106382979,0.531914893617021
"233","241","Neal St & Trinidad Ave NE","31512","1404410358513","38.903732","-76.987211","true","false","1371221640000","","false","true",20,5,"1404405346825",2014-07-03 12:35:46,25,0.8,0.2
"234","242","13th & U St NW","31268","1404410462367","38.916794","-77.029779","true","false","1371231240000","","false","true",12,15,"1404410374203",2014-07-03 13:59:34,27,0.444444444444444,0.555555555555556
"235","243","S George Mason Dr & Four Mile Run","31063","1404410442370","38.852248","-77.105022","true","false","1372690500000","","false","true",23,24,"1404410440955",2014-07-03 14:00:40,47,0.48936170212766,0.51063829787234
"236","244","S Stafford & 34th St S","31064","1404410314455","38.834108","-77.087323","true","false","1372701360000","","false","true",22,3,"1404407658499",2014-07-03 13:14:18,25,0.88,0.12
"237","245","N Pershing Dr & Wayne St","31065","1404410331433","38.880705","-77.08596","true","false","1372680300000","","false","true",24,23,"1404402461037",2014-07-03 11:47:41,47,0.51063829787234,0.48936170212766
"238","246","Columbia Pike & S Orme St","31066","1404410296867","38.867262","-77.072315","true","false","1372684620000","","false","true",20,27,"1404405725753",2014-07-03 12:42:05,47,0.425531914893617,0.574468085106383
"239","247","3rd St & Pennsylvania Ave SE","31269","1404410238284","38.887378","-77.001955","true","false","1374598740000","","false","true",22,3,"1404409995367",2014-07-03 13:53:15,25,0.88,0.12
"240","248","8th & D St NW","31270","1404410464920","38.894851","-77.02324","true","false","1374581640000","","false","true",8,1,"1404409980237",2014-07-03 13:53:00,9,0.888888888888889,0.111111111111111
"241","249","3rd & Elm St NW","31118","1404410348197","38.917622","-77.01597","true","false","1374589740000","","false","true",3,23,"1404410076877",2014-07-03 13:54:36,26,0.115384615384615,0.884615384615385
"242","250","Rhode Island Ave & V St NE","31513","1404410388559","38.918155","-77.004746","true","false","1375196700000","","false","true",23,6,"1404404256006",2014-07-03 12:17:36,29,0.793103448275862,0.206896551724138
"243","251","Constitution Ave & 2nd St NW/DOL","31271","1404410438211","38.892275","-77.013917","true","false","1375190280000","","false","true",3,7,"1404409954523",2014-07-03 13:52:34,10,0.3,0.7
"244","252","Washington & Independence Ave SW/HHS","31272","1404410457220","38.88731","-77.01397","true","false","1375445040000","","false","true",4,5,"1404409731648",2014-07-03 13:48:51,9,0.444444444444444,0.555555555555556
"245","253","Independence Ave & L'Enfant Plaza SW/DOE","31633","1404410420127","38.887397","-77.026154","true","false","1375789680000","","false","true",2,7,"1404409925757",2014-07-03 13:52:05,9,0.222222222222222,0.777777777777778
"246","254","Hamlin & 7th St NE","31514","1404410466521","38.927497","-76.997194","true","false","1376653440000","","false","true",23,28,"1404408263328",2014-07-03 13:24:23,51,0.450980392156863,0.549019607843137
"247","255","Columbia Pike & S Walter Reed Dr","31067","1404410278445","38.862478","-77.086599","true","false","1377605340000","","false","true",22,26,"1404408847211",2014-07-03 13:34:07,48,0.458333333333333,0.541666666666667
"248","256","Columbia Pike & S Dinwiddie St / Arlington Mill Community Center","31068","1404410350471","38.856319","-77.11153","true","false","1377776460000","","false","true",24,27,"1404406279068",2014-07-03 12:51:19,51,0.470588235294118,0.529411764705882
"249","257","Pershing & N George Mason Dr","31069","1404410241115","38.871822","-77.107906","true","false","1377792000000","","false","true",25,21,"1404406056071",2014-07-03 12:47:36,46,0.543478260869565,0.456521739130435
"250","258","Fenton St & New York Ave ","32001","1404410288252","38.985404","-77.023082","true","false","1380292620000","","false","true",23,28,"1404390686320",2014-07-03 08:31:26,51,0.450980392156863,0.549019607843137
"251","259","Bethesda Ave & Arlington Blvd","32002","1404410455718","38.981103","-77.097426","true","false","1380292620000","","false","true",26,3,"1404404707463",2014-07-03 12:25:07,29,0.896551724137931,0.103448275862069
"252","260","Montgomery Ave & Waverly St ","32003","1404410337858","38.983838","-77.09221","true","false","1382208480000","","false","true",21,26,"1404363525722",2014-07-03 00:58:45,47,0.446808510638298,0.553191489361702
"253","261","Fallsgrove Blvd & Fallsgrove Dr","32004","1404410456522","39.096312","-77.192672","true","false","1380292620000","","false","true",25,4,"1404385069441",2014-07-03 06:57:49,29,0.862068965517241,0.137931034482759
"254","262","Traville Gateway Dr & Gudelsky Dr","32005","1404410247602","39.093783","-77.202501","true","false","1380292680000","","false","true",25,4,"1404409281347",2014-07-03 13:41:21,29,0.862068965517241,0.137931034482759
"255","263","Norfolk Ave & Fairmont St","32000","1404410272588","38.988562","-77.096539","true","false","1380292560000","","false","true",24,23,"1404405336087",2014-07-03 12:35:36,47,0.51063829787234,0.48936170212766
"256","264","E Montgomery Ave & Maryland Ave","32007","1404410268809","39.084125","-77.151291","true","false","1380292560000","","false","true",23,28,"1404363521909",2014-07-03 00:58:41,51,0.450980392156863,0.549019607843137
"257","265","Cordell & Norfolk Ave","32008","1404410382055","38.98954","-77.098029","true","false","1380292740000","","false","true",21,26,"1404408690709",2014-07-03 13:31:30,47,0.446808510638298,0.553191489361702
"258","266","Frederick Ave & Horners Ln","32009","1404410461520","39.094772","-77.145213","true","false","1380292740000","","false","true",22,25,"1404389633186",2014-07-03 08:13:53,47,0.468085106382979,0.531914893617021
"259","267","Philadelphia & Maple Ave","32010","1404410368205","38.98128","-77.011336","true","false","1380292740000","","false","true",23,28,"1404407953809",2014-07-03 13:19:13,51,0.450980392156863,0.549019607843137
"260","268","Maple & Ritchie Ave","32011","1404410238901","38.983627","-77.006311","true","false","1380292800000","","false","true",25,4,"1404406897837",2014-07-03 13:01:37,29,0.862068965517241,0.137931034482759
"261","269","Silver Spring Metro/Colesville Rd & Wayne Ave","32012","1404410252305","38.99521","-77.02918","true","false","1380292800000","","false","true",5,26,"1404409527178",2014-07-03 13:45:27,31,0.161290322580645,0.838709677419355
"262","270","Montgomery & East Ln","32013","1404410240191","38.983525","-77.095367","true","false","1380292800000","","false","true",21,26,"1404410238199",2014-07-03 13:57:18,47,0.446808510638298,0.553191489361702
"263","271","Friendship Hts Metro/Wisconsin Ave & Wisconsin Cir","32014","1404410271758","38.961763","-77.085998","true","false","1380292860000","","false","true",23,6,"1404407132584",2014-07-03 13:05:32,29,0.793103448275862,0.206896551724138
"264","272","14th & Belmont St NW","31119","1404410454569","38.921074","-77.031887","true","false","1380719160000","","false","true",23,28,"1404410211254",2014-07-03 13:56:51,51,0.450980392156863,0.549019607843137
"265","273","3rd & Tingey St SE","31634","1404410373140","38.87501","-77.0024","true","false","1380722700000","","false","true",25,4,"1404409165042",2014-07-03 13:39:25,29,0.862068965517241,0.137931034482759
"266","274","10th & Florida Ave NW","31120","1404410454946","38.920387","-77.025672","true","false","1381320720000","","false","true",21,7,"1404409729361",2014-07-03 13:48:49,28,0.75,0.25
"267","275","Potomac Ave & 8th St SE","31635","1404410416701","38.876737","-76.994468","true","false","1381333800000","","false","true",21,4,"1404410415147",2014-07-03 14:00:15,25,0.84,0.16
"268","276","Crabbs Branch Way & Redland Rd","32015","1404410245934","39.120045","-77.156985","true","false","1382100480000","","false","true",24,27,"1404277086434",2014-07-02 00:58:06,51,0.470588235294118,0.529411764705882
"269","277","Fallsgrove Dr & W Montgomery Ave","32016","1404410458229","39.099376","-77.188014","true","false","1382120580000","","false","true",24,27,"1404410456290",2014-07-03 14:00:56,51,0.470588235294118,0.529411764705882
"270","278","Monroe St & Monroe Pl","32017","1404410243412","39.083705","-77.149443","true","false","1383309240000","","false","true",24,27,"1404394719564",2014-07-03 09:38:39,51,0.470588235294118,0.529411764705882
"271","279","Needwood Rd & Eagles Head Ct","32018","1404410401956","39.123513","-77.15741","true","false","1382107020000","","false","true",24,27,"1404386484179",2014-07-03 07:21:24,51,0.470588235294118,0.529411764705882
"272","280","East West Hwy & Blair Mill Rd","32019","1404410405823","38.990249","-77.02935","true","false","1383148920000","","false","true",26,25,"1404391834548",2014-07-03 08:50:34,51,0.509803921568627,0.490196078431373
"273","281","Crabbs Branch Way & Calhoun Pl","32020","1404410282714","39.107709","-77.152072","true","false","1382111460000","","false","true",5,21,"1404392941935",2014-07-03 09:09:01,26,0.192307692307692,0.807692307692308
"274","282","47th & Elm St","32021","1404410249718","38.982456","-77.091991","true","false","1382208540000","","false","true",24,26,"1404400516643",2014-07-03 11:15:16,50,0.48,0.52
"275","283","Garland Ave & Walden Rd","32022","1404410365197","39.000578","-77.00149","true","false","1383059580000","","false","true",24,27,"1404395519052",2014-07-03 09:51:59,51,0.470588235294118,0.529411764705882
"276","284","Montgomery College/W Campus Dr & Mannakee St","32023","1404410228636","39.095661","-77.159048","true","false","1382199120000","","false","true",5,28,"1404373064202",2014-07-03 03:37:44,33,0.151515151515152,0.848484848484849
"277","285","Fenton St & Gist Ave","32024","1404410466350","38.989724","-77.023854","true","false","1383054960000","","false","true",23,24,"1404400108371",2014-07-03 11:08:28,47,0.48936170212766,0.51063829787234
"278","286","Carroll & Westmoreland Ave","32025","1404410440878","38.975","-77.01121","true","false","1383065460000","","false","true",3,24,"1404399379176",2014-07-03 10:56:19,27,0.111111111111111,0.888888888888889
"279","287","Carroll & Ethan Allen Ave","32026","1404410424695","38.977933","-77.006472","true","false","1383070440000","","false","true",23,28,"1404408974639",2014-07-03 13:36:14,51,0.450980392156863,0.549019607843137
"280","288","Battery Ln & Trolley Trail","32027","1404410409374","38.992375","-77.100104","true","false","1382712300000","","false","true",26,25,"1404392559818",2014-07-03 09:02:39,51,0.509803921568627,0.490196078431373
"281","289","Norfolk & Rugby Ave","32028","1404410239532","38.990639","-77.100239","true","false","1382715180000","","false","true",22,25,"1404405430869",2014-07-03 12:37:10,47,0.468085106382979,0.531914893617021
"282","290","Offutt Ln & Chevy Chase Dr","32029","1404410456738","38.977093","-77.094589","true","false","1382722080000","","false","true",23,24,"1404402096556",2014-07-03 11:41:36,47,0.48936170212766,0.51063829787234
"283","291","Broschart & Blackwell Rd","32030","1404410243816","39.102099","-77.200322","true","false","1382798640000","","false","true",24,27,"1404277074444",2014-07-02 00:57:54,51,0.470588235294118,0.529411764705882
"284","292","Taft St & E Gude Dr","32031","1404410249194","39.094103","-77.132954","true","false","1382804520000","","false","true",24,27,"1404277070455",2014-07-02 00:57:50,51,0.470588235294118,0.529411764705882
"285","293","Fleet St & Ritchie Pkwy","32032","1404410439911","39.076331","-77.141378","true","false","1382809500000","","false","true",26,25,"1404395068696",2014-07-03 09:44:28,51,0.509803921568627,0.490196078431373
"286","294","Piccard & W Gude Dr","32033","1404410278715","39.102212","-77.177091","true","false","1382795700000","","false","true",4,27,"1404390594539",2014-07-03 08:29:54,31,0.129032258064516,0.870967741935484
"287","295","Ripley & Bonifant St","32034","1404410344964","38.992679","-77.029457","true","false","1383141360000","","false","true",25,26,"1404394781837",2014-07-03 09:39:41,51,0.490196078431373,0.509803921568627
"288","296","Georgia Ave & Spring St","32035","1404410267124","38.999388","-77.031555","true","false","1383146520000","","false","true",20,27,"1404405901796",2014-07-03 12:45:01,47,0.425531914893617,0.574468085106383
"289","297","Fenton St & Ellsworth Dr ","32036","1404410392385","38.997033","-77.025608","true","false","1383135960000","","false","true",25,26,"1404392036258",2014-07-03 08:53:56,51,0.490196078431373,0.509803921568627
"290","298","King Farm Blvd & Pleasant Dr","32037","1404410327028","39.114688","-77.171487","true","false","1383323580000","","false","true",24,4,"1404391236116",2014-07-03 08:40:36,28,0.857142857142857,0.142857142857143
"291","299","King Farm Blvd & Piccard Dr","32038","1404410300214","39.110314","-77.182669","true","false","1383318120000","","false","true",5,21,"1404408367585",2014-07-03 13:26:07,26,0.192307692307692,0.807692307692308
"292","301","Calvert St & Woodley Pl NW","31121","1404410417580","38.923583","-77.050046","true","false","1383657120000","","false","true",22,7,"1404410414688",2014-07-03 14:00:14,29,0.758620689655172,0.241379310344828
"293","302","New Jersey Ave & N St NW/Dunbar HS","31636","1404410336158","38.90706","-77.015231","true","false","1383662880000","","false","true",25,4,"1404409851730",2014-07-03 13:50:51,29,0.862068965517241,0.137931034482759
"294","303","Nannie Helen Burroughs Ave & 49th St NE","31710","1404410435583","38.898536","-76.931862","true","false","1383923280000","","false","true",23,24,"1404327471547",2014-07-02 14:57:51,47,0.48936170212766,0.51063829787234
"295","304","Deanwood Rec Center","31711","1404410333211","38.908473","-76.933099","true","false","1383923280000","","false","true",22,3,"1404383709285",2014-07-03 06:35:09,25,0.88,0.12
"296","305","Hains Point/Buckeye & Ohio Dr SW","31273","1404410366351","38.878433","-77.03023","true","false","1383929160000","","false","true",24,3,"1404403593671",2014-07-03 12:06:33,27,0.888888888888889,0.111111111111111
"297","306","Arlington Blvd & Fillmore St","31070","1404410338061","38.873755","-77.089233","true","false","1384527780000","","false","true",12,28,"1404396687349",2014-07-03 10:11:27,40,0.3,0.7
"298","307","Long Bridge Park/Long Bridge Dr & 6th St S","31071","1404410344781","38.86646","-77.04826","true","false","1384520760000","","false","true",4,23,"1404408450169",2014-07-03 13:27:30,27,0.148148148148148,0.851851851851852
"299","308","Old Georgetown Rd & Southwick St","32039","1404410285860","38.999634","-77.109647","true","false","1384367940000","","false","true",3,28,"1404392420913",2014-07-03 09:00:20,31,0.0967741935483871,0.903225806451613
"300","309","Friendship Blvd & Willard Ave","32040","1404410285503","38.96115","-77.088659","true","false","1384355760000","","false","true",23,6,"1404392087075",2014-07-03 08:54:47,29,0.793103448275862,0.206896551724138
"301","310","North Capitol St & G Pl NE","31637","1404410226352","38.899703","-77.008911","true","false","1386954360000","","false","true",22,6,"1404410224829",2014-07-03 13:57:04,28,0.785714285714286,0.214285714285714
"302","311","31st & Woodrow St S","31072","1404410360465","38.837666","-77.09482","true","false","1387298640000","","false","true",22,25,"1404395180317",2014-07-03 09:46:20,47,0.468085106382979,0.531914893617021
"303","312","Washington Blvd & Walter Reed Dr ","31073","1404410345198","38.873219","-77.082104","true","false","1387287180000","","false","true",23,28,"1404391428650",2014-07-03 08:43:48,51,0.450980392156863,0.549019607843137
"304","313","Thomas Jefferson Cmty Ctr / 2nd St S & Ivy","31074","1404410354901","38.869675","-77.093586","true","false","1386774900000","","false","true",21,26,"1404409144787",2014-07-03 13:39:04,47,0.446808510638298,0.553191489361702
"305","314","Connecticut Ave & Tilden St NW","31313","1404410409627","38.941154","-77.062036","true","false","1386954480000","","false","true",23,28,"1404394334603",2014-07-03 09:32:14,51,0.450980392156863,0.549019607843137
"306","315","Medical Center Dr & Key West Ave","32041","1404410404045","39.103091","-77.196442","true","false","1389273960000","","false","true",23,28,"1404315816718",2014-07-02 11:43:36,51,0.450980392156863,0.549019607843137
"307","316","Shady Grove Hospital","32042","1404410289120","39.097636","-77.196636","true","false","1389287040000","","false","true",26,3,"1404277085320",2014-07-02 00:58:05,29,0.896551724137931,0.103448275862069
"308","317","Veterans Pl & Pershing Dr ","32043","1404410341229","38.997445","-77.023894","true","false","1391876460000","","false","true",23,24,"1404404371137",2014-07-03 12:19:31,47,0.48936170212766,0.51063829787234
"309","318","Rockville Metro East","32044","1404410319104","39.085394","-77.145803","true","false","1393000800000","","false","true",25,24,"1404390084278",2014-07-03 08:21:24,49,0.510204081632653,0.489795918367347
"310","319","1st & H St NW","31638","1404410436213","38.900358","-77.012108","true","false","1392727500000","","false","true",21,3,"1404409468900",2014-07-03 13:44:28,24,0.875,0.125
"311","320","Fort Totten Metro","31515","1404410301871","38.952369","-77.002721","true","false","1392825840000","","false","true",26,3,"1404398086662",2014-07-03 10:34:46,29,0.896551724137931,0.103448275862069
"312","321","Takoma Metro","31408","1404410455617","38.975219","-77.016855","true","false","1392833400000","","false","true",23,6,"1404408244140",2014-07-03 13:24:04,29,0.793103448275862,0.206896551724138
"313","322","Rhode Island Ave Metro","31516","1404410407800","38.920682","-76.995876","true","false","1393259520000","","false","true",1,12,"1404400866805",2014-07-03 11:21:06,13,0.0769230769230769,0.923076923076923
"314","323","Rolfe St & 9th St S","31075","1404410244277","38.866471","-77.076131","true","false","1394630640000","","false","true",25,21,"1404348497620",2014-07-02 20:48:17,46,0.543478260869565,0.456521739130435
"315","324","Shirlington Transit Center / S Quincy & Randolph St","31076","1404410461054","38.839912","-77.087083","true","false","1394637480000","","false","true",3,24,"1404399458302",2014-07-03 10:57:38,27,0.111111111111111,0.888888888888889
"316","325","Shady Grove Metro West","32045","1404410358017","39.119765","-77.166093","true","false","1397837820000","","false","true",20,9,"1404407882480",2014-07-03 13:18:02,29,0.689655172413793,0.310344827586207
"317","326","River Rd & Landy Ln","32046","1404410453224","38.964992","-77.103381","true","false","1396972380000","","false","true",3,28,"1404391874830",2014-07-03 08:51:14,31,0.0967741935483871,0.903225806451613
"318","327","Rockville Metro West","32047","1404410267372","39.084379","-77.146866","true","false","1397847900000","","false","true",23,6,"1404389595942",2014-07-03 08:13:15,29,0.793103448275862,0.206896551724138
"319","328","Bethesda Metro","32048","1404410428055","38.984691","-77.094537","true","false","1398786060000","","false","true",25,23,"1404408432421",2014-07-03 13:27:12,48,0.520833333333333,0.479166666666667
"320","329","Iwo Jima Memorial/N Meade & 14th St N","31077","1404410269580","38.88992","-77.071301","true","false","1402585680000","","false","true",3,28,"1404407670878",2014-07-03 13:14:30,31,0.0967741935483871,0.903225806451613
