"","id","name","terminalName","lastCommWithServer","lat","long","installed","locked","installDate","removalDate","temporary","public","nbBikes","nbEmptyDocks","latestUpdateTime","date","total","percentBikes","percentDocks"
"1","1","20th & Bell St","31000","1403984546278","38.8561","-77.0512","true","false","1316059200000","","false","true",19,29,"1403984544904",2014-06-28 15:42:24,48,0.395833333333333,0.604166666666667
"2","2","18th & Eads St.","31001","1403984521366","38.85725","-77.05332","true","false","1284989400000","","false","true",22,22,"1403983313621",2014-06-28 15:21:53,44,0.5,0.5
"3","3","20th & Crystal Dr","31002","1403984400537","38.8564","-77.0492","true","false","1284464580000","","false","true",5,22,"1403977800727",2014-06-28 13:50:00,27,0.185185185185185,0.814814814814815
"4","4","15th & Crystal Dr","31003","1403984398056","38.86017","-77.049593","true","false","1284464880000","","false","true",3,2,"1403984155428",2014-06-28 15:35:55,5,0.6,0.4
"5","5","Aurora Hills Community Ctr/18th & Hayes St","31004","1403984557345","38.857866","-77.05949","true","false","1284464880000","","false","true",18,30,"1403984556433",2014-06-28 15:42:36,48,0.375,0.625
"6","6","12th & Hayes St /  Pentagon City Metro","31005","1403984551319","38.862303","-77.059936","true","false","1284464940000","","false","true",18,8,"1403984169353",2014-06-28 15:36:09,26,0.692307692307692,0.307692307692308
"7","7","S Joyce & Army Navy Dr","31006","1403984462235","38.8637","-77.0633","true","false","1284464940000","","false","true",21,27,"1403984220397",2014-06-28 15:37:00,48,0.4375,0.5625
"8","8","Crystal City Metro / 18th & Bell St","31007","1403984334824","38.8573","-77.0511","true","false","1284465000000","","false","true",21,5,"1403984334648",2014-06-28 15:38:54,26,0.807692307692308,0.192307692307692
"9","9","12th & Army Navy Dr","31008","1403984345601","38.8629","-77.0528","true","false","1284465000000","","false","true",17,31,"1403979331678",2014-06-28 14:15:31,48,0.354166666666667,0.645833333333333
"10","10","27th & Crystal Dr","31009","1403984558295","38.848441","-77.051516","true","false","1284465060000","","false","true",19,7,"1403983795549",2014-06-28 15:29:55,26,0.730769230769231,0.269230769230769
"11","11","S Glebe & Potomac Ave","31010","1403984363251","38.8426","-77.0502","true","false","1284465120000","","false","true",21,27,"1403984120825",2014-06-28 15:35:20,48,0.4375,0.5625
"12","12","23rd & Crystal Dr","31011","1403984432746","38.8533","-77.0498","true","false","1284465120000","","false","true",20,4,"1403975954679",2014-06-28 13:19:14,24,0.833333333333333,0.166666666666667
"13","13","26th & S Clark St","31012","1403984364170","38.850688","-77.05152","true","false","1284465300000","","false","true",13,32,"1403973900864",2014-06-28 12:45:00,45,0.288888888888889,0.711111111111111
"14","14","19th St & Pennsylvania Ave NW","31100","1403984486189","38.9003","-77.0429","true","false","1284465360000","","false","true",22,29,"1403984244202",2014-06-28 15:37:24,51,0.431372549019608,0.568627450980392
"15","15","14th & V St NW","31101","1403984352468","38.9176","-77.0321","true","false","1284465420000","","false","true",13,18,"1403984351415",2014-06-28 15:39:11,31,0.419354838709677,0.580645161290323
"16","16","11th & Kenyon St NW","31102","1403984573756","38.929464","-77.027822","true","false","1286539080000","","false","true",2,18,"1403984331386",2014-06-28 15:38:51,20,0.1,0.9
"17","17","16th & Harvard St NW","31103","1403984439324","38.926088","-77.036536","true","false","1284465480000","","false","true",1,24,"1403984196528",2014-06-28 15:36:36,25,0.04,0.96
"18","18","Adams Mill & Columbia Rd NW","31104","1403984542736","38.922925","-77.042581","true","false","1284465540000","","false","true",1,7,"1403984393381",2014-06-28 15:39:53,8,0.125,0.875
"19","19","14th & Harvard St NW","31105","1403984482521","38.9268","-77.0322","true","false","1284465540000","","false","true",1,12,"1403984480834",2014-06-28 15:41:20,13,0.0769230769230769,0.923076923076923
"20","20","Calvert & Biltmore St NW","31106","1403984342744","38.923203","-77.047637","true","false","1284465600000","","false","true",2,16,"1403984341276",2014-06-28 15:39:01,18,0.111111111111111,0.888888888888889
"21","21","Lamont & Mt Pleasant NW","31107","1403984339437","38.9319","-77.0388","true","false","1284465600000","","false","true",20,6,"1403984337696",2014-06-28 15:38:57,26,0.769230769230769,0.230769230769231
"22","22","4th & M St SW","31108","1403984571267","38.8767","-77.0178","true","false","1284465660000","","false","true",15,2,"1403984134241",2014-06-28 15:35:34,17,0.882352941176471,0.117647058823529
"23","23","15th & P St NW","31201","1403984495522","38.90985","-77.034438","true","false","1284465660000","","false","true",22,3,"1403983928758",2014-06-28 15:32:08,25,0.88,0.12
"24","24","14th & R St NW","31202","1403984501785","38.912682","-77.031681","true","false","1284465720000","","false","true",18,32,"1403984258709",2014-06-28 15:37:38,50,0.36,0.64
"25","25","14th & Rhode Island Ave NW","31203","1403984523147","38.9086","-77.0323","true","false","1284465780000","","false","true",21,9,"1403984521452",2014-06-28 15:42:01,30,0.7,0.3
"26","26","20th & E St NW","31204","1403984466471","38.8963","-77.045","true","false","1284465840000","","false","true",2,6,"1403983741406",2014-06-28 15:29:01,8,0.25,0.75
"27","27","21st & I St NW","31205","1403984448340","38.9008","-77.047","true","false","1283861040000","","false","true",17,23,"1403982519299",2014-06-28 15:08:39,40,0.425,0.575
"28","28","Georgia & New Hampshire Ave NW","31400","1403984390393","38.936043","-77.024649","true","false","1284465900000","","false","true",17,5,"1403983665438",2014-06-28 15:27:45,22,0.772727272727273,0.227272727272727
"29","29","14th St & Spring Rd NW","31401","1403984441384","38.9375","-77.0328","true","false","1284465960000","","false","true",1,4,"1403982292440",2014-06-28 15:04:52,5,0.2,0.8
"30","30","John McCormack Dr & Michigan Ave NE","31502","1403984481044","38.9346","-76.9955","true","false","1284465960000","","false","true",18,30,"1403979909193",2014-06-28 14:25:09,48,0.375,0.625
"31","31","5th & K St NW","31600","1403984571636","38.90304","-77.019027","true","false","1284466020000","","false","true",10,13,"1403984570297",2014-06-28 15:42:50,23,0.434782608695652,0.565217391304348
"32","32","19th & East Capitol St SE","31601","1403984398403","38.8896","-76.9769","true","false","1284466020000","","false","true",4,27,"1403983673718",2014-06-28 15:27:53,31,0.129032258064516,0.870967741935484
"33","33","Park Rd & Holmead Pl NW","31602","1403984547038","38.9308","-77.0315","true","false","1284466080000","","false","true",1,12,"1403984062863",2014-06-28 15:34:22,13,0.0769230769230769,0.923076923076923
"34","34","Good Hope & Naylor Rd SE","31700","1403984388032","38.8601","-76.9672","true","false","1284466140000","","false","true",20,28,"1403977894709",2014-06-28 13:51:34,48,0.416666666666667,0.583333333333333
"35","35","Connecticut Ave & Newark St NW / Cleveland Park","31305","1403984528335","38.934267","-77.057979","true","false","1289241840000","","false","true",17,31,"1403984527512",2014-06-28 15:42:07,48,0.354166666666667,0.645833333333333
"36","36","Randle Circle & Minnesota Ave SE","31702","1403984376956","38.878","-76.9607","true","false","1284466200000","","false","true",19,29,"1403930184152",2014-06-28 00:36:24,48,0.395833333333333,0.604166666666667
"37","37","Minnesota Ave Metro/DOES","31703","1403984339483","38.897063","-76.947446","true","false","1284466200000","","false","true",17,31,"1403982139621",2014-06-28 15:02:19,48,0.354166666666667,0.645833333333333
"38","38","Nannie Helen Burroughs & Minnesota Ave NE","31704","1403984452613","38.901385","-76.941877","true","false","1386766320000","1298396940000","false","true",21,27,"1403978705338",2014-06-28 14:05:05,48,0.4375,0.5625
"39","39","Anacostia Metro","31801","1403984358744","38.862669","-76.994637","true","false","1284466260000","","false","true",18,30,"1403972279003",2014-06-28 12:17:59,48,0.375,0.625
"40","40","Good Hope Rd & MLK Ave SE","31802","1403984493579","38.867373","-76.988039","true","false","1305288720000","","false","true",23,13,"1403984492054",2014-06-28 15:41:32,36,0.638888888888889,0.361111111111111
"41","41","19th & E Street NW","31206","1403984525158","38.8952","-77.0436","true","false","1284545040000","","false","true",19,29,"1403983317550",2014-06-28 15:21:57,48,0.395833333333333,0.604166666666667
"42","42","4th St & Rhode Island Ave NE","31500","1403984379736","38.919488","-77.000624","true","false","1289970000000","","false","true",18,30,"1403983413638",2014-06-28 15:23:33,48,0.375,0.625
"43","43","10th & U St NW","31111","1403984569016","38.9172","-77.0259","true","false","1285822380000","","false","true",7,2,"1403983844172",2014-06-28 15:30:44,9,0.777777777777778,0.222222222222222
"44","44","Georgia Ave and Fairmont St NW","31207","1403984371432","38.9249","-77.0222","true","false","1285041600000","","false","true",3,2,"1403984372407",2014-06-28 15:39:32,5,0.6,0.4
"45","45","1st & N St  SE","31209","1403984539088","38.8743","-77.0057","true","false","1285041600000","","false","true",13,26,"1403983090252",2014-06-28 15:18:10,39,0.333333333333333,0.666666666666667
"46","46","20th St & Florida Ave NW","31110","1403984537284","38.9154","-77.0446","true","false","1285217520000","","false","true",19,31,"1403984536199",2014-06-28 15:42:16,50,0.38,0.62
"47","47","7th & T St NW","31109","1403984447067","38.9155","-77.0222","true","false","1285735680000","","false","true",18,4,"1403983715601",2014-06-28 15:28:35,22,0.818181818181818,0.181818181818182
"48","48","23rd & Eads St","31013","1403984417669","38.853613","-77.053535","true","false","1287562620000","","false","true",19,29,"1403978792385",2014-06-28 14:06:32,48,0.395833333333333,0.604166666666667
"49","49","M St & New Jersey Ave SE","31208","1403984554022","38.8763","-77.0037","true","false","1285041600000","","false","true",13,7,"1403983857961",2014-06-28 15:30:57,20,0.65,0.35
"50","51","Massachusetts Ave & Dupont Circle NW","31200","1403984564159","38.9101","-77.0444","true","false","1284523200000","","false","true",16,6,"1403984562534",2014-06-28 15:42:42,22,0.727272727272727,0.272727272727273
"51","52","1st & M St NE","31603","1403984567344","38.9057","-77.0056","true","false","1287115200000","","false","true",5,13,"1403984083505",2014-06-28 15:34:43,18,0.277777777777778,0.722222222222222
"52","53","21st & M St NW","31212","1403984491496","38.90534","-77.046774","true","false","1285041600000","","false","true",18,7,"1403984007491",2014-06-28 15:33:27,25,0.72,0.28
"53","54","17th & K St NW","31213","1403984400725","38.90276","-77.03863","true","false","1306236960000","","false","true",1,12,"1403984399112",2014-06-28 15:39:59,13,0.0769230769230769,0.923076923076923
"54","55","3rd & H St NW","31604","1403984494041","38.899408","-77.015289","true","false","1287028800000","","false","true",7,2,"1403982797315",2014-06-28 15:13:17,9,0.777777777777778,0.222222222222222
"55","56","3rd & D St SE","31605","1403984491276","38.8851","-77.0023","true","false","1287201600000","","false","true",18,30,"1403984249181",2014-06-28 15:37:29,48,0.375,0.625
"56","57","Potomac & Pennsylvania Ave SE","31606","1403984488138","38.8803","-76.9862","true","false","1287460800000","","false","true",13,6,"1403984245528",2014-06-28 15:37:25,19,0.684210526315789,0.315789473684211
"57","58","14th & D St SE","31607","1403984528899","38.884","-76.9861","true","false","1287374400000","","false","true",3,28,"1403984528137",2014-06-28 15:42:08,31,0.0967741935483871,0.903225806451613
"58","59","17th & Corcoran St NW","31214","1403984564529","38.9121","-77.0387","true","false","1294078980000","","false","true",4,30,"1403984409076",2014-06-28 15:40:09,34,0.117647058823529,0.882352941176471
"59","60","Van Ness Metro / UDC","31300","1403984459576","38.944551","-77.063896","true","false","1289624400000","","false","true",23,29,"1403983975303",2014-06-28 15:32:55,52,0.442307692307692,0.557692307692308
"60","61","Florida Ave & R St NW","31503","1403984538167","38.9126","-77.0135","true","false","1290056400000","","false","true",8,1,"1403984178592",2014-06-28 15:36:18,9,0.888888888888889,0.111111111111111
"61","62","8th & Eye St SE / Barracks Row","31608","1403984347159","38.8792","-76.9953","true","false","1287374400000","","false","true",19,28,"1403983871687",2014-06-28 15:31:11,47,0.404255319148936,0.595744680851064
"62","63","Ward Circle / American University","31301","1403984548628","38.938736","-77.087171","true","false","1289538000000","","false","true",18,4,"1403983078521",2014-06-28 15:17:58,22,0.818181818181818,0.181818181818182
"63","64","Idaho Ave & Newark St NW [on 2nd District patio]","31302","1403984570483","38.934751","-77.074647","true","false","1289970000000","","false","true",2,7,"1403984087311",2014-06-28 15:34:47,9,0.222222222222222,0.777777777777778
"64","65","14th St Heights / 14th & Crittenden St NW","31402","1403984447392","38.947774","-77.032818","true","false","1289970000000","","false","true",21,27,"1403978262522",2014-06-28 13:57:42,48,0.4375,0.5625
"65","66","Anacostia Library","31804","1403984525820","38.865784","-76.9784","true","false","1288584000000","","false","true",20,28,"1403977830846",2014-06-28 13:50:30,48,0.416666666666667,0.583333333333333
"66","67","Pennsylvania & Minnesota Ave SE","31805","1403984419978","38.873057","-76.971015","true","false","1288584000000","","false","true",21,27,"1403930191418",2014-06-28 00:36:31,48,0.4375,0.5625
"67","68","Eastern Market / 7th & North Carolina Ave SE","31610","1403984543124","38.886952","-76.996806","true","false","1282363200000","","false","true",18,4,"1403984541318",2014-06-28 15:42:21,22,0.818181818181818,0.181818181818182
"68","69","McPherson Square / 14th & H St NW","31216","1403984339805","38.899641","-77.032005","true","false","1284436800000","","false","true",1,11,"1403984196252",2014-06-28 15:36:36,12,0.0833333333333333,0.916666666666667
"69","70","Benning Branch Library","31705","1403984511634","38.894","-76.947974","true","false","1288584000000","","false","true",21,27,"1403979526442",2014-06-28 14:18:46,48,0.4375,0.5625
"70","71","USDA / 12th & Independence Ave SW","31217","1403984544597","38.887237","-77.028226","true","false","1286297580000","","false","true",10,16,"1403984543183",2014-06-28 15:42:23,26,0.384615384615385,0.615384615384615
"71","72","Georgetown Harbor / 30th St NW","31215","1403984499084","38.9022212","-77.059219","true","false","1286300580000","","false","true",18,6,"1403984492045",2014-06-28 15:41:32,24,0.75,0.25
"72","73","12th & Newton St NE","31501","1403984344951","38.933668","-76.991016","true","false","1286306220000","","false","true",21,27,"1403974851618",2014-06-28 13:00:51,48,0.4375,0.5625
"73","74","US Dept of State / Virginia Ave & 21st St NW","31220","1403984520137","38.894919","-77.046587","true","false","1286661900000","","false","true",17,5,"1403984333162",2014-06-28 15:38:53,22,0.772727272727273,0.227272727272727
"74","75","L'Enfant Plaza / 7th & C St SW","31218","1403984557788","38.886266","-77.022241","true","false","1286410980000","","false","true",5,22,"1403984344142",2014-06-28 15:39:04,27,0.185185185185185,0.814814814814815
"75","76","10th St & Constitution Ave NW","31219","1403984557850","38.893028","-77.026013","true","false","1286497620000","","false","true",22,17,"1403984486175",2014-06-28 15:41:26,39,0.564102564102564,0.435897435897436
"76","77","Kennedy Center","31211","1403984500499","38.895184","-77.054845","true","false","1286325060000","","false","true",17,30,"1403983292317",2014-06-28 15:21:32,47,0.361702127659574,0.638297872340426
"77","78","Eastern Market Metro / Pennsylvania Ave & 7th St SE","31613","1403984485225","38.884","-76.995397","true","false","1286411820000","","false","true",20,6,"1403984484221",2014-06-28 15:41:24,26,0.769230769230769,0.230769230769231
"78","79","18th & M St NW","31221","1403984454852","38.904742","-77.041606","true","false","1286458140000","","false","true",22,3,"1403984212514",2014-06-28 15:36:52,25,0.88,0.12
"79","80","Tenleytown / Wisconsin Ave & Albemarle St NW","31303","1403984356406","38.947607","-77.079382","true","false","1287150300000","","false","true",21,31,"1403978680965",2014-06-28 14:04:40,52,0.403846153846154,0.596153846153846
"80","81","13th & H St NE","31611","1403984428802","38.9003","-76.9882","true","false","1286547000000","","false","true",6,7,"1403983220685",2014-06-28 15:20:20,13,0.461538461538462,0.538461538461538
"81","82","5th & F St NW","31620","1403984556442","38.897222","-77.019347","true","false","1286492280000","","false","true",13,21,"1403983349018",2014-06-28 15:22:29,34,0.382352941176471,0.617647058823529
"82","83","New York Ave & 15th St NW","31222","1403984438314","38.8991","-77.0337","true","false","1286631960000","","false","true",6,13,"1403984437759",2014-06-28 15:40:37,19,0.315789473684211,0.684210526315789
"83","84","Convention Center / 7th & M St NW","31223","1403984351848","38.90572","-77.022264","true","false","1286631960000","","false","true",6,29,"1403984351532",2014-06-28 15:39:11,35,0.171428571428571,0.828571428571429
"84","85","Harvard St & Adams Mill Rd NW","31112","1403984470225","38.927872","-77.043358","true","false","1294164840000","","false","true",7,2,"1403983020313",2014-06-28 15:17:00,9,0.777777777777778,0.222222222222222
"85","86","19th & L St NW","31224","1403984528084","38.903407","-77.043648","true","false","1287182880000","","false","true",22,30,"1403984309815",2014-06-28 15:38:29,52,0.423076923076923,0.576923076923077
"86","87","C & O Canal & Wisconsin Ave NW","31225","1403984541784","38.90375","-77.06269","true","false","1287460800000","","false","true",20,9,"1403984541139",2014-06-28 15:42:21,29,0.689655172413793,0.310344827586207
"87","88","6th & Water St SW / SW Waterfront","31609","1403984570697","38.87675","-77.02127","true","false","1287720000000","","false","true",10,13,"1403984570008",2014-06-28 15:42:50,23,0.434782608695652,0.565217391304348
"88","89","D St & Maryland Ave NE","31612","1403984481726","38.894758","-76.997114","true","false","1330094460000","","false","true",23,7,"1403984239015",2014-06-28 15:37:19,30,0.766666666666667,0.233333333333333
"89","90","34th St & Wisconsin Ave NW","31226","1403984512772","38.916442","-77.0682","true","false","1287182760000","","false","true",20,28,"1403984028434",2014-06-28 15:33:48,48,0.416666666666667,0.583333333333333
"90","91","13th St & New York Ave NW","31227","1403984552257","38.900283","-77.029822","true","false","1287416880000","","false","true",1,17,"1403984289383",2014-06-28 15:38:09,18,0.0555555555555556,0.944444444444444
"91","92","8th & H St NW","31228","1403984538563","38.8997","-77.023086","true","false","1287115200000","","false","true",18,20,"1403984536829",2014-06-28 15:42:16,38,0.473684210526316,0.526315789473684
"92","93","10th & Monroe St NE","31504","1403984564845","38.932514","-76.992889","true","false","1287096120000","","false","true",20,28,"1403979191626",2014-06-28 14:13:11,48,0.416666666666667,0.583333333333333
"93","94","Eckington Pl & Q St NE","31505","1403984485304","38.910972","-77.00495","true","false","1287096120000","","false","true",3,2,"1403984243139",2014-06-28 15:37:23,5,0.6,0.4
"94","95","6th & H St NE","31615","1403984542856","38.900384","-76.99831","true","false","1323696720000","","false","true",10,29,"1403983817801",2014-06-28 15:30:17,39,0.256410256410256,0.743589743589744
"95","96","3rd & H St NE","31616","1403984450812","38.900412","-77.001949","true","false","1287096060000","","false","true",17,8,"1403984449610",2014-06-28 15:40:49,25,0.68,0.32
"96","97","Bladensburg Rd & Benning Rd NE","31617","1403984538903","38.900413","-76.982872","true","false","1288200360000","","false","true",5,22,"1403982806912",2014-06-28 15:13:26,27,0.185185185185185,0.814814814814815
"97","98","4th & East Capitol St NE","31618","1403984405011","38.889955","-77.000349","true","false","1287028800000","","false","true",22,22,"1403984085058",2014-06-28 15:34:45,44,0.5,0.5
"98","99","Lincoln Park / 13th & East Capitol St NE ","31619","1403984361108","38.890461","-76.988355","true","false","1288038900000","","false","true",14,28,"1403983877299",2014-06-28 15:31:17,42,0.333333333333333,0.666666666666667
"99","100","Branch & Pennsylvania Ave SE","31701","1403984466013","38.8692","-76.9599","true","false","1309008600000","","false","true",20,28,"1403972494884",2014-06-28 12:21:34,48,0.416666666666667,0.583333333333333
"100","101","13th & D St NE","31622","1403984406801","38.894832","-76.987633","true","false","1288114080000","","false","true",6,11,"1403984405915",2014-06-28 15:40:05,17,0.352941176470588,0.647058823529412
"101","102","New Hampshire Ave & T St NW","31229","1403984568012","38.91554","-77.03818","true","false","1287178020000","","false","true",1,14,"1403984566689",2014-06-28 15:42:46,15,0.0666666666666667,0.933333333333333
"102","103","Metro Center / 12th & G St NW","31230","1403984558654","38.898364","-77.027869","true","false","1305259200000","","false","true",22,17,"1403984193664",2014-06-28 15:36:33,39,0.564102564102564,0.435897435897436
"103","104","14th & D St NW / Ronald Reagan Building","31231","1403984396773","38.894514","-77.031617","true","false","1303306260000","","false","true",1,19,"1403982464768",2014-06-28 15:07:44,20,0.05,0.95
"104","105","7th & F St NW / National Portrait Gallery","31232","1403984481863","38.897324","-77.022322","true","false","1304108940000","","false","true",18,7,"1403984480047",2014-06-28 15:41:20,25,0.72,0.28
"105","106","17th & K St NW / Farragut Square","31233","1403984530140","38.902061","-77.038322","true","false","1304022480000","","false","true",19,15,"1403984526979",2014-06-28 15:42:06,34,0.558823529411765,0.441176470588235
"106","107","20th & O St NW / Dupont South","31234","1403984559195","38.908905","-77.04478","true","false","1328850000000","","false","true",13,9,"1403984317150",2014-06-28 15:38:37,22,0.590909090909091,0.409090909090909
"107","108","4th & D St NW / Judiciary Square","31621","1403984546259","38.895344","-77.016106","true","false","1304481600000","","false","true",21,31,"1403982772586",2014-06-28 15:12:52,52,0.403846153846154,0.596153846153846
"108","109","19th St & Constitution Ave NW","31235","1403984391824","38.8923","-77.0436","true","false","1287607080000","","false","true",1,25,"1403981697739",2014-06-28 14:54:57,26,0.0384615384615385,0.961538461538462
"109","110","37th & O St NW / Georgetown University","31236","1403984479643","38.90774","-77.071652","true","false","1288037580000","","false","true",2,15,"1403984473977",2014-06-28 15:41:13,17,0.117647058823529,0.882352941176471
"110","111","11th & H St NE","31614","1403984556006","38.899983","-76.991383","true","false","1323666000000","","false","true",3,32,"1403983062768",2014-06-28 15:17:42,35,0.0857142857142857,0.914285714285714
"111","112","25th St & Pennsylvania Ave NW","31237","1403984461610","38.903827","-77.053485","true","false","1288551000000","","false","true",13,6,"1403984218720",2014-06-28 15:36:58,19,0.684210526315789,0.315789473684211
"112","113","Columbus Circle / Union Station","31623","1403984556379","38.89696","-77.00493","true","false","1285905600000","","false","true",20,23,"1403984189597",2014-06-28 15:36:29,43,0.465116279069767,0.534883720930233
"113","114","North Capitol St & F St NW","31624","1403984364203","38.897446","-77.009888","true","false","1288122720000","","false","true",6,3,"1403984363378",2014-06-28 15:39:23,9,0.666666666666667,0.333333333333333
"114","115","11th & M St NW","31266","1403984529125","38.905607","-77.027137","true","false","1364995680000","","false","true",13,9,"1403984527648",2014-06-28 15:42:07,22,0.590909090909091,0.409090909090909
"115","116","36th & Calvert St NW / Glover Park","31304","1403984355873","38.922581","-77.070334","true","false","1289236620000","","false","true",23,29,"1403983872261",2014-06-28 15:31:12,52,0.442307692307692,0.557692307692308
"116","117","14th & G St NW","31238","1403984502186","38.898069","-77.031823","true","false","1289237340000","","false","true",1,17,"1403984500718",2014-06-28 15:41:40,18,0.0555555555555556,0.944444444444444
"117","118","Potomac Ave & 35th St S","31052","1403984408273","38.844015","-77.050537","true","false","1351092960000","","false","true",3,6,"1403984407243",2014-06-28 15:40:07,9,0.333333333333333,0.666666666666667
"118","124","Ohio Dr & West Basin Dr SW / MLK & FDR Memorials","31240","1403984551364","38.88412","-77.04657","true","false","1331904960000","","false","true",5,4,"1403984550589",2014-06-28 15:42:30,9,0.555555555555556,0.444444444444444
"119","125","11th & F St NW","31262","1403984572070","38.897857","-77.026975","true","false","1359981840000","","false","true",4,27,"1403984571356",2014-06-28 15:42:51,31,0.129032258064516,0.870967741935484
"120","126","23rd & E St NW ","31260","1403984559317","38.896104","-77.049882","true","false","1359652440000","","false","true",1,11,"1403980966003",2014-06-28 14:42:46,12,0.0833333333333333,0.916666666666667
"121","127","Lynn & 19th St North","31014","1403984389098","38.897315","-77.070993","true","false","1302957060000","","false","true",19,7,"1403984147043",2014-06-28 15:35:47,26,0.730769230769231,0.269230769230769
"122","128","Rosslyn Metro / Wilson Blvd & Ft Myer Dr","31015","1403984450545","38.8946","-77.072305","true","false","1302957120000","","false","true",21,31,"1403979719811",2014-06-28 14:21:59,52,0.403846153846154,0.596153846153846
"123","129","Clarendon Blvd & Pierce St","31016","1403984413389","38.893648","-77.076701","true","false","1302957960000","","false","true",1,4,"1403984413991",2014-06-28 15:40:13,5,0.2,0.8
"124","130","Court House Metro / Wilson Blvd & N Uhle St","31017","1403984484306","38.891696","-77.0846","true","false","1320933600000","","false","true",4,27,"1403984483255",2014-06-28 15:41:23,31,0.129032258064516,0.870967741935484
"125","131","N Rhodes & 16th St N","31018","1403984351232","38.892164","-77.079375","true","false","1302963480000","","false","true",13,32,"1403982247290",2014-06-28 15:04:07,45,0.288888888888889,0.711111111111111
"126","132","Fairfax Village","31706","1403984355720","38.86559","-76.952103","true","false","1311771600000","","false","true",22,30,"1403957523001",2014-06-28 08:12:03,52,0.423076923076923,0.576923076923077
"127","133","21st St & Constitution Ave NW","31261","1403984466871","38.892459","-77.046567","true","false","1359639120000","","false","true",13,5,"1403983982641",2014-06-28 15:33:02,18,0.722222222222222,0.277777777777778
"128","134","Wilson Blvd & N Edgewood St","31019","1403984552230","38.889","-77.0925","true","false","1321015980000","","false","true",17,5,"1403984551068",2014-06-28 15:42:31,22,0.772727272727273,0.227272727272727
"129","135","Columbia Rd & Belmont St NW","31113","1403984572778","38.920669","-77.04368","true","false","1321625100000","","false","true",1,12,"1403983605871",2014-06-28 15:26:45,13,0.0769230769230769,0.923076923076923
"130","136","17th & Rhode Island Ave NW","31239","1403984558074","38.906602","-77.038785","true","false","1321639800000","","false","true",11,28,"1403983351131",2014-06-28 15:22:31,39,0.282051282051282,0.717948717948718
"131","137","Thomas Circle","31241","1403984574031","38.9059","-77.0325","true","false","1321714320000","","false","true",10,8,"1403984572859",2014-06-28 15:42:52,18,0.555555555555556,0.444444444444444
"132","138","Wilson Blvd & Franklin Rd","31020","1403984460295","38.8904","-77.0889","true","false","1322715600000","","false","true",13,32,"1403983976797",2014-06-28 15:32:56,45,0.288888888888889,0.711111111111111
"133","139","Clarendon Blvd & N Fillmore St","31021","1403984572749","38.8881","-77.09308","true","false","1321981080000","","false","true",20,32,"1403983605623",2014-06-28 15:26:45,52,0.384615384615385,0.615384615384615
"134","140","Clarendon Metro / Wilson Blvd & N Highland St","31022","1403984525731","38.88786","-77.094875","true","false","1321983480000","","false","true",20,4,"1403975960956",2014-06-28 13:19:20,24,0.833333333333333,0.166666666666667
"135","141","18th St & Pennsylvania Ave NW","31242","1403984436331","38.89968","-77.041539","true","false","1322571600000","","false","true",20,31,"1403981004274",2014-06-28 14:43:24,51,0.392156862745098,0.607843137254902
"136","142","Maryland & Independence Ave SW","31243","1403984395034","38.887299","-77.018939","true","false","1327669020000","","false","true",7,18,"1403984393595",2014-06-28 15:39:53,25,0.28,0.72
"137","143","4th & E St SW","31244","1403984425820","38.88412","-77.017445","true","false","1322756880000","","false","true",17,9,"1403984424792",2014-06-28 15:40:24,26,0.653846153846154,0.346153846153846
"138","144","3rd & G St SE","31625","1403984381040","38.881185","-77.001828","true","false","1322661660000","","false","true",20,4,"1403983655568",2014-06-28 15:27:35,24,0.833333333333333,0.166666666666667
"139","145","7th & R St NW / Shaw Library","31245","1403984501063","38.912719","-77.022155","true","false","1322583120000","","false","true",17,5,"1403984500687",2014-06-28 15:41:40,22,0.772727272727273,0.227272727272727
"140","146","9th & Upshur St NW","31404","1403984518087","38.9418","-77.0251","true","false","1323194880000","","false","true",19,3,"1403982356213",2014-06-28 15:05:56,22,0.863636363636364,0.136363636363636
"141","147","1st & Rhode Island Ave NW","31506","1403984556488","38.915417","-77.012289","true","false","1323178380000","","false","true",1,8,"1403984314181",2014-06-28 15:38:34,9,0.111111111111111,0.888888888888889
"142","148","Columbia Rd & Georgia Ave NW","31115","1403984575008","38.928156","-77.02344","true","false","1323234000000","","false","true",13,10,"1403984331861",2014-06-28 15:38:51,23,0.565217391304348,0.434782608695652
"143","149","California St & Florida Ave NW","31116","1403984446605","38.917761","-77.04062","true","false","1323752400000","","false","true",18,7,"1403984446131",2014-06-28 15:40:46,25,0.72,0.28
"144","150","Benning Rd & East Capitol St NE / Benning Rd Metro","31707","1403984374447","38.889935","-76.93723","true","false","1324404360000","","false","true",8,27,"1403980767178",2014-06-28 14:39:27,35,0.228571428571429,0.771428571428571
"145","151","3000 Connecticut Ave NW / National Zoo","31307","1403984541535","38.930282","-77.055599","true","false","1324496640000","","false","true",18,4,"1403984058084",2014-06-28 15:34:18,22,0.818181818181818,0.181818181818182
"146","152","Anacostia Ave & Benning Rd NE / River Terrace ","31708","1403984510166","38.896544","-76.96012","true","false","1324402320000","","false","true",20,32,"1403984268265",2014-06-28 15:37:48,52,0.384615384615385,0.615384615384615
"147","153","M St & Pennsylvania Ave NW","31246","1403984376142","38.905126","-77.056887","true","false","1324485480000","","false","true",12,1,"1403984074130",2014-06-28 15:34:34,13,0.923076923076923,0.0769230769230769
"148","154","15th St & Massachusetts Ave SE","31626","1403984415541","38.88732","-76.983569","true","false","1324565040000","","false","true",3,28,"1403984414738",2014-06-28 15:40:14,31,0.0967741935483871,0.903225806451613
"149","155","Congress Heights Metro","31806","1403984425587","38.844711","-76.987823","true","false","1324581180000","","false","true",3,28,"1403930199465",2014-06-28 00:36:39,31,0.0967741935483871,0.903225806451613
"150","156","N Quincy St & Glebe Rd","31035","1403984555586","38.876393","-77.107735","true","false","1335552600000","","false","true",18,30,"1403977618565",2014-06-28 13:46:58,48,0.375,0.625
"151","157","Wilson Blvd & N Oakland St","31033","1403984396596","38.8815","-77.10396","true","false","1335387720000","","false","true",13,32,"1403983670796",2014-06-28 15:27:50,45,0.288888888888889,0.711111111111111
"152","158","N Veitch  & 20th St N","31029","1403984525493","38.896923","-77.086502","true","false","1335213360000","","false","true",22,29,"1403983019868",2014-06-28 15:16:59,51,0.431372549019608,0.568627450980392
"153","159","11th & K St NW","31263","1403984553773","38.90268","-77.02674","true","false","1360936140000","","false","true",18,8,"1403984311080",2014-06-28 15:38:31,26,0.692307692307692,0.307692307692308
"154","160","Fairfax Dr & Wilson Blvd","31023","1403984510850","38.885801","-77.097745","true","false","1335545880000","","false","true",1,3,"1403984510510",2014-06-28 15:41:50,4,0.25,0.75
"155","161","Key Blvd & N Quinn St","31027","1403984338703","38.896015","-77.078107","true","false","1335195480000","","false","true",18,30,"1403979704191",2014-06-28 14:21:44,48,0.375,0.625
"156","162","1st & K St SE","31628","1403984336374","38.87861","-77.006004","true","false","1328717220000","","false","true",18,4,"1403984335770",2014-06-28 15:38:55,22,0.818181818181818,0.181818181818182
"157","163","39th & Calvert St NW / Stoddert","31306","1403984414114","38.922649","-77.077271","true","false","1328898300000","","false","true",17,9,"1403984413053",2014-06-28 15:40:13,26,0.653846153846154,0.346153846153846
"158","164","1st & Washington Hospital Center NW","31507","1403984345222","38.928743","-77.012457","true","false","1329153540000","","false","true",3,28,"1403978976008",2014-06-28 14:09:36,31,0.0967741935483871,0.903225806451613
"159","165","Virginia Square Metro / N Monroe St & 9th St N","31024","1403984503359","38.882788","-77.103148","true","false","1329508980000","","false","true",21,5,"1403981733700",2014-06-28 14:55:33,26,0.807692307692308,0.192307692307692
"160","166","Central Library / N Quincy St & 10th St N","31025","1403984440274","38.88397","-77.10783","true","false","1329493920000","","false","true",3,2,"1403984197834",2014-06-28 15:36:37,5,0.6,0.4
"161","167","Washington Blvd & 10th St N","31026","1403984366081","38.884734","-77.093485","true","false","1329944340000","","false","true",21,31,"1403984364379",2014-06-28 15:39:24,52,0.403846153846154,0.596153846153846
"162","168","Jefferson Dr & 14th St SW","31247","1403984452631","38.888553","-77.032429","true","false","1331911860000","","false","true",12,27,"1403984450921",2014-06-28 15:40:50,39,0.307692307692308,0.692307692307692
"163","169","Smithsonian / Jefferson Dr & 12th St SW","31248","1403984547128","38.888767","-77.02858","true","false","1333369620000","","false","true",18,12,"1403984546123",2014-06-28 15:42:26,30,0.6,0.4
"164","170","George Mason Dr & Wilson Blvd","31036","1403984411678","38.87887","-77.1207","true","false","1335805380000","","false","true",21,31,"1403981219399",2014-06-28 14:46:59,52,0.403846153846154,0.596153846153846
"165","171","6th St & Indiana Ave NW","31264","1403984414123","38.894573","-77.01994","true","false","1364990040000","","false","true",3,32,"1403984171770",2014-06-28 15:36:11,35,0.0857142857142857,0.914285714285714
"166","172","N Veitch & Key Blvd","31028","1403984481636","38.893241","-77.086045","true","false","1335202980000","","false","true",19,29,"1403981777321",2014-06-28 14:56:17,48,0.395833333333333,0.604166666666667
"167","173","N Adams St & Lee Hwy","31030","1403984560711","38.89593","-77.089006","true","false","1335369060000","","false","true",2,7,"1403984317298",2014-06-28 15:38:37,9,0.222222222222222,0.777777777777778
"168","174","15th & N Scott St","31031","1403984481521","38.89054","-77.08095","true","false","1335362100000","","false","true",13,32,"1403975534520",2014-06-28 13:12:14,45,0.288888888888889,0.711111111111111
"169","175","Washington Blvd & 7th St N","31032","1403984458177","38.880834","-77.091129","true","false","1335794400000","","false","true",17,31,"1403968068353",2014-06-28 11:07:48,48,0.354166666666667,0.645833333333333
"170","176","Ballston Metro / N Stuart & 9th St N","31037","1403984347152","38.881044","-77.111768","true","false","1335817440000","","false","true",2,11,"1403984104746",2014-06-28 15:35:04,13,0.153846153846154,0.846153846153846
"171","177","N Randolph St & Fairfax Dr","31034","1403984556040","38.882629","-77.109366","true","false","1335542580000","","false","true",20,28,"1403982622802",2014-06-28 15:10:22,48,0.416666666666667,0.583333333333333
"172","178","Jefferson Memorial","31249","1403984437912","38.879819","-77.037413","true","false","1335969180000","","false","true",17,14,"1403984195060",2014-06-28 15:36:35,31,0.548387096774194,0.451612903225806
"173","179","Good Hope Rd & 14th St SE","31803","1403984546826","38.866611","-76.985238","true","false","1335981060000","","false","true",23,29,"1403968566946",2014-06-28 11:16:06,52,0.442307692307692,0.557692307692308
"174","180","Glebe Rd & 11th St N","31038","1403984401587","38.883921","-77.116817","true","false","1337269200000","","false","true",1,4,"1403978537293",2014-06-28 14:02:17,5,0.2,0.8
"175","181","N Quincy St & Wilson Blvd","31039","1403984351960","38.880151","-77.107673","true","false","1338301620000","","false","true",1,3,"1403984350681",2014-06-28 15:39:10,4,0.25,0.75
"176","182","Fairfax Dr & Kenmore St","31040","1403984428691","38.884616","-77.10108","true","false","1366814880000","","false","true",19,28,"1403984427057",2014-06-28 15:40:27,47,0.404255319148936,0.595744680851064
"177","183","Gallaudet / 8th St & Florida Ave NE","31508","1403984535327","38.90509","-76.9941","true","false","1342033620000","","false","true",7,27,"1403984292379",2014-06-28 15:38:12,34,0.205882352941176,0.794117647058823
"178","185","20th & L St NW","31250","1403984341450","38.903584","-77.044789","true","false","1340632500000","","false","true",21,5,"1403981443207",2014-06-28 14:50:43,26,0.807692307692308,0.192307692307692
"179","186","12th & L St NW","31251","1403984544857","38.903819","-77.0284","true","false","1340639640000","","false","true",13,10,"1403983578415",2014-06-28 15:26:18,23,0.565217391304348,0.434782608695652
"180","187","21st St & Pennsylvania Ave NW","31252","1403984439229","38.901539","-77.046564","true","false","1340811180000","","false","true",4,31,"1403984438068",2014-06-28 15:40:38,35,0.114285714285714,0.885714285714286
"181","188","19th & K St NW","31253","1403984461332","38.902204","-77.04337","true","false","1340801880000","","false","true",22,8,"1403983253325",2014-06-28 15:20:53,30,0.733333333333333,0.266666666666667
"182","189","Prince St & Union St","31041","1403984560947","38.803124","-77.040363","true","false","1346070420000","","false","true",8,27,"1403984559692",2014-06-28 15:42:39,35,0.228571428571429,0.771428571428571
"183","190","Market Square / King St & Royal St","31042","1403984561063","38.804718","-77.043363","true","false","1346077680000","","false","true",13,6,"1403984318842",2014-06-28 15:38:38,19,0.684210526315789,0.315789473684211
"184","191","Saint Asaph St & Pendleton  St","31043","1403984435120","38.810743","-77.044664","true","false","1346084880000","","false","true",23,29,"1403980954520",2014-06-28 14:42:34,52,0.442307692307692,0.557692307692308
"185","192","King St & Patrick St","31044","1403984452238","38.805317","-77.049883","true","false","1346442900000","","false","true",22,30,"1403980687640",2014-06-28 14:38:07,52,0.423076923076923,0.576923076923077
"186","193","15th & K St NW","31254","1403984359895","38.902","-77.03353","true","false","1341232920000","","false","true",9,22,"1403984358620",2014-06-28 15:39:18,31,0.290322580645161,0.709677419354839
"187","194","Commerce St & Fayette St","31045","1403984522205","38.805648","-77.05293","true","false","1346442960000","","false","true",22,30,"1403975039974",2014-06-28 13:03:59,52,0.423076923076923,0.576923076923077
"188","195","Henry St & Pendleton St","31046","1403984378037","38.811456","-77.050276","true","false","1346442960000","","false","true",23,30,"1403926514091",2014-06-27 23:35:14,53,0.433962264150943,0.566037735849057
"189","196","Braddock Rd Metro","31047","1403984501014","38.814577","-77.052808","true","false","1346442960000","","false","true",7,28,"1403979229321",2014-06-28 14:13:49,35,0.2,0.8
"190","197","King St Metro","31048","1403984504839","38.805767","-77.06072","true","false","1346443020000","","false","true",19,7,"1403979193032",2014-06-28 14:13:13,26,0.730769230769231,0.269230769230769
"191","198","24th & N St NW","31255","1403984522716","38.9066","-77.05152","true","false","1341575340000","","false","true",13,6,"1403984279439",2014-06-28 15:37:59,19,0.684210526315789,0.315789473684211
"192","199","10th & E St NW","31256","1403984517578","38.895914","-77.026064","true","false","1342109700000","","false","true",19,3,"1403984515768",2014-06-28 15:41:55,22,0.863636363636364,0.136363636363636
"193","200","22nd & I St NW / Foggy Bottom","31257","1403984542510","38.90088","-77.048911","true","false","1342442220000","","false","true",21,31,"1403984541532",2014-06-28 15:42:21,52,0.403846153846154,0.596153846153846
"194","201","Utah St & 11th St N ","31049","1403984358526","38.883669","-77.113905","true","false","1342539420000","","false","true",21,27,"1403983874932",2014-06-28 15:31:14,48,0.4375,0.5625
"195","202","Barton St & 10th St N","31050","1403984473193","38.884961","-77.08777","true","false","1346771820000","","false","true",17,30,"1403983989274",2014-06-28 15:33:09,47,0.361702127659574,0.638297872340426
"196","203","Arlington Blvd & N Queen St","31051","1403984532464","38.889365","-77.077294","true","false","1346776740000","","false","true",20,28,"1403981864036",2014-06-28 14:57:44,48,0.416666666666667,0.583333333333333
"197","204","Lincoln Memorial","31258","1403984557665","38.888251","-77.049426","true","false","1349268360000","","false","true",18,14,"1403984527174",2014-06-28 15:42:07,32,0.5625,0.4375
"198","206","20th St & Virginia Ave NW","31259","1403984514328","38.894722","-77.045128","true","false","1359646980000","","false","true",13,6,"1403981551242",2014-06-28 14:52:31,19,0.684210526315789,0.315789473684211
"199","207","5th St & Massachusetts Ave NW","31265","1403984445013","38.90093","-77.018677","true","false","1367842440000","","false","true",3,31,"1403984443691",2014-06-28 15:40:43,34,0.0882352941176471,0.911764705882353
"200","208","39th & Veazey St NW","31308","1403984392640","38.943837","-77.077078","true","false","1360598160000","","false","true",17,5,"1403983813628",2014-06-28 15:30:13,22,0.772727272727273,0.227272727272727
"201","209","Fessenden St & Wisconsin Ave NW","31309","1403984440767","38.954812","-77.082426","true","false","1360588560000","","false","true",21,31,"1403980989867",2014-06-28 14:43:09,52,0.403846153846154,0.596153846153846
"202","210","M St & Delaware Ave NE","31627","1403984506332","38.905707","-77.003041","true","false","1360929900000","","false","true",3,6,"1403984261580",2014-06-28 15:37:41,9,0.333333333333333,0.666666666666667
"203","211","Columbia Pike & S Courthouse Rd","31053","1403984418122","38.863833","-77.080319","true","false","1364482620000","","false","true",18,4,"1403972707700",2014-06-28 12:25:07,22,0.818181818181818,0.181818181818182
"204","212","Walter Reed Community Center / Walter Reed Dr & 16th St S","31054","1403984516809","38.857803","-77.086733","true","false","1364466180000","","false","true",19,28,"1403930178023",2014-06-28 00:36:18,47,0.404255319148936,0.595744680851064
"205","213","28th St S & S Meade St","31055","1403984533744","38.846222","-77.069275","true","false","1364476320000","","false","true",22,30,"1403978913355",2014-06-28 14:08:33,52,0.423076923076923,0.576923076923077
"206","214","18th St & Wyoming Ave NW","31114","1403984555850","38.918809","-77.041571","true","false","1365003300000","","false","true",1,16,"1403982507209",2014-06-28 15:08:27,17,0.0588235294117647,0.941176470588235
"207","215","5th & Kennedy St NW","31403","1403984445924","38.956595","-77.019815","true","false","1365777420000","","false","true",17,5,"1403983239674",2014-06-28 15:20:39,22,0.772727272727273,0.227272727272727
"208","216","Georgia Ave & Emerson St NW","31405","1403984536460","38.949662","-77.027333","true","false","1365783540000","","false","true",23,3,"1403982546226",2014-06-28 15:09:06,26,0.884615384615385,0.115384615384615
"209","217","14th & Upshur St NW","31406","1403984385734","38.942016","-77.032652","true","false","1365794820000","","false","true",5,30,"1403979148538",2014-06-28 14:12:28,35,0.142857142857143,0.857142857142857
"210","218","14th St & Colorado Ave NW","31407","1403984568792","38.956432","-77.032947","true","false","1365798900000","","false","true",9,22,"1403976957680",2014-06-28 13:35:57,31,0.290322580645161,0.709677419354839
"211","219","S Troy St & 26th St S","31056","1403984529380","38.847977","-77.075104","true","false","1366725840000","","false","true",20,28,"1403982206196",2014-06-28 15:03:26,48,0.416666666666667,0.583333333333333
"212","220","S Four Mile Run Dr & S Shirlington Rd","31057","1403984559664","38.8444","-77.085931","true","false","1366729200000","","false","true",19,29,"1403962095370",2014-06-28 09:28:15,48,0.395833333333333,0.604166666666667
"213","221","S Oakland St & Columbia Pike","31058","1403984484809","38.860789","-77.09586","true","false","1366735380000","","false","true",21,27,"1403971940638",2014-06-28 12:12:20,48,0.4375,0.5625
"214","222","S Abingdon St & 36th St S","31059","1403984395936","38.835213","-77.094295","true","false","1366739700000","","false","true",19,29,"1403982217573",2014-06-28 15:03:37,48,0.395833333333333,0.604166666666667
"215","223","S Arlington Mill Dr & Campbell Ave","31060","1403984538234","38.84232","-77.089555","true","false","1366802400000","","false","true",21,31,"1403969026936",2014-06-28 11:23:46,52,0.403846153846154,0.596153846153846
"216","224","S Kenmore & 24th St S","31061","1403984455900","38.848454","-77.084918","true","false","1366825140000","","false","true",22,22,"1403930196858",2014-06-28 00:36:36,44,0.5,0.5
"217","225","13th St & Eastern Ave","32006","1403984440862","38.987","-77.029417","true","false","1380292680000","","false","true",23,29,"1403981048236",2014-06-28 14:44:08,52,0.442307692307692,0.557692307692308
"218","226","Wisconsin Ave & O St NW","31312","1403984572107","38.90849","-77.063586","true","false","1366910820000","","false","true",8,22,"1403984329530",2014-06-28 15:38:49,30,0.266666666666667,0.733333333333333
"219","227","S George Mason Dr & 13th St S","31062","1403984535855","38.854691","-77.100555","true","false","1372694040000","","false","true",19,29,"1403970919411",2014-06-28 11:55:19,48,0.395833333333333,0.604166666666667
"220","228","Connecticut & Nebraska Ave NW","31310","1403984382459","38.955016","-77.069956","true","false","1366894140000","","false","true",23,7,"1403980502419",2014-06-28 14:35:02,30,0.766666666666667,0.233333333333333
"221","229","17th St & Massachusetts Ave NW","31267","1403984546838","38.908142","-77.038359","true","false","1367851920000","","false","true",9,22,"1403984545918",2014-06-28 15:42:25,31,0.290322580645161,0.709677419354839
"222","230","15th & Euclid St  NW","31117","1403984574677","38.92333","-77.0352","true","false","1367856780000","","false","true",2,7,"1403984126931",2014-06-28 15:35:26,9,0.222222222222222,0.777777777777778
"223","231","8th & East Capitol St NE","31629","1403984561046","38.889988","-76.995193","true","false","1368545580000","","false","true",17,31,"1403983835346",2014-06-28 15:30:35,48,0.354166666666667,0.645833333333333
"224","232","New Jersey Ave & R St NW","31509","1403984508467","38.912659","-77.017669","true","false","1368532680000","","false","true",22,30,"1403984507617",2014-06-28 15:41:47,52,0.423076923076923,0.576923076923077
"225","233","15th & East Capitol St NE","31630","1403984335123","38.889908","-76.983326","true","false","1368541260000","","false","true",4,1,"1403982730205",2014-06-28 15:12:10,5,0.8,0.2
"226","234","8th & F St NE","31631","1403984542799","38.897274","-76.994749","true","false","1368552540000","","false","true",13,6,"1403983717145",2014-06-28 15:28:37,19,0.684210526315789,0.315789473684211
"227","235","18th St & Rhode Island Ave NE","31510","1403984437603","38.927095","-76.978924","true","false","1369915500000","","false","true",6,13,"1403977571648",2014-06-28 13:46:11,19,0.315789473684211,0.684210526315789
"228","236","15th & F St NE","31632","1403984432473","38.897195","-76.983575","true","false","1369928820000","","false","true",6,29,"1403984431797",2014-06-28 15:40:31,35,0.171428571428571,0.828571428571429
"229","237","12th & Irving St NE","31511","1403984448440","38.928644","-76.990955","true","false","1369923120000","","false","true",6,13,"1403979840399",2014-06-28 14:24:00,19,0.315789473684211,0.684210526315789
"230","238","34th St & Minnesota Ave SE","31709","1403984522553","38.884085","-76.957461","true","false","1370358840000","","false","true",3,2,"1403972947839",2014-06-28 12:29:07,5,0.6,0.4
"231","239","Alabama & MLK Ave SE","31800","1403984404386","38.843222","-76.999388","true","false","1370345160000","","false","true",19,29,"1403930198515",2014-06-28 00:36:38,48,0.395833333333333,0.604166666666667
"232","240","Pleasant St & MLK Ave SE","31807","1403984425867","38.863897","-76.990037","true","false","1370351820000","","false","true",17,31,"1403930196801",2014-06-28 00:36:36,48,0.354166666666667,0.645833333333333
"233","241","Neal St & Trinidad Ave NE","31512","1403984348958","38.903732","-76.987211","true","false","1371221640000","","false","true",13,6,"1403982314612",2014-06-28 15:05:14,19,0.684210526315789,0.315789473684211
"234","242","13th & U St NW","31268","1403984546285","38.916794","-77.029779","true","false","1371231240000","","false","true",17,14,"1403984545479",2014-06-28 15:42:25,31,0.548387096774194,0.451612903225806
"235","243","S George Mason Dr & Four Mile Run","31063","1403984533681","38.852248","-77.105022","true","false","1372690500000","","false","true",13,32,"1403984291240",2014-06-28 15:38:11,45,0.288888888888889,0.711111111111111
"236","244","S Stafford & 34th St S","31064","1403984344054","38.834108","-77.087323","true","false","1372701360000","","false","true",20,32,"1403871717909",2014-06-27 08:21:57,52,0.384615384615385,0.615384615384615
"237","245","N Pershing Dr & Wayne St","31065","1403984556217","38.880705","-77.08596","true","false","1372680300000","","false","true",19,29,"1403983780889",2014-06-28 15:29:40,48,0.395833333333333,0.604166666666667
"238","246","Columbia Pike & S Orme St","31066","1403984346090","38.867262","-77.072315","true","false","1372684620000","","false","true",13,32,"1403973483863",2014-06-28 12:38:03,45,0.288888888888889,0.711111111111111
"239","247","3rd St & Pennsylvania Ave SE","31269","1403984334365","38.887378","-77.001955","true","false","1374598740000","","false","true",1,8,"1403984091887",2014-06-28 15:34:51,9,0.111111111111111,0.888888888888889
"240","248","8th & D St NW","31270","1403984357441","38.894851","-77.02324","true","false","1374581640000","","false","true",7,1,"1403983873763",2014-06-28 15:31:13,8,0.875,0.125
"241","249","3rd & Elm St NW","31118","1403984378151","38.917622","-77.01597","true","false","1374589740000","","false","true",5,13,"1403983894675",2014-06-28 15:31:34,18,0.277777777777778,0.722222222222222
"242","250","Rhode Island Ave & V St NE","31513","1403984480248","38.918155","-77.004746","true","false","1375196700000","","false","true",19,7,"1403982548145",2014-06-28 15:09:08,26,0.730769230769231,0.269230769230769
"243","251","Constitution Ave & 2nd St NW/DOL","31271","1403984546675","38.892275","-77.013917","true","false","1375190280000","","false","true",21,10,"1403984546067",2014-06-28 15:42:26,31,0.67741935483871,0.32258064516129
"244","252","Washington & Independence Ave SW/HHS","31272","1403984558573","38.88731","-77.01397","true","false","1375445040000","","false","true",19,12,"1403984557391",2014-06-28 15:42:37,31,0.612903225806452,0.387096774193548
"245","253","Independence Ave & L'Enfant Plaza SW/DOE","31633","1403984543238","38.887397","-77.026154","true","false","1375789680000","","false","true",19,31,"1403984058903",2014-06-28 15:34:18,50,0.38,0.62
"246","254","Hamlin & 7th St NE","31514","1403984408628","38.927497","-76.997194","true","false","1376653440000","","false","true",18,4,"1403983680138",2014-06-28 15:28:00,22,0.818181818181818,0.181818181818182
"247","255","Columbia Pike & S Walter Reed Dr","31067","1403984410432","38.862478","-77.086599","true","false","1377605340000","","false","true",19,29,"1403972617287",2014-06-28 12:23:37,48,0.395833333333333,0.604166666666667
"248","256","Columbia Pike & S Dinwiddie St / Arlington Mill Community Center","31068","1403984380764","38.856319","-77.11153","true","false","1377776460000","","false","true",20,31,"1403984137968",2014-06-28 15:35:37,51,0.392156862745098,0.607843137254902
"249","257","Pershing & N George Mason Dr","31069","1403984452959","38.871822","-77.107906","true","false","1377792000000","","false","true",17,31,"1403983486118",2014-06-28 15:24:46,48,0.354166666666667,0.645833333333333
"250","258","Fenton St & New York Ave ","32001","1403984397462","38.985404","-77.023082","true","false","1380292620000","","false","true",20,32,"1403930192556",2014-06-28 00:36:32,52,0.384615384615385,0.615384615384615
"251","259","Bethesda Ave & Arlington Blvd","32002","1403984558240","38.981103","-77.097426","true","false","1380292620000","","false","true",5,30,"1403979440122",2014-06-28 14:17:20,35,0.142857142857143,0.857142857142857
"252","260","Montgomery Ave & Waverly St ","32003","1403984394425","38.983838","-77.09221","true","false","1382208480000","","false","true",19,29,"1403967730948",2014-06-28 11:02:10,48,0.395833333333333,0.604166666666667
"253","261","Fallsgrove Blvd & Fallsgrove Dr","32004","1403984349803","39.096312","-77.192672","true","false","1380292620000","","false","true",22,4,"1403973203927",2014-06-28 12:33:23,26,0.846153846153846,0.153846153846154
"254","262","Traville Gateway Dr & Gudelsky Dr","32005","1403984370955","39.093783","-77.202501","true","false","1380292680000","","false","true",22,4,"1403963181008",2014-06-28 09:46:21,26,0.846153846153846,0.153846153846154
"255","263","Norfolk Ave & Fairmont St","32000","1403984380315","38.988562","-77.096539","true","false","1380292560000","","false","true",21,22,"1403981683234",2014-06-28 14:54:43,43,0.488372093023256,0.511627906976744
"256","264","E Montgomery Ave & Maryland Ave","32007","1403984407940","39.084125","-77.151291","true","false","1380292560000","","false","true",20,32,"1403842613073",2014-06-27 00:16:53,52,0.384615384615385,0.615384615384615
"257","265","Cordell & Norfolk Ave","32008","1403984573307","38.98954","-77.098029","true","false","1380292740000","","false","true",19,29,"1403978536967",2014-06-28 14:02:16,48,0.395833333333333,0.604166666666667
"258","266","Frederick Ave & Horners Ln","32009","1403984439229","39.094772","-77.145213","true","false","1380292740000","","false","true",18,30,"1403930189017",2014-06-28 00:36:29,48,0.375,0.625
"259","267","Philadelphia & Maple Ave","32010","1403984561275","38.98128","-77.011336","true","false","1380292740000","","false","true",18,4,"1403984318745",2014-06-28 15:38:38,22,0.818181818181818,0.181818181818182
"260","268","Maple & Ritchie Ave","32011","1403984572338","38.983627","-77.006311","true","false","1380292800000","","false","true",23,3,"1403984571212",2014-06-28 15:42:51,26,0.884615384615385,0.115384615384615
"261","269","Silver Spring Metro/Colesville Rd & Wayne Ave","32012","1403984523556","38.99521","-77.02918","true","false","1380292800000","","false","true",22,4,"1403982591986",2014-06-28 15:09:51,26,0.846153846153846,0.153846153846154
"262","270","Montgomery & East Ln","32013","1403984519388","38.983525","-77.095367","true","false","1380292800000","","false","true",19,29,"1403971208420",2014-06-28 12:00:08,48,0.395833333333333,0.604166666666667
"263","271","Friendship Hts Metro/Wisconsin Ave & Wisconsin Cir","32014","1403984397720","38.961763","-77.085998","true","false","1380292860000","","false","true",4,31,"1403983914417",2014-06-28 15:31:54,35,0.114285714285714,0.885714285714286
"264","272","14th & Belmont St NW","31119","1403984561850","38.921074","-77.031887","true","false","1380719160000","","false","true",19,3,"1403984561130",2014-06-28 15:42:41,22,0.863636363636364,0.136363636363636
"265","273","3rd & Tingey St SE","31634","1403984387902","38.87501","-77.0024","true","false","1380722700000","","false","true",23,3,"1403984145461",2014-06-28 15:35:45,26,0.884615384615385,0.115384615384615
"266","274","10th & Florida Ave NW","31120","1403984492192","38.920387","-77.025672","true","false","1381320720000","","false","true",20,6,"1403983283657",2014-06-28 15:21:23,26,0.769230769230769,0.230769230769231
"267","275","Potomac Ave & 8th St SE","31635","1403984391352","38.876737","-76.994468","true","false","1381333800000","","false","true",20,31,"1403978285233",2014-06-28 13:58:05,51,0.392156862745098,0.607843137254902
"268","276","Crabbs Branch Way & Redland Rd","32015","1403984355357","39.120045","-77.156985","true","false","1382100480000","","false","true",21,31,"1403930193973",2014-06-28 00:36:33,52,0.403846153846154,0.596153846153846
"269","277","Fallsgrove Dr & W Montgomery Ave","32016","1403984411714","39.099376","-77.188014","true","false","1382120580000","","false","true",3,28,"1403930178534",2014-06-28 00:36:18,31,0.0967741935483871,0.903225806451613
"270","278","Monroe St & Monroe Pl","32017","1403983394077","39.083705","-77.149443","true","false","1383309240000","","false","true",22,29,"1403972641379",2014-06-28 12:24:01,51,0.431372549019608,0.568627450980392
"271","279","Needwood Rd & Eagles Head Ct","32018","1403984536824","39.123513","-77.15741","true","false","1382107020000","","false","true",20,32,"1403926596318",2014-06-27 23:36:36,52,0.384615384615385,0.615384615384615
"272","280","East West Hwy & Blair Mill Rd","32019","1403984500907","38.990249","-77.02935","true","false","1383148920000","","false","true",19,3,"1403982203978",2014-06-28 15:03:23,22,0.863636363636364,0.136363636363636
"273","281","Crabbs Branch Way & Calhoun Pl","32020","1403984405852","39.107709","-77.152072","true","false","1382111460000","","false","true",19,3,"1403930178845",2014-06-28 00:36:18,22,0.863636363636364,0.136363636363636
"274","282","47th & Elm St","32021","1403984448292","38.982456","-77.091991","true","false","1382208540000","","false","true",19,3,"1403976516479",2014-06-28 13:28:36,22,0.863636363636364,0.136363636363636
"275","283","Garland Ave & Walden Rd","32022","1403984471819","39.000578","-77.00149","true","false","1383059580000","","false","true",22,30,"1403968252725",2014-06-28 11:10:52,52,0.423076923076923,0.576923076923077
"276","284","Montgomery College/W Campus Dr & Mannakee St","32023","1403984356806","39.095661","-77.159048","true","false","1382199120000","","false","true",4,3,"1403930179744",2014-06-28 00:36:19,7,0.571428571428571,0.428571428571429
"277","285","Fenton St & Gist Ave","32024","1403984365516","38.989724","-77.023854","true","false","1383054960000","","false","true",17,31,"1403966086569",2014-06-28 10:34:46,48,0.354166666666667,0.645833333333333
"278","286","Carroll & Westmoreland Ave","32025","1403984570156","38.975","-77.01121","true","false","1383065460000","","false","true",22,30,"1403976636873",2014-06-28 13:30:36,52,0.423076923076923,0.576923076923077
"279","287","Carroll & Ethan Allen Ave","32026","1403984408643","38.977933","-77.006472","true","false","1383070440000","","false","true",22,30,"1403984407310",2014-06-28 15:40:07,52,0.423076923076923,0.576923076923077
"280","288","Battery Ln & Trolley Trail","32027","1403984512236","38.992375","-77.100104","true","false","1382712300000","","false","true",18,4,"1403980084072",2014-06-28 14:28:04,22,0.818181818181818,0.181818181818182
"281","289","Norfolk & Rugby Ave","32028","1403984369400","38.990639","-77.100239","true","false","1382715180000","","false","true",18,30,"1403977278020",2014-06-28 13:41:18,48,0.375,0.625
"282","290","Offutt Ln & Chevy Chase Dr","32029","1403984568345","38.977093","-77.094589","true","false","1382722080000","","false","true",20,28,"1403983625718",2014-06-28 15:27:05,48,0.416666666666667,0.583333333333333
"283","291","Broschart & Blackwell Rd","32030","1403984387975","39.102099","-77.200322","true","false","1382798640000","","false","true",21,31,"1403930182002",2014-06-28 00:36:22,52,0.403846153846154,0.596153846153846
"284","292","Taft St & E Gude Dr","32031","1403983654480","39.094103","-77.132954","true","false","1382804520000","","false","true",20,32,"1403930178443",2014-06-28 00:36:18,52,0.384615384615385,0.615384615384615
"285","293","Fleet St & Ritchie Pkwy","32032","1403984569691","39.076331","-77.141378","true","false","1382809500000","","false","true",22,30,"1403940667077",2014-06-28 03:31:07,52,0.423076923076923,0.576923076923077
"286","294","Piccard & W Gude Dr","32033","1403984378267","39.102212","-77.177091","true","false","1382795700000","","false","true",3,32,"1403969121789",2014-06-28 11:25:21,35,0.0857142857142857,0.914285714285714
"287","295","Ripley & Bonifant St","32034","1403984439826","38.992679","-77.029457","true","false","1383141360000","","false","true",3,28,"1403930179531",2014-06-28 00:36:19,31,0.0967741935483871,0.903225806451613
"288","296","Georgia Ave & Spring St","32035","1403984567730","38.999388","-77.031555","true","false","1383146520000","","false","true",21,27,"1403975715588",2014-06-28 13:15:15,48,0.4375,0.5625
"289","297","Fenton St & Ellsworth Dr ","32036","1403984565638","38.997033","-77.025608","true","false","1383135960000","","false","true",21,31,"1403978645633",2014-06-28 14:04:05,52,0.403846153846154,0.596153846153846
"290","298","King Farm Blvd & Pleasant Dr","32037","1403984427489","39.114688","-77.171487","true","false","1383323580000","","false","true",3,31,"1403972268785",2014-06-28 12:17:48,34,0.0882352941176471,0.911764705882353
"291","299","King Farm Blvd & Piccard Dr","32038","1403984391350","39.110314","-77.182669","true","false","1383318120000","","false","true",21,31,"1403983271666",2014-06-28 15:21:11,52,0.403846153846154,0.596153846153846
"292","301","Calvert St & Woodley Pl NW","31121","1403984564728","38.923583","-77.050046","true","false","1383657120000","","false","true",2,10,"1403984322442",2014-06-28 15:38:42,12,0.166666666666667,0.833333333333333
"293","302","New Jersey Ave & N St NW/Dunbar HS","31636","1403984424504","38.90706","-77.015231","true","false","1383662880000","","false","true",20,6,"1403984181981",2014-06-28 15:36:21,26,0.769230769230769,0.230769230769231
"294","303","Nannie Helen Burroughs Ave & 49th St NE","31710","1403984381753","38.898536","-76.931862","true","false","1383923280000","","false","true",20,28,"1403982578365",2014-06-28 15:09:38,48,0.416666666666667,0.583333333333333
"295","304","Deanwood Rec Center","31711","1403984370039","38.908473","-76.933099","true","false","1383923280000","","false","true",3,28,"1403951073658",2014-06-28 06:24:33,31,0.0967741935483871,0.903225806451613
"296","305","Hains Point/Buckeye & Ohio Dr SW","31273","1403984417031","38.878433","-77.03023","true","false","1383929160000","","false","true",19,5,"1403984415881",2014-06-28 15:40:15,24,0.791666666666667,0.208333333333333
"297","306","Arlington Blvd & Fillmore St","31070","1403984499531","38.873755","-77.089233","true","false","1384527780000","","false","true",23,13,"1403974193490",2014-06-28 12:49:53,36,0.638888888888889,0.361111111111111
"298","307","Long Bridge Park/Long Bridge Dr & 6th St S","31071","1403984427059","38.86646","-77.04826","true","false","1384520760000","","false","true",20,32,"1403973294884",2014-06-28 12:34:54,52,0.384615384615385,0.615384615384615
"299","308","Old Georgetown Rd & Southwick St","32039","1403984439985","38.999634","-77.109647","true","false","1384367940000","","false","true",21,5,"1403967565233",2014-06-28 10:59:25,26,0.807692307692308,0.192307692307692
"300","309","Friendship Blvd & Willard Ave","32040","1403984381802","38.96115","-77.088659","true","false","1384355760000","","false","true",21,5,"1403983897480",2014-06-28 15:31:37,26,0.807692307692308,0.192307692307692
"301","310","North Capitol St & G Pl NE","31637","1403984508798","38.899703","-77.008911","true","false","1386954360000","","false","true",21,5,"1403983783439",2014-06-28 15:29:43,26,0.807692307692308,0.192307692307692
"302","311","31st & Woodrow St S","31072","1403984447672","38.837666","-77.09482","true","false","1387298640000","","false","true",19,29,"1403953943841",2014-06-28 07:12:23,48,0.395833333333333,0.604166666666667
"303","312","Washington Blvd & Walter Reed Dr ","31073","1403984453650","38.873219","-77.082104","true","false","1387287180000","","false","true",21,31,"1403973112793",2014-06-28 12:31:52,52,0.403846153846154,0.596153846153846
"304","313","Thomas Jefferson Cmty Ctr / 2nd St S & Ivy","31074","1403984340246","38.869675","-77.093586","true","false","1386774900000","","false","true",21,27,"1403969971892",2014-06-28 11:39:31,48,0.4375,0.5625
"305","314","Connecticut Ave & Tilden St NW","31313","1403984521132","38.941154","-77.062036","true","false","1386954480000","","false","true",13,6,"1403983661050",2014-06-28 15:27:41,19,0.684210526315789,0.315789473684211
"306","315","Medical Center Dr & Key West Ave","32041","1403984474271","39.103091","-77.196442","true","false","1389273960000","","false","true",21,31,"1403962254511",2014-06-28 09:30:54,52,0.403846153846154,0.596153846153846
"307","316","Shady Grove Hospital","32042","1403984410611","39.097636","-77.196636","true","false","1389287040000","","false","true",23,3,"1403930192762",2014-06-28 00:36:32,26,0.884615384615385,0.115384615384615
"308","317","Veterans Pl & Pershing Dr ","32043","1403984415256","38.997445","-77.023894","true","false","1391876460000","","false","true",19,29,"1403974023291",2014-06-28 12:47:03,48,0.395833333333333,0.604166666666667
"309","318","Rockville Metro East","32044","1403983926429","39.085394","-77.145803","true","false","1393000800000","","false","true",21,29,"1403930189855",2014-06-28 00:36:29,50,0.42,0.58
"310","319","1st & H St NW","31638","1403984498363","38.900358","-77.012108","true","false","1392727500000","","false","true",17,5,"1403983482200",2014-06-28 15:24:42,22,0.772727272727273,0.227272727272727
"311","320","Fort Totten Metro","31515","1403984436205","38.952369","-77.002721","true","false","1392825840000","","false","true",21,5,"1403976407142",2014-06-28 13:26:47,26,0.807692307692308,0.192307692307692
"312","321","Takoma Metro","31408","1403984512336","38.975219","-77.016855","true","false","1392833400000","","false","true",8,27,"1403981613466",2014-06-28 14:53:33,35,0.228571428571429,0.771428571428571
"313","322","Rhode Island Ave Metro","31516","1403984511860","38.920682","-76.995876","true","false","1393259520000","","false","true",13,10,"1403984269565",2014-06-28 15:37:49,23,0.565217391304348,0.434782608695652
"314","323","Rolfe St & 9th St S","31075","1403984383902","38.866471","-77.076131","true","false","1394630640000","","false","true",21,27,"1403930180595",2014-06-28 00:36:20,48,0.4375,0.5625
"315","324","Shirlington Transit Center / S Quincy & Randolph St","31076","1403984446960","38.839912","-77.087083","true","false","1394637480000","","false","true",23,29,"1403930189916",2014-06-28 00:36:29,52,0.442307692307692,0.557692307692308
"316","325","Shady Grove Metro West","32045","1403984445627","39.119765","-77.166093","true","false","1397837820000","","false","true",21,5,"1403982909810",2014-06-28 15:15:09,26,0.807692307692308,0.192307692307692
"317","326","River Rd & Landy Ln","32046","1403984536912","38.964992","-77.103381","true","false","1396972380000","","false","true",23,3,"1403984294457",2014-06-28 15:38:14,26,0.884615384615385,0.115384615384615
"318","327","Rockville Metro West","32047","1403984372521","39.084379","-77.146866","true","false","1397847900000","","false","true",21,5,"1403972499158",2014-06-28 12:21:39,26,0.807692307692308,0.192307692307692
"319","328","Bethesda Metro","32048","1403984408465","38.984691","-77.094537","true","false","1398786060000","","false","true",17,32,"1403979125866",2014-06-28 14:12:05,49,0.346938775510204,0.653061224489796
"320","329","Iwo Jima Memorial/N Meade & 14th St N","31077","1403984370304","38.88992","-77.071301","true","false","1402585680000","","false","true",4,30,"1403984127656",2014-06-28 15:35:27,34,0.117647058823529,0.882352941176471
