"","id","name","terminalName","lastCommWithServer","lat","long","installed","locked","installDate","removalDate","temporary","public","nbBikes","nbEmptyDocks","latestUpdateTime","date","total","percentBikes","percentDocks"
"1","1","20th & Bell St","31000","1402621760334","38.8561","-77.0512","true","false","1316059200000","","false","true",19,31,"1402619690580",2014-06-12 20:34:50,50,0.38,0.62
"2","2","18th & Eads St.","31001","1402621779211","38.85725","-77.05332","true","false","1284989400000","","false","true",18,33,"1402621633135",2014-06-12 21:07:13,51,0.352941176470588,0.647058823529412
"3","3","20th & Crystal Dr","31002","1402621863889","38.8564","-77.0492","true","false","1284464580000","","false","true",3,31,"1402621380308",2014-06-12 21:03:00,34,0.0882352941176471,0.911764705882353
"4","4","15th & Crystal Dr","31003","1402621767332","38.86017","-77.049593","true","false","1284464880000","","false","true",21,29,"1402619593965",2014-06-12 20:33:13,50,0.42,0.58
"5","5","Aurora Hills Community Ctr/18th & Hayes St","31004","1402621691052","38.857866","-77.05949","true","false","1284464880000","","false","true",18,33,"1402618750802",2014-06-12 20:19:10,51,0.352941176470588,0.647058823529412
"6","6","12th & Hayes St /  Pentagon City Metro","31005","1402621878833","38.862303","-77.059936","true","false","1284464940000","","false","true",19,7,"1402620166295",2014-06-12 20:42:46,26,0.730769230769231,0.269230769230769
"7","7","S Joyce & Army Navy Dr","31006","1402621833895","38.8637","-77.0633","true","false","1284464940000","","false","true",19,32,"1402619659389",2014-06-12 20:34:19,51,0.372549019607843,0.627450980392157
"8","8","Crystal City Metro / 18th & Bell St","31007","1402621832274","38.8573","-77.0511","true","false","1284465000000","","false","true",1,12,"1402619580466",2014-06-12 20:33:00,13,0.0769230769230769,0.923076923076923
"9","9","12th & Army Navy Dr","31008","1402621899538","38.8629","-77.0528","true","false","1284465000000","","false","true",19,32,"1402621657586",2014-06-12 21:07:37,51,0.372549019607843,0.627450980392157
"10","10","27th & Crystal Dr","31009","1402621851356","38.848441","-77.051516","true","false","1284465060000","","false","true",6,32,"1402621126430",2014-06-12 20:58:46,38,0.157894736842105,0.842105263157895
"11","11","S Glebe & Potomac Ave","31010","1402621898696","38.8426","-77.0502","true","false","1284465120000","","false","true",20,29,"1402620031350",2014-06-12 20:40:31,49,0.408163265306122,0.591836734693878
"12","12","23rd & Crystal Dr","31011","1402621853902","38.8533","-77.0498","true","false","1284465120000","","false","true",18,6,"1402620404563",2014-06-12 20:46:44,24,0.75,0.25
"13","13","26th & S Clark St","31012","1402621696046","38.850688","-77.05152","true","false","1284465300000","","false","true",21,29,"1402617152048",2014-06-12 19:52:32,50,0.42,0.58
"14","14","19th St & Pennsylvania Ave NW","31100","1402621869969","38.9003","-77.0429","true","false","1284465360000","","false","true",1,8,"1402615348775",2014-06-12 19:22:28,9,0.111111111111111,0.888888888888889
"15","15","14th & V St NW","31101","1402621904212","38.9176","-77.0321","true","false","1284465420000","","false","true",13,32,"1402621831281",2014-06-12 21:10:31,45,0.288888888888889,0.711111111111111
"16","16","11th & Kenyon St NW","31102","1402621897084","38.929464","-77.027822","true","false","1286539080000","","false","true",11,35,"1402621145850",2014-06-12 20:59:05,46,0.239130434782609,0.760869565217391
"17","17","16th & Harvard St NW","31103","1402621849875","38.926088","-77.036536","true","false","1284465480000","","false","true",22,18,"1402621125300",2014-06-12 20:58:45,40,0.55,0.45
"18","18","Adams Mill & Columbia Rd NW","31104","1402621798966","38.922925","-77.042581","true","false","1284465540000","","false","true",12,5,"1402621645131",2014-06-12 21:07:25,17,0.705882352941177,0.294117647058824
"19","19","14th & Harvard St NW","31105","1402621863551","38.9268","-77.0322","true","false","1284465540000","","false","true",17,9,"1402621862477",2014-06-12 21:11:02,26,0.653846153846154,0.346153846153846
"20","20","Calvert & Biltmore St NW","31106","1402621811724","38.923203","-77.047637","true","false","1284465600000","","false","true",2,16,"1402620504558",2014-06-12 20:48:24,18,0.111111111111111,0.888888888888889
"21","21","Lamont & Mt Pleasant NW","31107","1402621786983","38.9319","-77.0388","true","false","1284465600000","","false","true",9,2,"1402621620831",2014-06-12 21:07:00,11,0.818181818181818,0.181818181818182
"22","22","4th & M St SW","31108","1402621906235","38.8767","-77.0178","true","false","1284465660000","","false","true",19,11,"1402621467459",2014-06-12 21:04:27,30,0.633333333333333,0.366666666666667
"23","23","15th & P St NW","31201","1402621892830","38.90985","-77.034438","true","false","1284465660000","","false","true",9,22,"1402621891668",2014-06-12 21:11:31,31,0.290322580645161,0.709677419354839
"24","24","14th & R St NW","31202","1402621770854","38.912682","-77.031681","true","false","1284465720000","","false","true",8,1,"1402621749337",2014-06-12 21:09:09,9,0.888888888888889,0.111111111111111
"25","25","14th & Rhode Island Ave NW","31203","1402621870552","38.9086","-77.0323","true","false","1284465780000","","false","true",13,2,"1402621870130",2014-06-12 21:11:10,15,0.866666666666667,0.133333333333333
"26","26","20th & E St NW","31204","1402621745327","38.8963","-77.045","true","false","1284465840000","","false","true",1,7,"1402617757058",2014-06-12 20:02:37,8,0.125,0.875
"27","27","21st & I St NW","31205","1402621762888","38.9008","-77.047","true","false","1283861040000","","false","true",1,26,"1402620312564",2014-06-12 20:45:12,27,0.037037037037037,0.962962962962963
"28","28","Georgia & New Hampshire Ave NW","31400","1402621884222","38.936043","-77.024649","true","false","1284465900000","","false","true",18,4,"1402621882771",2014-06-12 21:11:22,22,0.818181818181818,0.181818181818182
"29","29","14th St & Spring Rd NW","31401","1402621769187","38.9375","-77.0328","true","false","1284465960000","","false","true",21,29,"1402621766477",2014-06-12 21:09:26,50,0.42,0.58
"30","30","John McCormack Dr & Michigan Ave NE","31502","1402621767327","38.9346","-76.9955","true","false","1284465960000","","false","true",21,29,"1402621043060",2014-06-12 20:57:23,50,0.42,0.58
"31","31","5th & K St NW","31600","1402621833148","38.90304","-77.019027","true","false","1284466020000","","false","true",11,2,"1402621831711",2014-06-12 21:10:31,13,0.846153846153846,0.153846153846154
"32","32","19th & East Capitol St SE","31601","1402621888649","38.8896","-76.9769","true","false","1284466020000","","false","true",20,35,"1402621646143",2014-06-12 21:07:26,55,0.363636363636364,0.636363636363636
"33","33","Park Rd & Holmead Pl NW","31602","1402621784491","38.9308","-77.0315","true","false","1284466080000","","false","true",9,22,"1402621783269",2014-06-12 21:09:43,31,0.290322580645161,0.709677419354839
"34","34","Good Hope & Naylor Rd SE","31700","1402621787031","38.8601","-76.9672","true","false","1284466140000","","false","true",20,31,"1402610976464",2014-06-12 18:09:36,51,0.392156862745098,0.607843137254902
"35","35","Connecticut Ave & Newark St NW / Cleveland Park","31305","1402621798294","38.934267","-77.057979","true","false","1289241840000","","false","true",21,29,"1402621796152",2014-06-12 21:09:56,50,0.42,0.58
"36","36","Randle Circle & Minnesota Ave SE","31702","1402621879156","38.878","-76.9607","true","false","1284466200000","","false","true",19,32,"1402598294576",2014-06-12 14:38:14,51,0.372549019607843,0.627450980392157
"37","37","Minnesota Ave Metro/DOES","31703","1402621777369","38.897063","-76.947446","true","false","1284466200000","","false","true",20,31,"1402614720514",2014-06-12 19:12:00,51,0.392156862745098,0.607843137254902
"38","38","Nannie Helen Burroughs & Minnesota Ave NE","31704","1402621841534","38.901385","-76.941877","true","false","1386766320000","1298396940000","false","true",22,22,"1402613539215",2014-06-12 18:52:19,44,0.5,0.5
"39","39","Anacostia Metro","31801","1402621801536","38.862669","-76.994637","true","false","1284466260000","","false","true",20,31,"1402610716967",2014-06-12 18:05:16,51,0.392156862745098,0.607843137254902
"40","40","Good Hope Rd & MLK Ave SE","31802","1402621895391","38.867373","-76.988039","true","false","1305288720000","","false","true",20,31,"1402610508728",2014-06-12 18:01:48,51,0.392156862745098,0.607843137254902
"41","41","19th & E Street NW","31206","1402621720863","38.8952","-77.0436","true","false","1284545040000","","false","true",1,4,"1402617421393",2014-06-12 19:57:01,5,0.2,0.8
"42","42","4th St & Rhode Island Ave NE","31500","1402621844989","38.919488","-77.000624","true","false","1289970000000","","false","true",18,33,"1402621361182",2014-06-12 21:02:41,51,0.352941176470588,0.647058823529412
"43","43","10th & U St NW","31111","1402621689778","38.9172","-77.0259","true","false","1285822380000","","false","true",7,1,"1402621024879",2014-06-12 20:57:04,8,0.875,0.125
"44","44","Georgia Ave and Fairmont St NW","31207","1402621806757","38.9249","-77.0222","true","false","1285041600000","","false","true",22,22,"1402621322659",2014-06-12 21:02:02,44,0.5,0.5
"45","45","1st & N St  SE","31209","1402621819370","38.8743","-77.0057","true","false","1285041600000","","false","true",7,18,"1402617374502",2014-06-12 19:56:14,25,0.28,0.72
"46","46","20th St & Florida Ave NW","31110","1402621716143","38.9154","-77.0446","true","false","1285217520000","","false","true",1,8,"1402621544529",2014-06-12 21:05:44,9,0.111111111111111,0.888888888888889
"47","47","7th & T St NW","31109","1402621897778","38.9155","-77.0222","true","false","1285735680000","","false","true",8,1,"1402621413747",2014-06-12 21:03:33,9,0.888888888888889,0.111111111111111
"48","48","23rd & Eads St","31013","1402621689529","38.853613","-77.053535","true","false","1287562620000","","false","true",3,2,"1402619757208",2014-06-12 20:35:57,5,0.6,0.4
"49","49","M St & New Jersey Ave SE","31208","1402621750855","38.8763","-77.0037","true","false","1285041600000","","false","true",3,33,"1402621749369",2014-06-12 21:09:09,36,0.0833333333333333,0.916666666666667
"50","51","Massachusetts Ave & Dupont Circle NW","31200","1402621871603","38.9101","-77.0444","true","false","1284523200000","","false","true",1,30,"1402621628993",2014-06-12 21:07:08,31,0.032258064516129,0.967741935483871
"51","52","1st & M St NE","31603","1402621877302","38.9057","-77.0056","true","false","1287115200000","","false","true",18,3,"1402621876258",2014-06-12 21:11:16,21,0.857142857142857,0.142857142857143
"52","53","21st & M St NW","31212","1402621899182","38.90534","-77.046774","true","false","1285041600000","","false","true",12,9,"1402621897706",2014-06-12 21:11:37,21,0.571428571428571,0.428571428571429
"53","54","17th & K St NW","31213","1402621814730","38.90276","-77.03863","true","false","1306236960000","","false","true",1,12,"1402621572685",2014-06-12 21:06:12,13,0.0769230769230769,0.923076923076923
"54","55","3rd & H St NW","31604","1402621782798","38.899408","-77.015289","true","false","1287028800000","","false","true",18,4,"1402621781614",2014-06-12 21:09:41,22,0.818181818181818,0.181818181818182
"55","56","3rd & D St SE","31605","1402621821655","38.8851","-77.0023","true","false","1287201600000","","false","true",12,35,"1402619157234",2014-06-12 20:25:57,47,0.25531914893617,0.74468085106383
"56","57","Potomac & Pennsylvania Ave SE","31606","1402621859505","38.8803","-76.9862","true","false","1287460800000","","false","true",7,2,"1402621617208",2014-06-12 21:06:57,9,0.777777777777778,0.222222222222222
"57","58","14th & D St SE","31607","1402621817937","38.884","-76.9861","true","false","1287374400000","","false","true",19,35,"1402621817049",2014-06-12 21:10:17,54,0.351851851851852,0.648148148148148
"58","59","17th & Corcoran St NW","31214","1402621889123","38.9121","-77.0387","true","false","1294078980000","","false","true",7,31,"1402621887585",2014-06-12 21:11:27,38,0.184210526315789,0.815789473684211
"59","60","Van Ness Metro / UDC","31300","1402621811529","38.944551","-77.063896","true","false","1289624400000","","false","true",17,5,"1402620869015",2014-06-12 20:54:29,22,0.772727272727273,0.227272727272727
"60","61","Florida Ave & R St NW","31503","1402621669772","38.9126","-77.0135","true","false","1290056400000","","false","true",5,13,"1402620702040",2014-06-12 20:51:42,18,0.277777777777778,0.722222222222222
"61","62","8th & Eye St SE / Barracks Row","31608","1402621866796","38.8792","-76.9953","true","false","1287374400000","","false","true",22,22,"1402621865486",2014-06-12 21:11:05,44,0.5,0.5
"62","63","Ward Circle / American University","31301","1402621737213","38.938736","-77.087171","true","false","1289538000000","","false","true",18,4,"1402618598826",2014-06-12 20:16:38,22,0.818181818181818,0.181818181818182
"63","64","Idaho Ave & Newark St NW [on 2nd District patio]","31302","1402621669587","38.934751","-77.074647","true","false","1289970000000","","false","true",20,35,"1402620021614",2014-06-12 20:40:21,55,0.363636363636364,0.636363636363636
"64","65","14th St Heights / 14th & Crittenden St NW","31402","1402621832644","38.947774","-77.032818","true","false","1289970000000","","false","true",21,29,"1402618360030",2014-06-12 20:12:40,50,0.42,0.58
"65","66","Anacostia Library","31804","1402621808926","38.865784","-76.9784","true","false","1288584000000","","false","true",20,31,"1402594299642",2014-06-12 13:31:39,51,0.392156862745098,0.607843137254902
"66","67","Pennsylvania & Minnesota Ave SE","31805","1402621895356","38.873057","-76.971015","true","false","1288584000000","","false","true",23,13,"1402618514735",2014-06-12 20:15:14,36,0.638888888888889,0.361111111111111
"67","68","Eastern Market / 7th & North Carolina Ave SE","31610","1402621672696","38.886952","-76.996806","true","false","1282363200000","","false","true",6,13,"1402621338792",2014-06-12 21:02:18,19,0.315789473684211,0.684210526315789
"68","69","McPherson Square / 14th & H St NW","31216","1402621705127","38.899641","-77.032005","true","false","1284436800000","","false","true",1,12,"1402619767624",2014-06-12 20:36:07,13,0.0769230769230769,0.923076923076923
"69","70","Benning Branch Library","31705","1402621832863","38.894","-76.947974","true","false","1288584000000","","false","true",20,31,"1402604099606",2014-06-12 16:14:59,51,0.392156862745098,0.607843137254902
"70","71","USDA / 12th & Independence Ave SW","31217","1402621772650","38.887237","-77.028226","true","false","1286297580000","","false","true",12,27,"1402619797767",2014-06-12 20:36:37,39,0.307692307692308,0.692307692307692
"71","72","Georgetown Harbor / 30th St NW","31215","1402621669614","38.9022212","-77.059219","true","false","1286300580000","","false","true",3,34,"1402620727563",2014-06-12 20:52:07,37,0.0810810810810811,0.918918918918919
"72","73","12th & Newton St NE","31501","1402621712686","38.933668","-76.991016","true","false","1286306220000","","false","true",3,2,"1402620263481",2014-06-12 20:44:23,5,0.6,0.4
"73","74","US Dept of State / Virginia Ave & 21st St NW","31220","1402621876068","38.894919","-77.046587","true","false","1286661900000","","false","true",2,7,"1402621632820",2014-06-12 21:07:12,9,0.222222222222222,0.777777777777778
"74","75","L'Enfant Plaza / 7th & C St SW","31218","1402621885630","38.886266","-77.022241","true","false","1286410980000","","false","true",1,8,"1402620918748",2014-06-12 20:55:18,9,0.111111111111111,0.888888888888889
"75","76","10th St & Constitution Ave NW","31219","1402621806298","38.893028","-77.026013","true","false","1286497620000","","false","true",1,24,"1402619925545",2014-06-12 20:38:45,25,0.04,0.96
"76","77","Kennedy Center","31211","1402621689915","38.895184","-77.054845","true","false","1286325060000","","false","true",18,33,"1402620332147",2014-06-12 20:45:32,51,0.352941176470588,0.647058823529412
"77","78","Eastern Market Metro / Pennsylvania Ave & 7th St SE","31613","1402621669411","38.884","-76.995397","true","false","1286411820000","","false","true",20,4,"1402621667739",2014-06-12 21:07:47,24,0.833333333333333,0.166666666666667
"78","79","18th & M St NW","31221","1402621874638","38.904742","-77.041606","true","false","1286458140000","","false","true",19,6,"1402621631756",2014-06-12 21:07:11,25,0.76,0.24
"79","80","Tenleytown / Wisconsin Ave & Albemarle St NW","31303","1402621868248","38.947607","-77.079382","true","false","1287150300000","","false","true",17,5,"1402620419052",2014-06-12 20:46:59,22,0.772727272727273,0.227272727272727
"80","81","13th & H St NE","31611","1402621752035","38.9003","-76.9882","true","false","1286547000000","","false","true",14,31,"1402621508972",2014-06-12 21:05:08,45,0.311111111111111,0.688888888888889
"81","82","5th & F St NW","31620","1402621762462","38.897222","-77.019347","true","false","1286492280000","","false","true",1,24,"1402621761402",2014-06-12 21:09:21,25,0.04,0.96
"82","83","New York Ave & 15th St NW","31222","1402621894254","38.8991","-77.0337","true","false","1286631960000","","false","true",1,7,"1402620685951",2014-06-12 20:51:25,8,0.125,0.875
"83","84","Convention Center / 7th & M St NW","31223","1402621779025","38.90572","-77.022264","true","false","1286631960000","","false","true",21,5,"1402621054151",2014-06-12 20:57:34,26,0.807692307692308,0.192307692307692
"84","85","Harvard St & Adams Mill Rd NW","31112","1402621822644","38.927872","-77.043358","true","false","1294164840000","","false","true",4,29,"1402621338523",2014-06-12 21:02:18,33,0.121212121212121,0.878787878787879
"85","86","19th & L St NW","31224","1402621795894","38.903407","-77.043648","true","false","1287182880000","","false","true",1,8,"1402619531191",2014-06-12 20:32:11,9,0.111111111111111,0.888888888888889
"86","87","C & O Canal & Wisconsin Ave NW","31225","1402621725200","38.90375","-77.06269","true","false","1287460800000","","false","true",17,14,"1402620855933",2014-06-12 20:54:15,31,0.548387096774194,0.451612903225806
"87","88","6th & Water St SW / SW Waterfront","31609","1402621744043","38.87675","-77.02127","true","false","1287720000000","","false","true",22,4,"1402621260543",2014-06-12 21:01:00,26,0.846153846153846,0.153846153846154
"88","89","D St & Maryland Ave NE","31612","1402621756638","38.894758","-76.997114","true","false","1330094460000","","false","true",23,7,"1402621755540",2014-06-12 21:09:15,30,0.766666666666667,0.233333333333333
"89","90","34th St & Wisconsin Ave NW","31226","1402621713232","38.916442","-77.0682","true","false","1287182760000","","false","true",19,32,"1402621711452",2014-06-12 21:08:31,51,0.372549019607843,0.627450980392157
"90","91","13th St & New York Ave NW","31227","1402621837459","38.900283","-77.029822","true","false","1287416880000","","false","true",1,17,"1402618258496",2014-06-12 20:10:58,18,0.0555555555555556,0.944444444444444
"91","92","8th & H St NW","31228","1402621675314","38.8997","-77.023086","true","false","1287115200000","","false","true",17,23,"1402621673558",2014-06-12 21:07:53,40,0.425,0.575
"92","93","10th & Monroe St NE","31504","1402621867265","38.932514","-76.992889","true","false","1287096120000","","false","true",21,29,"1402620416787",2014-06-12 20:46:56,50,0.42,0.58
"93","94","Eckington Pl & Q St NE","31505","1402621759035","38.910972","-77.00495","true","false","1287096120000","","false","true",22,22,"1402616291697",2014-06-12 19:38:11,44,0.5,0.5
"94","95","6th & H St NE","31615","1402621790315","38.900384","-76.99831","true","false","1323696720000","","false","true",19,11,"1402621789586",2014-06-12 21:09:49,30,0.633333333333333,0.366666666666667
"95","96","3rd & H St NE","31616","1402621707552","38.900412","-77.001949","true","false","1287096060000","","false","true",7,29,"1402621706588",2014-06-12 21:08:26,36,0.194444444444444,0.805555555555556
"96","97","Bladensburg Rd & Benning Rd NE","31617","1402621880681","38.900413","-76.982872","true","false","1288200360000","","false","true",3,31,"1402621879833",2014-06-12 21:11:19,34,0.0882352941176471,0.911764705882353
"97","98","4th & East Capitol St NE","31618","1402621756340","38.889955","-77.000349","true","false","1287028800000","","false","true",4,1,"1402621513505",2014-06-12 21:05:13,5,0.8,0.2
"98","99","Lincoln Park / 13th & East Capitol St NE ","31619","1402621856760","38.890461","-76.988355","true","false","1288038900000","","false","true",9,35,"1402621130099",2014-06-12 20:58:50,44,0.204545454545455,0.795454545454545
"99","100","Branch & Pennsylvania Ave SE","31701","1402621793368","38.8692","-76.9599","true","false","1309008600000","","false","true",18,33,"1402614528956",2014-06-12 19:08:48,51,0.352941176470588,0.647058823529412
"100","101","13th & D St NE","31622","1402621883515","38.894832","-76.987633","true","false","1288114080000","","false","true",16,32,"1402621882448",2014-06-12 21:11:22,48,0.333333333333333,0.666666666666667
"101","102","New Hampshire Ave & T St NW","31229","1402621802413","38.91554","-77.03818","true","false","1287178020000","","false","true",10,32,"1402621801813",2014-06-12 21:10:01,42,0.238095238095238,0.761904761904762
"102","103","Metro Center / 12th & G St NW","31230","1402621800591","38.898364","-77.027869","true","false","1305259200000","","false","true",3,15,"1402621316914",2014-06-12 21:01:56,18,0.166666666666667,0.833333333333333
"103","104","14th & D St NW / Ronald Reagan Building","31231","1402621695331","38.894514","-77.031617","true","false","1303306260000","","false","true",1,19,"1402621196474",2014-06-12 20:59:56,20,0.05,0.95
"104","105","7th & F St NW / National Portrait Gallery","31232","1402621904194","38.897324","-77.022322","true","false","1304108940000","","false","true",17,9,"1402621902503",2014-06-12 21:11:42,26,0.653846153846154,0.346153846153846
"105","106","17th & K St NW / Farragut Square","31233","1402621778449","38.902061","-77.038322","true","false","1304022480000","","false","true",1,20,"1402619010586",2014-06-12 20:23:30,21,0.0476190476190476,0.952380952380952
"106","107","20th & O St NW / Dupont South","31234","1402621906820","38.908905","-77.04478","true","false","1328850000000","","false","true",2,11,"1402621905765",2014-06-12 21:11:45,13,0.153846153846154,0.846153846153846
"107","108","4th & D St NW / Judiciary Square","31621","1402621819417","38.895344","-77.016106","true","false","1304481600000","","false","true",20,35,"1402617061052",2014-06-12 19:51:01,55,0.363636363636364,0.636363636363636
"108","109","19th St & Constitution Ave NW","31235","1402621826209","38.8923","-77.0436","true","false","1287607080000","","false","true",19,21,"1402618937264",2014-06-12 20:22:17,40,0.475,0.525
"109","110","37th & O St NW / Georgetown University","31236","1402621885333","38.90774","-77.071652","true","false","1288037580000","","false","true",4,5,"1402616830111",2014-06-12 19:47:10,9,0.444444444444444,0.555555555555556
"110","111","11th & H St NE","31614","1402621747505","38.899983","-76.991383","true","false","1323666000000","","false","true",4,34,"1402621484030",2014-06-12 21:04:44,38,0.105263157894737,0.894736842105263
"111","112","25th St & Pennsylvania Ave NW","31237","1402621715622","38.903827","-77.053485","true","false","1288551000000","","false","true",2,7,"1402621472890",2014-06-12 21:04:32,9,0.222222222222222,0.777777777777778
"112","113","Columbus Circle / Union Station","31623","1402621801430","38.89696","-77.00493","true","false","1285905600000","","false","true",1,27,"1402621558918",2014-06-12 21:05:58,28,0.0357142857142857,0.964285714285714
"113","114","North Capitol St & F St NW","31624","1402621904433","38.897446","-77.009888","true","false","1288122720000","","false","true",12,15,"1402619430825",2014-06-12 20:30:30,27,0.444444444444444,0.555555555555556
"114","115","11th & M St NW","31266","1402621881914","38.905607","-77.027137","true","false","1364995680000","","false","true",9,13,"1402621880693",2014-06-12 21:11:20,22,0.409090909090909,0.590909090909091
"115","116","36th & Calvert St NW / Glover Park","31304","1402621754989","38.922581","-77.070334","true","false","1289236620000","","false","true",23,31,"1402621753478",2014-06-12 21:09:13,54,0.425925925925926,0.574074074074074
"116","117","14th & G St NW","31238","1402621803587","38.898069","-77.031823","true","false","1289237340000","","false","true",2,16,"1402621560807",2014-06-12 21:06:00,18,0.111111111111111,0.888888888888889
"117","118","Potomac Ave & 35th St S","31052","1402621908033","38.844015","-77.050537","true","false","1351092960000","","false","true",8,33,"1402615600986",2014-06-12 19:26:40,41,0.195121951219512,0.804878048780488
"118","124","Ohio Dr & West Basin Dr SW / MLK & FDR Memorials","31240","1402621809090","38.88412","-77.04657","true","false","1331904960000","","false","true",11,31,"1402621566588",2014-06-12 21:06:06,42,0.261904761904762,0.738095238095238
"119","125","11th & F St NW","31262","1402621778120","38.897857","-77.026975","true","false","1359981840000","","false","true",17,5,"1402621534955",2014-06-12 21:05:34,22,0.772727272727273,0.227272727272727
"120","126","23rd & E St NW ","31260","1402621886066","38.896104","-77.049882","true","false","1359652440000","","false","true",2,11,"1402621885219",2014-06-12 21:11:25,13,0.153846153846154,0.846153846153846
"121","127","Lynn & 19th St North","31014","1402621682760","38.897315","-77.070993","true","false","1302957060000","","false","true",22,4,"1402619423766",2014-06-12 20:30:23,26,0.846153846153846,0.153846153846154
"122","128","Rosslyn Metro / Wilson Blvd & Ft Myer Dr","31015","1402621752679","38.8946","-77.072305","true","false","1302957120000","","false","true",3,31,"1402620769840",2014-06-12 20:52:49,34,0.0882352941176471,0.911764705882353
"123","129","Clarendon Blvd & Pierce St","31016","1402621776122","38.893648","-77.076701","true","false","1302957960000","","false","true",2,3,"1402619361678",2014-06-12 20:29:21,5,0.4,0.6
"124","130","Court House Metro / Wilson Blvd & N Uhle St","31017","1402621740509","38.891696","-77.0846","true","false","1320933600000","","false","true",20,34,"1402621369816",2014-06-12 21:02:49,54,0.37037037037037,0.62962962962963
"125","131","N Rhodes & 16th St N","31018","1402621771536","38.892164","-77.079375","true","false","1302963480000","","false","true",18,33,"1402620080257",2014-06-12 20:41:20,51,0.352941176470588,0.647058823529412
"126","132","Fairfax Village","31706","1402621814940","38.86559","-76.952103","true","false","1311771600000","","false","true",22,33,"1402598163066",2014-06-12 14:36:03,55,0.4,0.6
"127","133","21st St & Constitution Ave NW","31261","1402621778812","38.892459","-77.046567","true","false","1359639120000","","false","true",19,3,"1402620846692",2014-06-12 20:54:06,22,0.863636363636364,0.136363636363636
"128","134","Wilson Blvd & N Edgewood St","31019","1402621898878","38.889","-77.0925","true","false","1321015980000","","false","true",4,29,"1402621897797",2014-06-12 21:11:37,33,0.121212121212121,0.878787878787879
"129","135","Columbia Rd & Belmont St NW","31113","1402621689914","38.920669","-77.04368","true","false","1321625100000","","false","true",19,7,"1402621680258",2014-06-12 21:08:00,26,0.730769230769231,0.269230769230769
"130","136","17th & Rhode Island Ave NW","31239","1402621795630","38.906602","-77.038785","true","false","1321639800000","","false","true",1,16,"1402621795125",2014-06-12 21:09:55,17,0.0588235294117647,0.941176470588235
"131","137","Thomas Circle","31241","1402621887037","38.9059","-77.0325","true","false","1321714320000","","false","true",2,25,"1402621885340",2014-06-12 21:11:25,27,0.0740740740740741,0.925925925925926
"132","138","Wilson Blvd & Franklin Rd","31020","1402621746959","38.8904","-77.0889","true","false","1322715600000","","false","true",2,3,"1402621020571",2014-06-12 20:57:00,5,0.4,0.6
"133","139","Clarendon Blvd & N Fillmore St","31021","1402621879818","38.8881","-77.09308","true","false","1321981080000","","false","true",3,31,"1402621155201",2014-06-12 20:59:15,34,0.0882352941176471,0.911764705882353
"134","140","Clarendon Metro / Wilson Blvd & N Highland St","31022","1402621792105","38.88786","-77.094875","true","false","1321983480000","","false","true",1,10,"1402621790902",2014-06-12 21:09:50,11,0.0909090909090909,0.909090909090909
"135","141","18th St & Pennsylvania Ave NW","31242","1402621901295","38.89968","-77.041539","true","false","1322571600000","","false","true",19,3,"1402621900281",2014-06-12 21:11:40,22,0.863636363636364,0.136363636363636
"136","142","Maryland & Independence Ave SW","31243","1402621899659","38.887299","-77.018939","true","false","1327669020000","","false","true",1,28,"1402618087362",2014-06-12 20:08:07,29,0.0344827586206897,0.96551724137931
"137","143","4th & E St SW","31244","1402621891969","38.88412","-77.017445","true","false","1322756880000","","false","true",18,8,"1402621890975",2014-06-12 21:11:30,26,0.692307692307692,0.307692307692308
"138","144","3rd & G St SE","31625","1402621814790","38.881185","-77.001828","true","false","1322661660000","","false","true",5,33,"1402621088587",2014-06-12 20:58:08,38,0.131578947368421,0.868421052631579
"139","145","7th & R St NW / Shaw Library","31245","1402621756411","38.912719","-77.022155","true","false","1322583120000","","false","true",23,32,"1402621513465",2014-06-12 21:05:13,55,0.418181818181818,0.581818181818182
"140","146","9th & Upshur St NW","31404","1402621740924","38.9418","-77.0251","true","false","1323194880000","","false","true",6,13,"1402621740116",2014-06-12 21:09:00,19,0.315789473684211,0.684210526315789
"141","147","1st & Rhode Island Ave NW","31506","1402621753340","38.915417","-77.012289","true","false","1323178380000","","false","true",3,31,"1402620786907",2014-06-12 20:53:06,34,0.0882352941176471,0.911764705882353
"142","148","Columbia Rd & Georgia Ave NW","31115","1402621768212","38.928156","-77.02344","true","false","1323234000000","","false","true",3,35,"1402621284119",2014-06-12 21:01:24,38,0.0789473684210526,0.921052631578947
"143","149","California St & Florida Ave NW","31116","1402621842673","38.917761","-77.04062","true","false","1323752400000","","false","true",18,7,"1402620947264",2014-06-12 20:55:47,25,0.72,0.28
"144","150","Benning Rd & East Capitol St NE / Benning Rd Metro","31707","1402621884326","38.889935","-76.93723","true","false","1324404360000","","false","true",5,33,"1402612858802",2014-06-12 18:40:58,38,0.131578947368421,0.868421052631579
"145","151","3000 Connecticut Ave NW / National Zoo","31307","1402621807837","38.930282","-77.055599","true","false","1324496640000","","false","true",3,31,"1402619416285",2014-06-12 20:30:16,34,0.0882352941176471,0.911764705882353
"146","152","Anacostia Ave & Benning Rd NE / River Terrace ","31708","1402621846904","38.896544","-76.96012","true","false","1324402320000","","false","true",19,3,"1402567500350",2014-06-12 06:05:00,22,0.863636363636364,0.136363636363636
"147","153","M St & Pennsylvania Ave NW","31246","1402621874783","38.905126","-77.056887","true","false","1324485480000","","false","true",17,7,"1402621391580",2014-06-12 21:03:11,24,0.708333333333333,0.291666666666667
"148","154","15th St & Massachusetts Ave SE","31626","1402621709158","38.88732","-76.983569","true","false","1324565040000","","false","true",21,34,"1402620642191",2014-06-12 20:50:42,55,0.381818181818182,0.618181818181818
"149","155","Congress Heights Metro","31806","1402621854524","38.844711","-76.987823","true","false","1324581180000","","false","true",19,3,"1402610191694",2014-06-12 17:56:31,22,0.863636363636364,0.136363636363636
"150","156","N Quincy St & Glebe Rd","31035","1402621836746","38.876393","-77.107735","true","false","1335552600000","","false","true",23,13,"1402621594487",2014-06-12 21:06:34,36,0.638888888888889,0.361111111111111
"151","157","Wilson Blvd & N Oakland St","31033","1402621792600","38.8815","-77.10396","true","false","1335387720000","","false","true",2,3,"1402620036462",2014-06-12 20:40:36,5,0.4,0.6
"152","158","N Veitch  & 20th St N","31029","1402621807197","38.896923","-77.086502","true","false","1335213360000","","false","true",21,34,"1402620837441",2014-06-12 20:53:57,55,0.381818181818182,0.618181818181818
"153","159","11th & K St NW","31263","1402621860632","38.90268","-77.02674","true","false","1360936140000","","false","true",12,10,"1402621859024",2014-06-12 21:10:59,22,0.545454545454545,0.454545454545455
"154","160","Fairfax Dr & Wilson Blvd","31023","1402621677075","38.885801","-77.097745","true","false","1335545880000","","false","true",21,22,"1402618175626",2014-06-12 20:09:35,43,0.488372093023256,0.511627906976744
"155","161","Key Blvd & N Quinn St","31027","1402621811346","38.896015","-77.078107","true","false","1335195480000","","false","true",20,31,"1402614479598",2014-06-12 19:07:59,51,0.392156862745098,0.607843137254902
"156","162","1st & K St SE","31628","1402621894625","38.87861","-77.006004","true","false","1328717220000","","false","true",6,13,"1402621411200",2014-06-12 21:03:31,19,0.315789473684211,0.684210526315789
"157","163","39th & Calvert St NW / Stoddert","31306","1402621743484","38.922649","-77.077271","true","false","1328898300000","","false","true",8,29,"1402621259611",2014-06-12 21:00:59,37,0.216216216216216,0.783783783783784
"158","164","1st & Washington Hospital Center NW","31507","1402621843040","38.928743","-77.012457","true","false","1329153540000","","false","true",22,33,"1402618864819",2014-06-12 20:21:04,55,0.4,0.6
"159","165","Virginia Square Metro / N Monroe St & 9th St N","31024","1402621776784","38.882788","-77.103148","true","false","1329508980000","","false","true",10,13,"1402621227182",2014-06-12 21:00:27,23,0.434782608695652,0.565217391304348
"160","166","Central Library / N Quincy St & 10th St N","31025","1402621884828","38.88397","-77.10783","true","false","1329493920000","","false","true",19,31,"1402620435416",2014-06-12 20:47:15,50,0.38,0.62
"161","167","Washington Blvd & 10th St N","31026","1402621896845","38.884734","-77.093485","true","false","1329944340000","","false","true",19,3,"1402621896347",2014-06-12 21:11:36,22,0.863636363636364,0.136363636363636
"162","168","Jefferson Dr & 14th St SW","31247","1402621752780","38.888553","-77.032429","true","false","1331911860000","","false","true",18,11,"1402621509702",2014-06-12 21:05:09,29,0.620689655172414,0.379310344827586
"163","169","Smithsonian / Jefferson Dr & 12th St SW","31248","1402621833814","38.888767","-77.02858","true","false","1333369620000","","false","true",12,15,"1402621658109",2014-06-12 21:07:38,27,0.444444444444444,0.555555555555556
"164","170","George Mason Dr & Wilson Blvd","31036","1402621719747","38.87887","-77.1207","true","false","1335805380000","","false","true",3,31,"1402620290610",2014-06-12 20:44:50,34,0.0882352941176471,0.911764705882353
"165","171","6th St & Indiana Ave NW","31264","1402621725516","38.894573","-77.01994","true","false","1364990040000","","false","true",21,5,"1402620760629",2014-06-12 20:52:40,26,0.807692307692308,0.192307692307692
"166","172","N Veitch & Key Blvd","31028","1402621781417","38.893241","-77.086045","true","false","1335202980000","","false","true",17,34,"1402621084585",2014-06-12 20:58:04,51,0.333333333333333,0.666666666666667
"167","173","N Adams St & Lee Hwy","31030","1402621847791","38.89593","-77.089006","true","false","1335369060000","","false","true",3,31,"1402619915453",2014-06-12 20:38:35,34,0.0882352941176471,0.911764705882353
"168","174","15th & N Scott St","31031","1402621725065","38.89054","-77.08095","true","false","1335362100000","","false","true",21,29,"1402619910837",2014-06-12 20:38:30,50,0.42,0.58
"169","175","Washington Blvd & 7th St N","31032","1402621745872","38.880834","-77.091129","true","false","1335794400000","","false","true",17,34,"1402620055368",2014-06-12 20:40:55,51,0.333333333333333,0.666666666666667
"170","176","Ballston Metro / N Stuart & 9th St N","31037","1402621855130","38.881044","-77.111768","true","false","1335817440000","","false","true",1,12,"1402619946318",2014-06-12 20:39:06,13,0.0769230769230769,0.923076923076923
"171","177","N Randolph St & Fairfax Dr","31034","1402621869807","38.882629","-77.109366","true","false","1335542580000","","false","true",17,34,"1402621385581",2014-06-12 21:03:05,51,0.333333333333333,0.666666666666667
"172","178","Jefferson Memorial","31249","1402621775215","38.879819","-77.037413","true","false","1335969180000","","false","true",20,9,"1402621291049",2014-06-12 21:01:31,29,0.689655172413793,0.310344827586207
"173","179","Good Hope Rd & 14th St SE","31803","1402621742356","38.866611","-76.985238","true","false","1335981060000","","false","true",6,13,"1402611058848",2014-06-12 18:10:58,19,0.315789473684211,0.684210526315789
"174","180","Glebe Rd & 11th St N","31038","1402621728929","38.883921","-77.116817","true","false","1337269200000","","false","true",12,35,"1402614601039",2014-06-12 19:10:01,47,0.25531914893617,0.74468085106383
"175","181","N Quincy St & Wilson Blvd","31039","1402621755208","38.880151","-77.107673","true","false","1338301620000","","false","true",19,32,"1402620292391",2014-06-12 20:44:52,51,0.372549019607843,0.627450980392157
"176","182","Fairfax Dr & Kenmore St","31040","1402621684257","38.884616","-77.10108","true","false","1366814880000","","false","true",1,4,"1402619438947",2014-06-12 20:30:38,5,0.2,0.8
"177","183","Gallaudet / 8th St & Florida Ave NE","31508","1402621685365","38.90509","-76.9941","true","false","1342033620000","","false","true",5,33,"1402620960295",2014-06-12 20:56:00,38,0.131578947368421,0.868421052631579
"178","185","20th & L St NW","31250","1402621683882","38.903584","-77.044789","true","false","1340632500000","","false","true",1,12,"1402616209324",2014-06-12 19:36:49,13,0.0769230769230769,0.923076923076923
"179","186","12th & L St NW","31251","1402621870159","38.903819","-77.0284","true","false","1340639640000","","false","true",12,9,"1402620902092",2014-06-12 20:55:02,21,0.571428571428571,0.428571428571429
"180","187","21st St & Pennsylvania Ave NW","31252","1402621807023","38.901539","-77.046564","true","false","1340811180000","","false","true",18,8,"1402621805693",2014-06-12 21:10:05,26,0.692307692307692,0.307692307692308
"181","188","19th & K St NW","31253","1402621889316","38.902204","-77.04337","true","false","1340801880000","","false","true",1,17,"1402619784529",2014-06-12 20:36:24,18,0.0555555555555556,0.944444444444444
"182","189","Prince St & Union St","31041","1402621852005","38.803124","-77.040363","true","false","1346070420000","","false","true",7,31,"1402614968036",2014-06-12 19:16:08,38,0.184210526315789,0.815789473684211
"183","190","Market Square / King St & Royal St","31042","1402621903307","38.804718","-77.043363","true","false","1346077680000","","false","true",22,33,"1402617781509",2014-06-12 20:03:01,55,0.4,0.6
"184","191","Saint Asaph St & Pendleton  St","31043","1402621874704","38.810743","-77.044664","true","false","1346084880000","","false","true",3,31,"1402612261337",2014-06-12 18:31:01,34,0.0882352941176471,0.911764705882353
"185","192","King St & Patrick St","31044","1402621865786","38.805317","-77.049883","true","false","1346442900000","","false","true",23,32,"1402621863999",2014-06-12 21:11:03,55,0.418181818181818,0.581818181818182
"186","193","15th & K St NW","31254","1402621889934","38.902","-77.03353","true","false","1341232920000","","false","true",1,12,"1402621647335",2014-06-12 21:07:27,13,0.0769230769230769,0.923076923076923
"187","194","Commerce St & Fayette St","31045","1402621722999","38.805648","-77.05293","true","false","1346442960000","","false","true",17,5,"1402615128147",2014-06-12 19:18:48,22,0.772727272727273,0.227272727272727
"188","195","Henry St & Pendleton St","31046","1402621794664","38.811456","-77.050276","true","false","1346442960000","","false","true",20,4,"1402613227827",2014-06-12 18:47:07,24,0.833333333333333,0.166666666666667
"189","196","Braddock Rd Metro","31047","1402621839205","38.814577","-77.052808","true","false","1346442960000","","false","true",23,3,"1402614244456",2014-06-12 19:04:04,26,0.884615384615385,0.115384615384615
"190","197","King St Metro","31048","1402621868827","38.805767","-77.06072","true","false","1346443020000","","false","true",23,3,"1402618501365",2014-06-12 20:15:01,26,0.884615384615385,0.115384615384615
"191","198","24th & N St NW","31255","1402621769561","38.9066","-77.05152","true","false","1341575340000","","false","true",19,3,"1402621527166",2014-06-12 21:05:27,22,0.863636363636364,0.136363636363636
"192","199","10th & E St NW","31256","1402621837268","38.895914","-77.026064","true","false","1342109700000","","false","true",19,3,"1402621836116",2014-06-12 21:10:36,22,0.863636363636364,0.136363636363636
"193","200","22nd & I St NW / Foggy Bottom","31257","1402621711628","38.90088","-77.048911","true","false","1342442220000","","false","true",18,4,"1402621710135",2014-06-12 21:08:30,22,0.818181818181818,0.181818181818182
"194","201","Utah St & 11th St N ","31049","1402621682339","38.883669","-77.113905","true","false","1342539420000","","false","true",17,34,"1402618752972",2014-06-12 20:19:12,51,0.333333333333333,0.666666666666667
"195","202","Barton St & 10th St N","31050","1402621886639","38.884961","-77.08777","true","false","1346771820000","","false","true",18,33,"1402620678670",2014-06-12 20:51:18,51,0.352941176470588,0.647058823529412
"196","203","Arlington Blvd & N Queen St","31051","1402621820616","38.889365","-77.077294","true","false","1346776740000","","false","true",21,29,"1402619305473",2014-06-12 20:28:25,50,0.42,0.58
"197","204","Lincoln Memorial","31258","1402621744680","38.888251","-77.049426","true","false","1349268360000","","false","true",19,14,"1402621743376",2014-06-12 21:09:03,33,0.575757575757576,0.424242424242424
"198","206","20th St & Virginia Ave NW","31259","1402621849347","38.894722","-77.045128","true","false","1359646980000","","false","true",2,7,"1402621606138",2014-06-12 21:06:46,9,0.222222222222222,0.777777777777778
"199","207","5th St & Massachusetts Ave NW","31265","1402621868045","38.90093","-77.018677","true","false","1367842440000","","false","true",5,32,"1402621383900",2014-06-12 21:03:03,37,0.135135135135135,0.864864864864865
"200","208","39th & Veazey St NW","31308","1402621765353","38.943837","-77.077078","true","false","1360598160000","","false","true",23,32,"1402618055139",2014-06-12 20:07:35,55,0.418181818181818,0.581818181818182
"201","209","Fessenden St & Wisconsin Ave NW","31309","1402621678353","38.954812","-77.082426","true","false","1360588560000","","false","true",5,22,"1402614204999",2014-06-12 19:03:24,27,0.185185185185185,0.814814814814815
"202","210","M St & Delaware Ave NE","31627","1402621853391","38.905707","-77.003041","true","false","1360929900000","","false","true",8,34,"1402621852114",2014-06-12 21:10:52,42,0.19047619047619,0.80952380952381
"203","211","Columbia Pike & S Courthouse Rd","31053","1402621747601","38.863833","-77.080319","true","false","1364482620000","","false","true",22,33,"1402620779955",2014-06-12 20:52:59,55,0.4,0.6
"204","212","Walter Reed Community Center / Walter Reed Dr & 16th St S","31054","1402621700578","38.857803","-77.086733","true","false","1364466180000","","false","true",20,29,"1402614197443",2014-06-12 19:03:17,49,0.408163265306122,0.591836734693878
"205","213","28th St S & S Meade St","31055","1402621794676","38.846222","-77.069275","true","false","1364476320000","","false","true",23,31,"1402617735118",2014-06-12 20:02:15,54,0.425925925925926,0.574074074074074
"206","214","18th St & Wyoming Ave NW","31114","1402621834984","38.918809","-77.041571","true","false","1365003300000","","false","true",7,35,"1402621834510",2014-06-12 21:10:34,42,0.166666666666667,0.833333333333333
"207","215","5th & Kennedy St NW","31403","1402621886775","38.956595","-77.019815","true","false","1365777420000","","false","true",3,29,"1402620518815",2014-06-12 20:48:38,32,0.09375,0.90625
"208","216","Georgia Ave & Emerson St NW","31405","1402621743201","38.949662","-77.027333","true","false","1365783540000","","false","true",5,33,"1402620205480",2014-06-12 20:43:25,38,0.131578947368421,0.868421052631579
"209","217","14th & Upshur St NW","31406","1402621698134","38.942016","-77.032652","true","false","1365794820000","","false","true",4,34,"1402619184538",2014-06-12 20:26:24,38,0.105263157894737,0.894736842105263
"210","218","14th St & Colorado Ave NW","31407","1402621843527","38.956432","-77.032947","true","false","1365798900000","","false","true",7,31,"1402615175820",2014-06-12 19:19:35,38,0.184210526315789,0.815789473684211
"211","219","S Troy St & 26th St S","31056","1402621872303","38.847977","-77.075104","true","false","1366725840000","","false","true",21,29,"1402621388699",2014-06-12 21:03:08,50,0.42,0.58
"212","220","S Four Mile Run Dr & S Shirlington Rd","31057","1402621718228","38.8444","-77.085931","true","false","1366729200000","","false","true",18,33,"1402613582129",2014-06-12 18:53:02,51,0.352941176470588,0.647058823529412
"213","221","S Oakland St & Columbia Pike","31058","1402621834830","38.860789","-77.09586","true","false","1366735380000","","false","true",19,32,"1402521753449",2014-06-11 17:22:33,51,0.372549019607843,0.627450980392157
"214","222","S Abingdon St & 36th St S","31059","1402621761283","38.835213","-77.094295","true","false","1366739700000","","false","true",23,2,"1402617891389",2014-06-12 20:04:51,25,0.92,0.08
"215","223","S Arlington Mill Dr & Campbell Ave","31060","1402621690581","38.84232","-77.089555","true","false","1366802400000","","false","true",21,34,"1402613780506",2014-06-12 18:56:20,55,0.381818181818182,0.618181818181818
"216","224","S Kenmore & 24th St S","31061","1402621907647","38.848454","-77.084918","true","false","1366825140000","","false","true",20,31,"1402598888949",2014-06-12 14:48:08,51,0.392156862745098,0.607843137254902
"217","225","13th St & Eastern Ave","32006","1402621782931","38.987","-77.029417","true","false","1380292680000","","false","true",21,34,"1402616392911",2014-06-12 19:39:52,55,0.381818181818182,0.618181818181818
"218","226","Wisconsin Ave & O St NW","31312","1402621867363","38.90849","-77.063586","true","false","1366910820000","","false","true",7,31,"1402617711133",2014-06-12 20:01:51,38,0.184210526315789,0.815789473684211
"219","227","S George Mason Dr & 13th St S","31062","1402621862122","38.854691","-77.100555","true","false","1372694040000","","false","true",17,33,"1402616587156",2014-06-12 19:43:07,50,0.34,0.66
"220","228","Connecticut & Nebraska Ave NW","31310","1402621848427","38.955016","-77.069956","true","false","1366894140000","","false","true",5,3,"1402621605868",2014-06-12 21:06:45,8,0.625,0.375
"221","229","17th St & Massachusetts Ave NW","31267","1402621902547","38.908142","-77.038359","true","false","1367851920000","","false","true",12,10,"1402621902040",2014-06-12 21:11:42,22,0.545454545454545,0.454545454545455
"222","230","15th & Euclid St  NW","31117","1402621831132","38.92333","-77.0352","true","false","1367856780000","","false","true",6,13,"1402621588307",2014-06-12 21:06:28,19,0.315789473684211,0.684210526315789
"223","231","8th & East Capitol St NE","31629","1402621771786","38.889988","-76.995193","true","false","1368545580000","","false","true",3,2,"1402619834955",2014-06-12 20:37:14,5,0.6,0.4
"224","232","New Jersey Ave & R St NW","31509","1402621679376","38.912659","-77.017669","true","false","1368532680000","","false","true",4,29,"1402620931373",2014-06-12 20:55:31,33,0.121212121212121,0.878787878787879
"225","233","15th & East Capitol St NE","31630","1402621774311","38.889908","-76.983326","true","false","1368541260000","","false","true",23,13,"1402621531409",2014-06-12 21:05:31,36,0.638888888888889,0.361111111111111
"226","234","8th & F St NE","31631","1402621712210","38.897274","-76.994749","true","false","1368552540000","","false","true",7,1,"1402619537925",2014-06-12 20:32:17,8,0.875,0.125
"227","235","18th St & Rhode Island Ave NE","31510","1402621840996","38.927095","-76.978924","true","false","1369915500000","","false","true",3,31,"1402619908869",2014-06-12 20:38:28,34,0.0882352941176471,0.911764705882353
"228","236","15th & F St NE","31632","1402621818696","38.897195","-76.983575","true","false","1369928820000","","false","true",6,31,"1402620499038",2014-06-12 20:48:19,37,0.162162162162162,0.837837837837838
"229","237","12th & Irving St NE","31511","1402621681926","38.928644","-76.990955","true","false","1369923120000","","false","true",23,32,"1402611152093",2014-06-12 18:12:32,55,0.418181818181818,0.581818181818182
"230","238","34th St & Minnesota Ave SE","31709","1402621750765","38.884085","-76.957461","true","false","1370358840000","","false","true",18,33,"1402591097057",2014-06-12 12:38:17,51,0.352941176470588,0.647058823529412
"231","239","Alabama & MLK Ave SE","31800","1402621744738","38.843222","-76.999388","true","false","1370345160000","","false","true",19,32,"1402609976360",2014-06-12 17:52:56,51,0.372549019607843,0.627450980392157
"232","240","Pleasant St & MLK Ave SE","31807","1402621824547","38.863897","-76.990037","true","false","1370351820000","","false","true",21,29,"1402608698405",2014-06-12 17:31:38,50,0.42,0.58
"233","241","Neal St & Trinidad Ave NE","31512","1402621894805","38.903732","-76.987211","true","false","1371221640000","","false","true",20,35,"1402620927479",2014-06-12 20:55:27,55,0.363636363636364,0.636363636363636
"234","242","13th & U St NW","31268","1402621716765","38.916794","-77.029779","true","false","1371231240000","","false","true",15,1,"1402620750540",2014-06-12 20:52:30,16,0.9375,0.0625
"235","243","S George Mason Dr & Four Mile Run","31063","1402621869951","38.852248","-77.105022","true","false","1372690500000","","false","true",22,22,"1402616807504",2014-06-12 19:46:47,44,0.5,0.5
"236","244","S Stafford & 34th St S","31064","1402621698396","38.834108","-77.087323","true","false","1372701360000","","false","true",22,33,"1402597369356",2014-06-12 14:22:49,55,0.4,0.6
"237","245","N Pershing Dr & Wayne St","31065","1402621803732","38.880705","-77.08596","true","false","1372680300000","","false","true",17,34,"1402619134840",2014-06-12 20:25:34,51,0.333333333333333,0.666666666666667
"238","246","Columbia Pike & S Orme St","31066","1402621714531","38.867262","-77.072315","true","false","1372684620000","","false","true",21,29,"1402618780946",2014-06-12 20:19:40,50,0.42,0.58
"239","247","3rd St & Pennsylvania Ave SE","31269","1402621786457","38.887378","-77.001955","true","false","1374598740000","","false","true",23,32,"1402621785606",2014-06-12 21:09:45,55,0.418181818181818,0.581818181818182
"240","248","8th & D St NW","31270","1402621908168","38.894851","-77.02324","true","false","1374581640000","","false","true",4,29,"1402621906378",2014-06-12 21:11:46,33,0.121212121212121,0.878787878787879
"241","249","3rd & Elm St NW","31118","1402621892391","38.917622","-77.01597","true","false","1374589740000","","false","true",5,22,"1402621893345",2014-06-12 21:11:33,27,0.185185185185185,0.814814814814815
"242","250","Rhode Island Ave & V St NE","31513","1402621816283","38.918155","-77.004746","true","false","1375196700000","","false","true",6,31,"1402621574520",2014-06-12 21:06:14,37,0.162162162162162,0.837837837837838
"243","251","Constitution Ave & 2nd St NW/DOL","31271","1402621765105","38.892275","-77.013917","true","false","1375190280000","","false","true",20,15,"1402621522564",2014-06-12 21:05:22,35,0.571428571428571,0.428571428571429
"244","252","Washington & Independence Ave SW/HHS","31272","1402621830439","38.88731","-77.01397","true","false","1375445040000","","false","true",23,9,"1402621830005",2014-06-12 21:10:30,32,0.71875,0.28125
"245","253","Independence Ave & L'Enfant Plaza SW/DOE","31633","1402621823605","38.887397","-77.026154","true","false","1375789680000","","false","true",12,5,"1402621807975",2014-06-12 21:10:07,17,0.705882352941177,0.294117647058824
"246","254","Hamlin & 7th St NE","31514","1402621690869","38.927497","-76.997194","true","false","1376653440000","","false","true",3,31,"1402617901158",2014-06-12 20:05:01,34,0.0882352941176471,0.911764705882353
"247","255","Columbia Pike & S Walter Reed Dr","31067","1402621884969","38.862478","-77.086599","true","false","1377605340000","","false","true",3,13,"1402619773626",2014-06-12 20:36:13,16,0.1875,0.8125
"248","256","Columbia Pike & S Dinwiddie St / Arlington Mill Community Center","31068","1402621859117","38.856319","-77.11153","true","false","1377776460000","","false","true",5,22,"1402614518812",2014-06-12 19:08:38,27,0.185185185185185,0.814814814814815
"249","257","Pershing & N George Mason Dr","31069","1402621791392","38.871822","-77.107906","true","false","1377792000000","","false","true",17,34,"1402619858494",2014-06-12 20:37:38,51,0.333333333333333,0.666666666666667
"250","258","Fenton St & New York Ave ","32001","1402621775069","38.985404","-77.023082","true","false","1380292620000","","false","true",22,33,"1402607854868",2014-06-12 17:17:34,55,0.4,0.6
"251","259","Bethesda Ave & Arlington Blvd","32002","1402621891529","38.981103","-77.097426","true","false","1380292620000","","false","true",23,3,"1402621889825",2014-06-12 21:11:29,26,0.884615384615385,0.115384615384615
"252","260","Montgomery Ave & Waverly St ","32003","1402621799873","38.983838","-77.09221","true","false","1382208480000","","false","true",18,33,"1402619634616",2014-06-12 20:33:54,51,0.352941176470588,0.647058823529412
"253","261","Fallsgrove Blvd & Fallsgrove Dr","32004","1402621770103","39.096312","-77.192672","true","false","1380292620000","","false","true",22,4,"1402571761234",2014-06-12 07:16:01,26,0.846153846153846,0.153846153846154
"254","262","Traville Gateway Dr & Gudelsky Dr","32005","1402621776045","39.093783","-77.202501","true","false","1380292680000","","false","true",20,6,"1402551720743",2014-06-12 01:42:00,26,0.769230769230769,0.230769230769231
"255","263","Norfolk Ave & Fairmont St","32000","1402621888758","38.988562","-77.096539","true","false","1380292560000","","false","true",19,32,"1402620573754",2014-06-12 20:49:33,51,0.372549019607843,0.627450980392157
"256","264","E Montgomery Ave & Maryland Ave","32007","1402621755130","39.084125","-77.151291","true","false","1380292560000","","false","true",22,33,"1402596269439",2014-06-12 14:04:29,55,0.4,0.6
"257","265","Cordell & Norfolk Ave","32008","1402621903919","38.98954","-77.098029","true","false","1380292740000","","false","true",22,22,"1402611206199",2014-06-12 18:13:26,44,0.5,0.5
"258","266","Frederick Ave & Horners Ln","32009","1402621900700","39.094772","-77.145213","true","false","1380292740000","","false","true",20,31,"1402613327906",2014-06-12 18:48:47,51,0.392156862745098,0.607843137254902
"259","267","Philadelphia & Maple Ave","32010","1402621863813","38.98128","-77.011336","true","false","1380292740000","","false","true",22,33,"1402620883747",2014-06-12 20:54:43,55,0.4,0.6
"260","268","Maple & Ritchie Ave","32011","1402621722569","38.983627","-77.006311","true","false","1380292800000","","false","true",21,5,"1402618263216",2014-06-12 20:11:03,26,0.807692307692308,0.192307692307692
"261","269","Silver Spring Metro/Colesville Rd & Wayne Ave","32012","1402621730318","38.99521","-77.02918","true","false","1380292800000","","false","true",22,4,"1402616709539",2014-06-12 19:45:09,26,0.846153846153846,0.153846153846154
"262","270","Montgomery & East Ln","32013","1402621762769","38.983525","-77.095367","true","false","1380292800000","","false","true",20,31,"1402619793634",2014-06-12 20:36:33,51,0.392156862745098,0.607843137254902
"263","271","Friendship Hts Metro/Wisconsin Ave & Wisconsin Cir","32014","1402621669671","38.961763","-77.085998","true","false","1380292860000","","false","true",22,4,"1402611767583",2014-06-12 18:22:47,26,0.846153846153846,0.153846153846154
"264","272","14th & Belmont St NW","31119","1402621875431","38.921074","-77.031887","true","false","1380719160000","","false","true",12,6,"1402621874518",2014-06-12 21:11:14,18,0.666666666666667,0.333333333333333
"265","273","3rd & Tingey St SE","31634","1402621715565","38.87501","-77.0024","true","false","1380722700000","","false","true",19,7,"1402621208668",2014-06-12 21:00:08,26,0.730769230769231,0.269230769230769
"266","274","10th & Florida Ave NW","31120","1402621712979","38.920387","-77.025672","true","false","1381320720000","","false","true",9,22,"1402621711972",2014-06-12 21:08:31,31,0.290322580645161,0.709677419354839
"267","275","Potomac Ave & 8th St SE","31635","1402621764581","38.876737","-76.994468","true","false","1381333800000","","false","true",22,33,"1402613169988",2014-06-12 18:46:09,55,0.4,0.6
"268","276","Crabbs Branch Way & Redland Rd","32015","1402621750769","39.120045","-77.156985","true","false","1382100480000","","false","true",23,32,"1402609611309",2014-06-12 17:46:51,55,0.418181818181818,0.581818181818182
"269","277","Fallsgrove Dr & W Montgomery Ave","32016","1402621809059","39.099376","-77.188014","true","false","1382120580000","","false","true",22,33,"1402581260882",2014-06-12 09:54:20,55,0.4,0.6
"270","278","Monroe St & Monroe Pl","32017","1402621668845","39.083705","-77.149443","true","false","1383309240000","","false","true",23,32,"1402615124135",2014-06-12 19:18:44,55,0.418181818181818,0.581818181818182
"271","279","Needwood Rd & Eagles Head Ct","32018","1402621667922","39.123513","-77.15741","true","false","1382107020000","","false","true",21,34,"1402465088133",2014-06-11 01:38:08,55,0.381818181818182,0.618181818181818
"272","280","East West Hwy & Blair Mill Rd","32019","1402621690680","38.990249","-77.02935","true","false","1383148920000","","false","true",22,33,"1402601470448",2014-06-12 15:31:10,55,0.4,0.6
"273","281","Crabbs Branch Way & Calhoun Pl","32020","1402621807784","39.107709","-77.152072","true","false","1382111460000","","false","true",20,35,"1402613207956",2014-06-12 18:46:47,55,0.363636363636364,0.636363636363636
"274","282","47th & Elm St","32021","1402621787334","38.982456","-77.091991","true","false","1382208540000","","false","true",21,34,"1402620094718",2014-06-12 20:41:34,55,0.381818181818182,0.618181818181818
"275","283","Garland Ave & Walden Rd","32022","1402621773083","39.000578","-77.00149","true","false","1383059580000","","false","true",23,32,"1402609898225",2014-06-12 17:51:38,55,0.418181818181818,0.581818181818182
"276","284","Montgomery College/W Campus Dr & Mannakee St","32023","1402621677032","39.095661","-77.159048","true","false","1382199120000","","false","true",3,4,"1402614532969",2014-06-12 19:08:52,7,0.428571428571429,0.571428571428571
"277","285","Fenton St & Gist Ave","32024","1402621788971","38.989724","-77.023854","true","false","1383054960000","","false","true",21,29,"1402614357386",2014-06-12 19:05:57,50,0.42,0.58
"278","286","Carroll & Westmoreland Ave","32025","1402621829066","38.975","-77.01121","true","false","1383065460000","","false","true",20,35,"1402613965642",2014-06-12 18:59:25,55,0.363636363636364,0.636363636363636
"279","287","Carroll & Ethan Allen Ave","32026","1402621830660","38.977933","-77.006472","true","false","1383070440000","","false","true",21,34,"1402618715131",2014-06-12 20:18:35,55,0.381818181818182,0.618181818181818
"280","288","Battery Ln & Trolley Trail","32027","1402621854403","38.992375","-77.100104","true","false","1382712300000","","false","true",19,3,"1402617791009",2014-06-12 20:03:11,22,0.863636363636364,0.136363636363636
"281","289","Norfolk & Rugby Ave","32028","1402621840816","38.990639","-77.100239","true","false","1382715180000","","false","true",20,31,"1402620057668",2014-06-12 20:40:57,51,0.392156862745098,0.607843137254902
"282","290","Offutt Ln & Chevy Chase Dr","32029","1402621869433","38.977093","-77.094589","true","false","1382722080000","","false","true",22,22,"1402617659437",2014-06-12 20:00:59,44,0.5,0.5
"283","291","Broschart & Blackwell Rd","32030","1402621869459","39.102099","-77.200322","true","false","1382798640000","","false","true",20,35,"1402618652211",2014-06-12 20:17:32,55,0.363636363636364,0.636363636363636
"284","292","Taft St & E Gude Dr","32031","1402621848001","39.094103","-77.132954","true","false","1382804520000","","false","true",21,33,"1402594763048",2014-06-12 13:39:23,54,0.388888888888889,0.611111111111111
"285","293","Fleet St & Ritchie Pkwy","32032","1402621877859","39.076331","-77.141378","true","false","1382809500000","","false","true",21,34,"1402616828194",2014-06-12 19:47:08,55,0.381818181818182,0.618181818181818
"286","294","Piccard & W Gude Dr","32033","1402621778950","39.102212","-77.177091","true","false","1382795700000","","false","true",4,34,"1402576743677",2014-06-12 08:39:03,38,0.105263157894737,0.894736842105263
"287","295","Ripley & Bonifant St","32034","1402621902950","38.992679","-77.029457","true","false","1383141360000","","false","true",20,35,"1402614055924",2014-06-12 19:00:55,55,0.363636363636364,0.636363636363636
"288","296","Georgia Ave & Spring St","32035","1402621757459","38.999388","-77.031555","true","false","1383146520000","","false","true",21,29,"1402616434796",2014-06-12 19:40:34,50,0.42,0.58
"289","297","Fenton St & Ellsworth Dr ","32036","1402621836665","38.997033","-77.025608","true","false","1383135960000","","false","true",19,3,"1402616163075",2014-06-12 19:36:03,22,0.863636363636364,0.136363636363636
"290","298","King Farm Blvd & Pleasant Dr","32037","1402621875276","39.114688","-77.171487","true","false","1383323580000","","false","true",22,3,"1402589417875",2014-06-12 12:10:17,25,0.88,0.12
"291","299","King Farm Blvd & Piccard Dr","32038","1402621837345","39.110314","-77.182669","true","false","1383318120000","","false","true",22,33,"1402551781928",2014-06-12 01:43:01,55,0.4,0.6
"292","301","Calvert St & Woodley Pl NW","31121","1402621673064","38.923583","-77.050046","true","false","1383657120000","","false","true",18,8,"1402621429874",2014-06-12 21:03:49,26,0.692307692307692,0.307692307692308
"293","302","New Jersey Ave & N St NW/Dunbar HS","31636","1402621889093","38.90706","-77.015231","true","false","1383662880000","","false","true",9,22,"1402620923499",2014-06-12 20:55:23,31,0.290322580645161,0.709677419354839
"294","303","Nannie Helen Burroughs Ave & 49th St NE","31710","1402621850890","38.898536","-76.931862","true","false","1383923280000","","false","true",21,29,"1402551719166",2014-06-12 01:41:59,50,0.42,0.58
"295","304","Deanwood Rec Center","31711","1402621814701","38.908473","-76.933099","true","false","1383923280000","","false","true",22,33,"1402565892894",2014-06-12 05:38:12,55,0.4,0.6
"296","305","Hains Point/Buckeye & Ohio Dr SW","31273","1402621790724","38.878433","-77.03023","true","false","1383929160000","","false","true",20,4,"1402620099128",2014-06-12 20:41:39,24,0.833333333333333,0.166666666666667
"297","306","Arlington Blvd & Fillmore St","31070","1402621877306","38.873755","-77.089233","true","false","1384527780000","","false","true",19,32,"1402616608086",2014-06-12 19:43:28,51,0.372549019607843,0.627450980392157
"298","307","Long Bridge Park/Long Bridge Dr & 6th St S","31071","1402621791019","38.86646","-77.04826","true","false","1384520760000","","false","true",20,35,"1402615376846",2014-06-12 19:22:56,55,0.363636363636364,0.636363636363636
"299","308","Old Georgetown Rd & Southwick St","32039","1402621786904","38.999634","-77.109647","true","false","1384367940000","","false","true",20,6,"1402609593469",2014-06-12 17:46:33,26,0.769230769230769,0.230769230769231
"300","309","Friendship Blvd & Willard Ave","32040","1402621874464","38.96115","-77.088659","true","false","1384355760000","","false","true",22,4,"1402611445969",2014-06-12 18:17:25,26,0.846153846153846,0.153846153846154
"301","310","North Capitol St & G Pl NE","31637","1402621750734","38.899703","-77.008911","true","false","1386954360000","","false","true",20,6,"1402621245791",2014-06-12 21:00:45,26,0.769230769230769,0.230769230769231
"302","311","31st & Woodrow St S","31072","1402621867772","38.837666","-77.09482","true","false","1387298640000","","false","true",20,31,"1402617740000",2014-06-12 20:02:20,51,0.392156862745098,0.607843137254902
"303","312","Washington Blvd & Walter Reed Dr ","31073","1402621751146","38.873219","-77.082104","true","false","1387287180000","","false","true",21,34,"1402617165213",2014-06-12 19:52:45,55,0.381818181818182,0.618181818181818
"304","313","Thomas Jefferson Cmty Ctr / 2nd St S & Ivy","31074","1402621803058","38.869675","-77.093586","true","false","1386774900000","","false","true",21,29,"1402616578666",2014-06-12 19:42:58,50,0.42,0.58
"305","314","Connecticut Ave & Tilden St NW","31313","1402621847503","38.941154","-77.062036","true","false","1386954480000","","false","true",8,1,"1402620936176",2014-06-12 20:55:36,9,0.888888888888889,0.111111111111111
"306","315","Medical Center Dr & Key West Ave","32041","1402621670117","39.103091","-77.196442","true","false","1389273960000","","false","true",22,33,"1402581685568",2014-06-12 10:01:25,55,0.4,0.6
"307","316","Shady Grove Hospital","32042","1402621759787","39.097636","-77.196636","true","false","1389287040000","","false","true",22,4,"1402619586097",2014-06-12 20:33:06,26,0.846153846153846,0.153846153846154
"308","317","Veterans Pl & Pershing Dr ","32043","1402621835532","38.997445","-77.023894","true","false","1391876460000","","false","true",18,33,"1402533134917",2014-06-11 20:32:14,51,0.352941176470588,0.647058823529412
"309","318","Rockville Metro East","32044","1402621800634","39.085394","-77.145803","true","false","1393000800000","","false","true",18,35,"1402612925660",2014-06-12 18:42:05,53,0.339622641509434,0.660377358490566
"310","319","1st & H St NW","31638","1402621712855","38.900358","-77.012108","true","false","1392727500000","","false","true",12,6,"1402620143505",2014-06-12 20:42:23,18,0.666666666666667,0.333333333333333
"311","320","Fort Totten Metro","31515","1402621727348","38.952369","-77.002721","true","false","1392825840000","","false","true",6,32,"1402599792501",2014-06-12 15:03:12,38,0.157894736842105,0.842105263157895
"312","321","Takoma Metro","31408","1402621757895","38.975219","-77.016855","true","false","1392833400000","","false","true",21,5,"1402620654999",2014-06-12 20:50:54,26,0.807692307692308,0.192307692307692
"313","322","Rhode Island Ave Metro","31516","1402621731663","38.920682","-76.995876","true","false","1393259520000","","false","true",2,11,"1402613062943",2014-06-12 18:44:22,13,0.153846153846154,0.846153846153846
"314","323","Rolfe St & 9th St S","31075","1402621796641","38.866471","-77.076131","true","false","1394630640000","","false","true",21,29,"1402620431887",2014-06-12 20:47:11,50,0.42,0.58
"315","324","Shirlington Transit Center / S Quincy & Randolph St","31076","1402621897651","38.839912","-77.087083","true","false","1394637480000","","false","true",20,35,"1402599955236",2014-06-12 15:05:55,55,0.363636363636364,0.636363636363636
"316","325","Shady Grove Metro West","32045","1402621689522","39.119765","-77.166093","true","false","1397837820000","","false","true",22,4,"1402610777522",2014-06-12 18:06:17,26,0.846153846153846,0.153846153846154
"317","326","River Rd & Landy Ln","32046","1402621849716","38.964992","-77.103381","true","false","1396972380000","","false","true",22,4,"1402613325786",2014-06-12 18:48:45,26,0.846153846153846,0.153846153846154
"318","327","Rockville Metro West","32047","1402621875176","39.084379","-77.146866","true","false","1397847900000","","false","true",21,5,"1402617225122",2014-06-12 19:53:45,26,0.807692307692308,0.192307692307692
"319","328","Bethesda Metro","32048","1402621769929","38.984691","-77.094537","true","false","1398786060000","","false","true",18,34,"1402617268439",2014-06-12 19:54:28,52,0.346153846153846,0.653846153846154
"320","329","Iwo Jima Memorial/N Meade & 14th St N","31077","1402621771620","38.88992","-77.071301","true","false","1402585680000","","false","true",21,5,"1402610084319",2014-06-12 17:54:44,26,0.807692307692308,0.192307692307692
