"","id","name","terminalName","lastCommWithServer","lat","long","installed","locked","installDate","removalDate","temporary","public","nbBikes","nbEmptyDocks","latestUpdateTime","date","total","percentBikes","percentDocks"
"1","1","20th & Bell St","31000","1404320295557","38.8561","-77.0512","true","false","1316059200000","","false","true",22,26,"1404319811311",2014-07-02 12:50:11,48,0.458333333333333,0.541666666666667
"2","2","18th & Eads St.","31001","1404320139710","38.85725","-77.05332","true","false","1284989400000","","false","true",18,28,"1404306967989",2014-07-02 09:16:07,46,0.391304347826087,0.608695652173913
"3","3","20th & Crystal Dr","31002","1404320253425","38.8564","-77.0492","true","false","1284464580000","","false","true",4,24,"1404319769400",2014-07-02 12:49:29,28,0.142857142857143,0.857142857142857
"4","4","15th & Crystal Dr","31003","1404320346561","38.86017","-77.049593","true","false","1284464880000","","false","true",23,25,"1404320345498",2014-07-02 12:59:05,48,0.479166666666667,0.520833333333333
"5","5","Aurora Hills Community Ctr/18th & Hayes St","31004","1404320168041","38.857866","-77.05949","true","false","1284464880000","","false","true",21,27,"1404316415189",2014-07-02 11:53:35,48,0.4375,0.5625
"6","6","12th & Hayes St /  Pentagon City Metro","31005","1404320202539","38.862303","-77.059936","true","false","1284464940000","","false","true",24,5,"1404316583211",2014-07-02 11:56:23,29,0.827586206896552,0.172413793103448
"7","7","S Joyce & Army Navy Dr","31006","1404320312222","38.8637","-77.0633","true","false","1284464940000","","false","true",22,26,"1404318675256",2014-07-02 12:31:15,48,0.458333333333333,0.541666666666667
"8","8","Crystal City Metro / 18th & Bell St","31007","1404320206503","38.8573","-77.0511","true","false","1284465000000","","false","true",23,5,"1404318033556",2014-07-02 12:20:33,28,0.821428571428571,0.178571428571429
"9","9","12th & Army Navy Dr","31008","1404320233765","38.8629","-77.0528","true","false","1284465000000","","false","true",25,21,"1404306760139",2014-07-02 09:12:40,46,0.543478260869565,0.456521739130435
"10","10","27th & Crystal Dr","31009","1404320281628","38.848441","-77.051516","true","false","1284465060000","","false","true",22,7,"1404319556622",2014-07-02 12:45:56,29,0.758620689655172,0.241379310344828
"11","11","S Glebe & Potomac Ave","31010","1404320241788","38.8426","-77.0502","true","false","1284465120000","","false","true",25,21,"1404320240867",2014-07-02 12:57:20,46,0.543478260869565,0.456521739130435
"12","12","23rd & Crystal Dr","31011","1404320296687","38.8533","-77.0498","true","false","1284465120000","","false","true",4,26,"1404319088611",2014-07-02 12:38:08,30,0.133333333333333,0.866666666666667
"13","13","26th & S Clark St","31012","1404320163312","38.850688","-77.05152","true","false","1284465300000","","false","true",21,27,"1404310060830",2014-07-02 10:07:40,48,0.4375,0.5625
"14","14","19th St & Pennsylvania Ave NW","31100","1404320251423","38.9003","-77.0429","true","false","1284465360000","","false","true",4,24,"1404320249976",2014-07-02 12:57:29,28,0.142857142857143,0.857142857142857
"15","15","14th & V St NW","31101","1404320117761","38.9176","-77.0321","true","false","1284465420000","","false","true",2,18,"1404320100258",2014-07-02 12:55:00,20,0.1,0.9
"16","16","11th & Kenyon St NW","31102","1404320289492","38.929464","-77.027822","true","false","1286539080000","","false","true",12,17,"1404320287707",2014-07-02 12:58:07,29,0.413793103448276,0.586206896551724
"17","17","16th & Harvard St NW","31103","1404320158982","38.926088","-77.036536","true","false","1284465480000","","false","true",26,17,"1404318468072",2014-07-02 12:27:48,43,0.604651162790698,0.395348837209302
"18","18","Adams Mill & Columbia Rd NW","31104","1404320183638","38.922925","-77.042581","true","false","1284465540000","","false","true",23,28,"1404319940662",2014-07-02 12:52:20,51,0.450980392156863,0.549019607843137
"19","19","14th & Harvard St NW","31105","1404320298707","38.9268","-77.0322","true","false","1284465540000","","false","true",23,5,"1404317232826",2014-07-02 12:07:12,28,0.821428571428571,0.178571428571429
"20","20","Calvert & Biltmore St NW","31106","1404320301562","38.923203","-77.047637","true","false","1284465600000","","false","true",22,11,"1404318587205",2014-07-02 12:29:47,33,0.666666666666667,0.333333333333333
"21","21","Lamont & Mt Pleasant NW","31107","1404320197177","38.9319","-77.0388","true","false","1284465600000","","false","true",23,6,"1404318747330",2014-07-02 12:32:27,29,0.793103448275862,0.206896551724138
"22","22","4th & M St SW","31108","1404320345376","38.8767","-77.0178","true","false","1284465660000","","false","true",25,8,"1404319465710",2014-07-02 12:44:25,33,0.757575757575758,0.242424242424242
"23","23","15th & P St NW","31201","1404320194462","38.90985","-77.034438","true","false","1284465660000","","false","true",26,29,"1404320193688",2014-07-02 12:56:33,55,0.472727272727273,0.527272727272727
"24","24","14th & R St NW","31202","1404320193781","38.912682","-77.031681","true","false","1284465720000","","false","true",2,6,"1404319468517",2014-07-02 12:44:28,8,0.25,0.75
"25","25","14th & Rhode Island Ave NW","31203","1404320150542","38.9086","-77.0323","true","false","1284465780000","","false","true",2,15,"1404320043448",2014-07-02 12:54:03,17,0.117647058823529,0.882352941176471
"26","26","20th & E St NW","31204","1404320128050","38.8963","-77.045","true","false","1284465840000","","false","true",5,13,"1404317955081",2014-07-02 12:19:15,18,0.277777777777778,0.722222222222222
"27","27","21st & I St NW","31205","1404320315131","38.9008","-77.047","true","false","1283861040000","","false","true",16,27,"1404320314117",2014-07-02 12:58:34,43,0.372093023255814,0.627906976744186
"28","28","Georgia & New Hampshire Ave NW","31400","1404320277634","38.936043","-77.024649","true","false","1284465900000","","false","true",21,4,"1404316157686",2014-07-02 11:49:17,25,0.84,0.16
"29","29","14th St & Spring Rd NW","31401","1404320241242","38.9375","-77.0328","true","false","1284465960000","","false","true",21,27,"1404319617184",2014-07-02 12:46:57,48,0.4375,0.5625
"30","30","John McCormack Dr & Michigan Ave NE","31502","1404320215725","38.9346","-76.9955","true","false","1284465960000","","false","true",23,25,"1404318526719",2014-07-02 12:28:46,48,0.479166666666667,0.520833333333333
"31","31","5th & K St NW","31600","1404320341234","38.90304","-77.019027","true","false","1284466020000","","false","true",1,11,"1404320098782",2014-07-02 12:54:58,12,0.0833333333333333,0.916666666666667
"32","32","19th & East Capitol St SE","31601","1404320311955","38.8896","-76.9769","true","false","1284466020000","","false","true",25,27,"1404316074859",2014-07-02 11:47:54,52,0.480769230769231,0.519230769230769
"33","33","Park Rd & Holmead Pl NW","31602","1404320317944","38.9308","-77.0315","true","false","1284466080000","","false","true",12,10,"1404320075203",2014-07-02 12:54:35,22,0.545454545454545,0.454545454545455
"34","34","Good Hope & Naylor Rd SE","31700","1404320219123","38.8601","-76.9672","true","false","1284466140000","","false","true",21,27,"1404301131170",2014-07-02 07:38:51,48,0.4375,0.5625
"35","35","Connecticut Ave & Newark St NW / Cleveland Park","31305","1404320197455","38.934267","-77.057979","true","false","1289241840000","","false","true",12,27,"1404319129668",2014-07-02 12:38:49,39,0.307692307692308,0.692307692307692
"36","36","Randle Circle & Minnesota Ave SE","31702","1404320259355","38.878","-76.9607","true","false","1284466200000","","false","true",22,26,"1404277077156",2014-07-02 00:57:57,48,0.458333333333333,0.541666666666667
"37","37","Minnesota Ave Metro/DOES","31703","1404320202319","38.897063","-76.947446","true","false","1284466200000","","false","true",24,24,"1404277084246",2014-07-02 00:58:04,48,0.5,0.5
"38","38","Nannie Helen Burroughs & Minnesota Ave NE","31704","1404320120924","38.901385","-76.941877","true","false","1386766320000","1298396940000","false","true",26,13,"1404303674286",2014-07-02 08:21:14,39,0.666666666666667,0.333333333333333
"39","39","Anacostia Metro","31801","1404320209395","38.862669","-76.994637","true","false","1284466260000","","false","true",12,29,"1404310545707",2014-07-02 10:15:45,41,0.292682926829268,0.707317073170732
"40","40","Good Hope Rd & MLK Ave SE","31802","1404320285961","38.867373","-76.988039","true","false","1305288720000","","false","true",3,2,"1404307737868",2014-07-02 09:28:57,5,0.6,0.4
"41","41","19th & E Street NW","31206","1404320223127","38.8952","-77.0436","true","false","1284545040000","","false","true",25,21,"1404320222385",2014-07-02 12:57:02,46,0.543478260869565,0.456521739130435
"42","42","4th St & Rhode Island Ave NE","31500","1404320285090","38.919488","-77.000624","true","false","1289970000000","","false","true",18,28,"1404317954732",2014-07-02 12:19:14,46,0.391304347826087,0.608695652173913
"43","43","10th & U St NW","31111","1404320134328","38.9172","-77.0259","true","false","1285822380000","","false","true",22,29,"1404320133469",2014-07-02 12:55:33,51,0.431372549019608,0.568627450980392
"44","44","Georgia Ave and Fairmont St NW","31207","1404320113259","38.9249","-77.0222","true","false","1285041600000","","false","true",1,4,"1404317443368",2014-07-02 12:10:43,5,0.2,0.8
"45","45","1st & N St  SE","31209","1404320212564","38.8743","-77.0057","true","false","1285041600000","","false","true",4,20,"1404310671580",2014-07-02 10:17:51,24,0.166666666666667,0.833333333333333
"46","46","20th St & Florida Ave NW","31110","1404320128241","38.9154","-77.0446","true","false","1285217520000","","false","true",12,6,"1404320126980",2014-07-02 12:55:26,18,0.666666666666667,0.333333333333333
"47","47","7th & T St NW","31109","1404320290641","38.9155","-77.0222","true","false","1285735680000","","false","true",22,3,"1404320047982",2014-07-02 12:54:07,25,0.88,0.12
"48","48","23rd & Eads St","31013","1404320290340","38.853613","-77.053535","true","false","1287562620000","","false","true",24,24,"1404301738961",2014-07-02 07:48:58,48,0.5,0.5
"49","49","M St & New Jersey Ave SE","31208","1404320134164","38.8763","-77.0037","true","false","1285041600000","","false","true",5,25,"1404320133830",2014-07-02 12:55:33,30,0.166666666666667,0.833333333333333
"50","51","Massachusetts Ave & Dupont Circle NW","31200","1404320314964","38.9101","-77.0444","true","false","1284523200000","","false","true",14,10,"1404320312710",2014-07-02 12:58:32,24,0.583333333333333,0.416666666666667
"51","52","1st & M St NE","31603","1404320141140","38.9057","-77.0056","true","false","1287115200000","","false","true",1,8,"1404319174275",2014-07-02 12:39:34,9,0.111111111111111,0.888888888888889
"52","53","21st & M St NW","31212","1404320247646","38.90534","-77.046774","true","false","1285041600000","","false","true",23,4,"1404320246136",2014-07-02 12:57:26,27,0.851851851851852,0.148148148148148
"53","54","17th & K St NW","31213","1404320204843","38.90276","-77.03863","true","false","1306236960000","","false","true",23,6,"1404320203955",2014-07-02 12:56:43,29,0.793103448275862,0.206896551724138
"54","55","3rd & H St NW","31604","1404320135755","38.899408","-77.015289","true","false","1287028800000","","false","true",1,8,"1404315098731",2014-07-02 11:31:38,9,0.111111111111111,0.888888888888889
"55","56","3rd & D St SE","31605","1404320146883","38.8851","-77.0023","true","false","1287201600000","","false","true",2,3,"1404319904683",2014-07-02 12:51:44,5,0.4,0.6
"56","57","Potomac & Pennsylvania Ave SE","31606","1404320175694","38.8803","-76.9862","true","false","1287460800000","","false","true",21,3,"1404317705808",2014-07-02 12:15:05,24,0.875,0.125
"57","58","14th & D St SE","31607","1404320186796","38.884","-76.9861","true","false","1287374400000","","false","true",21,4,"1404312707733",2014-07-02 10:51:47,25,0.84,0.16
"58","59","17th & Corcoran St NW","31214","1404320289943","38.9121","-77.0387","true","false","1294078980000","","false","true",18,9,"1404320047609",2014-07-02 12:54:07,27,0.666666666666667,0.333333333333333
"59","60","Van Ness Metro / UDC","31300","1404320183597","38.944551","-77.063896","true","false","1289624400000","","false","true",24,28,"1404318734328",2014-07-02 12:32:14,52,0.461538461538462,0.538461538461538
"60","61","Florida Ave & R St NW","31503","1404320123344","38.9126","-77.0135","true","false","1290056400000","","false","true",2,6,"1404320121579",2014-07-02 12:55:21,8,0.25,0.75
"61","62","8th & Eye St SE / Barracks Row","31608","1404320225602","38.8792","-76.9953","true","false","1287374400000","","false","true",24,24,"1404319500349",2014-07-02 12:45:00,48,0.5,0.5
"62","63","Ward Circle / American University","31301","1404320310224","38.938736","-77.087171","true","false","1289538000000","","false","true",4,24,"1404320067190",2014-07-02 12:54:27,28,0.142857142857143,0.857142857142857
"63","64","Idaho Ave & Newark St NW [on 2nd District patio]","31302","1404320246116","38.934751","-77.074647","true","false","1289970000000","","false","true",25,27,"1404316804711",2014-07-02 12:00:04,52,0.480769230769231,0.519230769230769
"64","65","14th St Heights / 14th & Crittenden St NW","31402","1404320194286","38.947774","-77.032818","true","false","1289970000000","","false","true",18,28,"1404307944565",2014-07-02 09:32:24,46,0.391304347826087,0.608695652173913
"65","66","Anacostia Library","31804","1404320140689","38.865784","-76.9784","true","false","1288584000000","","false","true",22,26,"1404318262553",2014-07-02 12:24:22,48,0.458333333333333,0.541666666666667
"66","67","Pennsylvania & Minnesota Ave SE","31805","1404320268271","38.873057","-76.971015","true","false","1288584000000","","false","true",26,13,"1404302010876",2014-07-02 07:53:30,39,0.666666666666667,0.333333333333333
"67","68","Eastern Market / 7th & North Carolina Ave SE","31610","1404320139694","38.886952","-76.996806","true","false","1282363200000","","false","true",2,5,"1404315543487",2014-07-02 11:39:03,7,0.285714285714286,0.714285714285714
"68","69","McPherson Square / 14th & H St NW","31216","1404320216615","38.899641","-77.032005","true","false","1284436800000","","false","true",10,13,"1404319732985",2014-07-02 12:48:52,23,0.434782608695652,0.565217391304348
"69","70","Benning Branch Library","31705","1404320134301","38.894","-76.947974","true","false","1288584000000","","false","true",22,25,"1404277092948",2014-07-02 00:58:12,47,0.468085106382979,0.531914893617021
"70","71","USDA / 12th & Independence Ave SW","31217","1404320191107","38.887237","-77.028226","true","false","1286297580000","","false","true",20,26,"1404319223573",2014-07-02 12:40:23,46,0.434782608695652,0.565217391304348
"71","72","Georgetown Harbor / 30th St NW","31215","1404320326693","38.9022212","-77.059219","true","false","1286300580000","","false","true",4,28,"1404320084181",2014-07-02 12:54:44,32,0.125,0.875
"72","73","12th & Newton St NE","31501","1404320216987","38.933668","-76.991016","true","false","1286306220000","","false","true",23,25,"1404316828209",2014-07-02 12:00:28,48,0.479166666666667,0.520833333333333
"73","74","US Dept of State / Virginia Ave & 21st St NW","31220","1404320137031","38.894919","-77.046587","true","false","1286661900000","","false","true",3,25,"1404320135191",2014-07-02 12:55:35,28,0.107142857142857,0.892857142857143
"74","75","L'Enfant Plaza / 7th & C St SW","31218","1404320211837","38.886266","-77.022241","true","false","1286410980000","","false","true",7,2,"1404319003884",2014-07-02 12:36:43,9,0.777777777777778,0.222222222222222
"75","76","10th St & Constitution Ave NW","31219","1404320238154","38.893028","-77.026013","true","false","1286497620000","","false","true",16,25,"1404319995722",2014-07-02 12:53:15,41,0.390243902439024,0.609756097560976
"76","77","Kennedy Center","31211","1404320234445","38.895184","-77.054845","true","false","1286325060000","","false","true",3,1,"1404319267048",2014-07-02 12:41:07,4,0.75,0.25
"77","78","Eastern Market Metro / Pennsylvania Ave & 7th St SE","31613","1404320274102","38.884","-76.995397","true","false","1286411820000","","false","true",3,26,"1404320032575",2014-07-02 12:53:52,29,0.103448275862069,0.896551724137931
"78","79","18th & M St NW","31221","1404320207846","38.904742","-77.041606","true","false","1286458140000","","false","true",26,29,"1404318999741",2014-07-02 12:36:39,55,0.472727272727273,0.527272727272727
"79","80","Tenleytown / Wisconsin Ave & Albemarle St NW","31303","1404320165832","38.947607","-77.079382","true","false","1287150300000","","false","true",26,26,"1404319682810",2014-07-02 12:48:02,52,0.5,0.5
"80","81","13th & H St NE","31611","1404320275462","38.9003","-76.9882","true","false","1286547000000","","false","true",21,16,"1404319790951",2014-07-02 12:49:50,37,0.567567567567568,0.432432432432432
"81","82","5th & F St NW","31620","1404320238378","38.897222","-77.019347","true","false","1286492280000","","false","true",21,19,"1404318064167",2014-07-02 12:21:04,40,0.525,0.475
"82","83","New York Ave & 15th St NW","31222","1404320275019","38.8991","-77.0337","true","false","1286631960000","","false","true",7,2,"1404320275467",2014-07-02 12:57:55,9,0.777777777777778,0.222222222222222
"83","84","Convention Center / 7th & M St NW","31223","1404320133430","38.90572","-77.022264","true","false","1286631960000","","false","true",2,11,"1404317760390",2014-07-02 12:16:00,13,0.153846153846154,0.846153846153846
"84","85","Harvard St & Adams Mill Rd NW","31112","1404320332614","38.927872","-77.043358","true","false","1294164840000","","false","true",24,28,"1404317283134",2014-07-02 12:08:03,52,0.461538461538462,0.538461538461538
"85","86","19th & L St NW","31224","1404320155736","38.903407","-77.043648","true","false","1287182880000","","false","true",8,1,"1404320154790",2014-07-02 12:55:54,9,0.888888888888889,0.111111111111111
"86","87","C & O Canal & Wisconsin Ave NW","31225","1404320148280","38.90375","-77.06269","true","false","1287460800000","","false","true",3,4,"1404318381284",2014-07-02 12:26:21,7,0.428571428571429,0.571428571428571
"87","88","6th & Water St SW / SW Waterfront","31609","1404320254422","38.87675","-77.02127","true","false","1287720000000","","false","true",24,3,"1404313286438",2014-07-02 11:01:26,27,0.888888888888889,0.111111111111111
"88","89","D St & Maryland Ave NE","31612","1404320130443","38.894758","-76.997114","true","false","1330094460000","","false","true",24,9,"1404319646658",2014-07-02 12:47:26,33,0.727272727272727,0.272727272727273
"89","90","34th St & Wisconsin Ave NW","31226","1404320298194","38.916442","-77.0682","true","false","1287182760000","","false","true",23,25,"1404318792988",2014-07-02 12:33:12,48,0.479166666666667,0.520833333333333
"90","91","13th St & New York Ave NW","31227","1404320198211","38.900283","-77.029822","true","false","1287416880000","","false","true",10,26,"1404320195865",2014-07-02 12:56:35,36,0.277777777777778,0.722222222222222
"91","92","8th & H St NW","31228","1404320284215","38.8997","-77.023086","true","false","1287115200000","","false","true",14,5,"1404320283159",2014-07-02 12:58:03,19,0.736842105263158,0.263157894736842
"92","93","10th & Monroe St NE","31504","1404320213821","38.932514","-76.992889","true","false","1287096120000","","false","true",23,25,"1404317738540",2014-07-02 12:15:38,48,0.479166666666667,0.520833333333333
"93","94","Eckington Pl & Q St NE","31505","1404320280919","38.910972","-77.00495","true","false","1287096120000","","false","true",21,27,"1404317678653",2014-07-02 12:14:38,48,0.4375,0.5625
"94","95","6th & H St NE","31615","1404320265915","38.900384","-76.99831","true","false","1323696720000","","false","true",6,3,"1404314608918",2014-07-02 11:23:28,9,0.666666666666667,0.333333333333333
"95","96","3rd & H St NE","31616","1404320120492","38.900412","-77.001949","true","false","1287096060000","","false","true",12,9,"1404320119111",2014-07-02 12:55:19,21,0.571428571428571,0.428571428571429
"96","97","Bladensburg Rd & Benning Rd NE","31617","1404320154315","38.900413","-76.982872","true","false","1288200360000","","false","true",24,28,"1404318856567",2014-07-02 12:34:16,52,0.461538461538462,0.538461538461538
"97","98","4th & East Capitol St NE","31618","1404320308311","38.889955","-77.000349","true","false","1287028800000","","false","true",24,24,"1404319824058",2014-07-02 12:50:24,48,0.5,0.5
"98","99","Lincoln Park / 13th & East Capitol St NE ","31619","1404320323192","38.890461","-76.988355","true","false","1288038900000","","false","true",12,16,"1404319355695",2014-07-02 12:42:35,28,0.428571428571429,0.571428571428571
"99","100","Branch & Pennsylvania Ave SE","31701","1404320329119","38.8692","-76.9599","true","false","1309008600000","","false","true",24,24,"1404277069839",2014-07-02 00:57:49,48,0.5,0.5
"100","101","13th & D St NE","31622","1404320185935","38.894832","-76.987633","true","false","1288114080000","","false","true",2,22,"1404317768648",2014-07-02 12:16:08,24,0.0833333333333333,0.916666666666667
"101","102","New Hampshire Ave & T St NW","31229","1404320334828","38.91554","-77.03818","true","false","1287178020000","","false","true",18,14,"1404320332428",2014-07-02 12:58:52,32,0.5625,0.4375
"102","103","Metro Center / 12th & G St NW","31230","1404320331169","38.898364","-77.027869","true","false","1305259200000","","false","true",17,13,"1404320089400",2014-07-02 12:54:49,30,0.566666666666667,0.433333333333333
"103","104","14th & D St NW / Ronald Reagan Building","31231","1404320228435","38.894514","-77.031617","true","false","1303306260000","","false","true",9,29,"1404319986329",2014-07-02 12:53:06,38,0.236842105263158,0.763157894736842
"104","105","7th & F St NW / National Portrait Gallery","31232","1404320271641","38.897324","-77.022322","true","false","1304108940000","","false","true",11,1,"1404320271172",2014-07-02 12:57:51,12,0.916666666666667,0.0833333333333333
"105","106","17th & K St NW / Farragut Square","31233","1404320219672","38.902061","-77.038322","true","false","1304022480000","","false","true",8,5,"1404319494137",2014-07-02 12:44:54,13,0.615384615384615,0.384615384615385
"106","107","20th & O St NW / Dupont South","31234","1404320139009","38.908905","-77.04478","true","false","1328850000000","","false","true",25,4,"1404319655376",2014-07-02 12:47:35,29,0.862068965517241,0.137931034482759
"107","108","4th & D St NW / Judiciary Square","31621","1404320187402","38.895344","-77.016106","true","false","1304481600000","","false","true",25,27,"1404318255228",2014-07-02 12:24:15,52,0.480769230769231,0.519230769230769
"108","109","19th St & Constitution Ave NW","31235","1404320252711","38.8923","-77.0436","true","false","1287607080000","","false","true",25,18,"1404319559330",2014-07-02 12:45:59,43,0.581395348837209,0.418604651162791
"109","110","37th & O St NW / Georgetown University","31236","1404320311546","38.90774","-77.071652","true","false","1288037580000","","false","true",4,5,"1404320309689",2014-07-02 12:58:29,9,0.444444444444444,0.555555555555556
"110","111","11th & H St NE","31614","1404320205386","38.899983","-76.991383","true","false","1323666000000","","false","true",26,28,"1404319962945",2014-07-02 12:52:42,54,0.481481481481481,0.518518518518518
"111","112","25th St & Pennsylvania Ave NW","31237","1404320291844","38.903827","-77.053485","true","false","1288551000000","","false","true",26,25,"1404320290540",2014-07-02 12:58:10,51,0.509803921568627,0.490196078431373
"112","113","Columbus Circle / Union Station","31623","1404320219756","38.89696","-77.00493","true","false","1285905600000","","false","true",24,23,"1404319977482",2014-07-02 12:52:57,47,0.51063829787234,0.48936170212766
"113","114","North Capitol St & F St NW","31624","1404320335345","38.897446","-77.009888","true","false","1288122720000","","false","true",18,14,"1404320055705",2014-07-02 12:54:15,32,0.5625,0.4375
"114","115","11th & M St NW","31266","1404320182881","38.905607","-77.027137","true","false","1364995680000","","false","true",12,10,"1404318975070",2014-07-02 12:36:15,22,0.545454545454545,0.454545454545455
"115","116","36th & Calvert St NW / Glover Park","31304","1404320153191","38.922581","-77.070334","true","false","1289236620000","","false","true",23,28,"1404319395059",2014-07-02 12:43:15,51,0.450980392156863,0.549019607843137
"116","117","14th & G St NW","31238","1404320180426","38.898069","-77.031823","true","false","1289237340000","","false","true",9,27,"1404319938320",2014-07-02 12:52:18,36,0.25,0.75
"117","118","Potomac Ave & 35th St S","31052","1404320117035","38.844015","-77.050537","true","false","1351092960000","","false","true",21,12,"1404309384114",2014-07-02 09:56:24,33,0.636363636363636,0.363636363636364
"118","124","Ohio Dr & West Basin Dr SW / MLK & FDR Memorials","31240","1404320339282","38.88412","-77.04657","true","false","1331904960000","","false","true",1,16,"1404311770763",2014-07-02 10:36:10,17,0.0588235294117647,0.941176470588235
"119","125","11th & F St NW","31262","1404320120688","38.897857","-77.026975","true","false","1359981840000","","false","true",6,13,"1404314132912",2014-07-02 11:15:32,19,0.315789473684211,0.684210526315789
"120","126","23rd & E St NW ","31260","1404320250980","38.896104","-77.049882","true","false","1359652440000","","false","true",5,27,"1404320249413",2014-07-02 12:57:29,32,0.15625,0.84375
"121","127","Lynn & 19th St North","31014","1404320345885","38.897315","-77.070993","true","false","1302957060000","","false","true",21,5,"1404320345440",2014-07-02 12:59:05,26,0.807692307692308,0.192307692307692
"122","128","Rosslyn Metro / Wilson Blvd & Ft Myer Dr","31015","1404320158672","38.8946","-77.072305","true","false","1302957120000","","false","true",23,29,"1404320157591",2014-07-02 12:55:57,52,0.442307692307692,0.557692307692308
"123","129","Clarendon Blvd & Pierce St","31016","1404320132125","38.893648","-77.076701","true","false","1302957960000","","false","true",23,25,"1404319647669",2014-07-02 12:47:27,48,0.479166666666667,0.520833333333333
"124","130","Court House Metro / Wilson Blvd & N Uhle St","31017","1404320266375","38.891696","-77.0846","true","false","1320933600000","","false","true",12,6,"1404318627736",2014-07-02 12:30:27,18,0.666666666666667,0.333333333333333
"125","131","N Rhodes & 16th St N","31018","1404320240029","38.892164","-77.079375","true","false","1302963480000","","false","true",2,3,"1404311415939",2014-07-02 10:30:15,5,0.4,0.6
"126","132","Fairfax Village","31706","1404320235080","38.86559","-76.952103","true","false","1311771600000","","false","true",24,28,"1404277074154",2014-07-02 00:57:54,52,0.461538461538462,0.538461538461538
"127","133","21st St & Constitution Ave NW","31261","1404320225041","38.892459","-77.046567","true","false","1359639120000","","false","true",26,25,"1404319741300",2014-07-02 12:49:01,51,0.509803921568627,0.490196078431373
"128","134","Wilson Blvd & N Edgewood St","31019","1404320124132","38.889","-77.0925","true","false","1321015980000","","false","true",23,29,"1404317314078",2014-07-02 12:08:34,52,0.442307692307692,0.557692307692308
"129","135","Columbia Rd & Belmont St NW","31113","1404320134667","38.920669","-77.04368","true","false","1321625100000","","false","true",26,3,"1404318502675",2014-07-02 12:28:22,29,0.896551724137931,0.103448275862069
"130","136","17th & Rhode Island Ave NW","31239","1404320135339","38.906602","-77.038785","true","false","1321639800000","","false","true",24,8,"1404319165975",2014-07-02 12:39:25,32,0.75,0.25
"131","137","Thomas Circle","31241","1404320158452","38.9059","-77.0325","true","false","1321714320000","","false","true",13,6,"1404319395002",2014-07-02 12:43:15,19,0.684210526315789,0.315789473684211
"132","138","Wilson Blvd & Franklin Rd","31020","1404320225995","38.8904","-77.0889","true","false","1322715600000","","false","true",18,28,"1404319500471",2014-07-02 12:45:00,46,0.391304347826087,0.608695652173913
"133","139","Clarendon Blvd & N Fillmore St","31021","1404320112673","38.8881","-77.09308","true","false","1321981080000","","false","true",21,4,"1404318395299",2014-07-02 12:26:35,25,0.84,0.16
"134","140","Clarendon Metro / Wilson Blvd & N Highland St","31022","1404320300192","38.88786","-77.094875","true","false","1321983480000","","false","true",12,8,"1404319574879",2014-07-02 12:46:14,20,0.6,0.4
"135","141","18th St & Pennsylvania Ave NW","31242","1404320129833","38.89968","-77.041539","true","false","1322571600000","","false","true",7,2,"1404320128944",2014-07-02 12:55:28,9,0.777777777777778,0.222222222222222
"136","142","Maryland & Independence Ave SW","31243","1404320226839","38.887299","-77.018939","true","false","1327669020000","","false","true",19,26,"1404320225752",2014-07-02 12:57:05,45,0.422222222222222,0.577777777777778
"137","143","4th & E St SW","31244","1404320284495","38.88412","-77.017445","true","false","1322756880000","","false","true",5,26,"1404319560073",2014-07-02 12:46:00,31,0.161290322580645,0.838709677419355
"138","144","3rd & G St SE","31625","1404320276202","38.881185","-77.001828","true","false","1322661660000","","false","true",12,10,"1404320034128",2014-07-02 12:53:54,22,0.545454545454545,0.454545454545455
"139","145","7th & R St NW / Shaw Library","31245","1404320170591","38.912719","-77.022155","true","false","1322583120000","","false","true",25,27,"1404318721325",2014-07-02 12:32:01,52,0.480769230769231,0.519230769230769
"140","146","9th & Upshur St NW","31404","1404320343697","38.9418","-77.0251","true","false","1323194880000","","false","true",21,4,"1404317687860",2014-07-02 12:14:47,25,0.84,0.16
"141","147","1st & Rhode Island Ave NW","31506","1404320145073","38.915417","-77.012289","true","false","1323178380000","","false","true",26,26,"1404318321182",2014-07-02 12:25:21,52,0.5,0.5
"142","148","Columbia Rd & Georgia Ave NW","31115","1404320125859","38.928156","-77.02344","true","false","1323234000000","","false","true",1,12,"1404316140203",2014-07-02 11:49:00,13,0.0769230769230769,0.923076923076923
"143","149","California St & Florida Ave NW","31116","1404320233988","38.917761","-77.04062","true","false","1323752400000","","false","true",22,7,"1404320233240",2014-07-02 12:57:13,29,0.758620689655172,0.241379310344828
"144","150","Benning Rd & East Capitol St NE / Benning Rd Metro","31707","1404320206609","38.889935","-76.93723","true","false","1324404360000","","false","true",25,4,"1404301872933",2014-07-02 07:51:12,29,0.862068965517241,0.137931034482759
"145","151","3000 Connecticut Ave NW / National Zoo","31307","1404320290549","38.930282","-77.055599","true","false","1324496640000","","false","true",1,8,"1404315472764",2014-07-02 11:37:52,9,0.111111111111111,0.888888888888889
"146","152","Anacostia Ave & Benning Rd NE / River Terrace ","31708","1404320126261","38.896544","-76.96012","true","false","1324402320000","","false","true",22,3,"1404295638867",2014-07-02 06:07:18,25,0.88,0.12
"147","153","M St & Pennsylvania Ave NW","31246","1404320145439","38.905126","-77.056887","true","false","1324485480000","","false","true",6,26,"1404318680562",2014-07-02 12:31:20,32,0.1875,0.8125
"148","154","15th St & Massachusetts Ave SE","31626","1404320288210","38.88732","-76.983569","true","false","1324565040000","","false","true",12,6,"1404319804823",2014-07-02 12:50:04,18,0.666666666666667,0.333333333333333
"149","155","Congress Heights Metro","31806","1404320294316","38.844711","-76.987823","true","false","1324581180000","","false","true",3,25,"1404277091096",2014-07-02 00:58:11,28,0.107142857142857,0.892857142857143
"150","156","N Quincy St & Glebe Rd","31035","1404320178470","38.876393","-77.107735","true","false","1335552600000","","false","true",18,28,"1404314689824",2014-07-02 11:24:49,46,0.391304347826087,0.608695652173913
"151","157","Wilson Blvd & N Oakland St","31033","1404320125902","38.8815","-77.10396","true","false","1335387720000","","false","true",21,27,"1404319159443",2014-07-02 12:39:19,48,0.4375,0.5625
"152","158","N Veitch  & 20th St N","31029","1404320230834","38.896923","-77.086502","true","false","1335213360000","","false","true",21,4,"1404312148563",2014-07-02 10:42:28,25,0.84,0.16
"153","159","11th & K St NW","31263","1404320339771","38.90268","-77.02674","true","false","1360936140000","","false","true",4,28,"1404320015553",2014-07-02 12:53:35,32,0.125,0.875
"154","160","Fairfax Dr & Wilson Blvd","31023","1404320278757","38.885801","-77.097745","true","false","1335545880000","","false","true",23,25,"1404319427760",2014-07-02 12:43:47,48,0.479166666666667,0.520833333333333
"155","161","Key Blvd & N Quinn St","31027","1404320257593","38.896015","-77.078107","true","false","1335195480000","","false","true",2,3,"1404310794600",2014-07-02 10:19:54,5,0.4,0.6
"156","162","1st & K St SE","31628","1404320110042","38.87861","-77.006004","true","false","1328717220000","","false","true",18,5,"1404318991640",2014-07-02 12:36:31,23,0.782608695652174,0.217391304347826
"157","163","39th & Calvert St NW / Stoddert","31306","1404320174375","38.922649","-77.077271","true","false","1328898300000","","false","true",24,5,"1404313307773",2014-07-02 11:01:47,29,0.827586206896552,0.172413793103448
"158","164","1st & Washington Hospital Center NW","31507","1404320205743","38.928743","-77.012457","true","false","1329153540000","","false","true",26,26,"1404312568139",2014-07-02 10:49:28,52,0.5,0.5
"159","165","Virginia Square Metro / N Monroe St & 9th St N","31024","1404320220125","38.882788","-77.103148","true","false","1329508980000","","false","true",24,5,"1404319396201",2014-07-02 12:43:16,29,0.827586206896552,0.172413793103448
"160","166","Central Library / N Quincy St & 10th St N","31025","1404320216397","38.88397","-77.10783","true","false","1329493920000","","false","true",23,25,"1404319973769",2014-07-02 12:52:53,48,0.479166666666667,0.520833333333333
"161","167","Washington Blvd & 10th St N","31026","1404320215602","38.884734","-77.093485","true","false","1329944340000","","false","true",12,6,"1404317999985",2014-07-02 12:19:59,18,0.666666666666667,0.333333333333333
"162","168","Jefferson Dr & 14th St SW","31247","1404320350013","38.888553","-77.032429","true","false","1331911860000","","false","true",3,6,"1404320107913",2014-07-02 12:55:07,9,0.333333333333333,0.666666666666667
"163","169","Smithsonian / Jefferson Dr & 12th St SW","31248","1404320231493","38.888767","-77.02858","true","false","1333369620000","","false","true",15,1,"1404320229656",2014-07-02 12:57:09,16,0.9375,0.0625
"164","170","George Mason Dr & Wilson Blvd","31036","1404320132544","38.87887","-77.1207","true","false","1335805380000","","false","true",21,4,"1404315013651",2014-07-02 11:30:13,25,0.84,0.16
"165","171","6th St & Indiana Ave NW","31264","1404320287057","38.894573","-77.01994","true","false","1364990040000","","false","true",7,25,"1404316428991",2014-07-02 11:53:48,32,0.21875,0.78125
"166","172","N Veitch & Key Blvd","31028","1404320236857","38.893241","-77.086045","true","false","1335202980000","","false","true",18,28,"1404320235868",2014-07-02 12:57:15,46,0.391304347826087,0.608695652173913
"167","173","N Adams St & Lee Hwy","31030","1404320187607","38.89593","-77.089006","true","false","1335369060000","","false","true",23,29,"1404318230546",2014-07-02 12:23:50,52,0.442307692307692,0.557692307692308
"168","174","15th & N Scott St","31031","1404320323014","38.89054","-77.08095","true","false","1335362100000","","false","true",22,26,"1404311774018",2014-07-02 10:36:14,48,0.458333333333333,0.541666666666667
"169","175","Washington Blvd & 7th St N","31032","1404320329052","38.880834","-77.091129","true","false","1335794400000","","false","true",2,3,"1404307434627",2014-07-02 09:23:54,5,0.4,0.6
"170","176","Ballston Metro / N Stuart & 9th St N","31037","1404320211325","38.881044","-77.111768","true","false","1335817440000","","false","true",24,5,"1404320210339",2014-07-02 12:56:50,29,0.827586206896552,0.172413793103448
"171","177","N Randolph St & Fairfax Dr","31034","1404320219497","38.882629","-77.109366","true","false","1335542580000","","false","true",26,13,"1404318104302",2014-07-02 12:21:44,39,0.666666666666667,0.333333333333333
"172","178","Jefferson Memorial","31249","1404320335830","38.879819","-77.037413","true","false","1335969180000","","false","true",1,15,"1404319257896",2014-07-02 12:40:57,16,0.0625,0.9375
"173","179","Good Hope Rd & 14th St SE","31803","1404320202647","38.866611","-76.985238","true","false","1335981060000","","false","true",3,24,"1404309905520",2014-07-02 10:05:05,27,0.111111111111111,0.888888888888889
"174","180","Glebe Rd & 11th St N","31038","1404320233043","38.883921","-77.116817","true","false","1337269200000","","false","true",21,27,"1404308002557",2014-07-02 09:33:22,48,0.4375,0.5625
"175","181","N Quincy St & Wilson Blvd","31039","1404320346365","38.880151","-77.107673","true","false","1338301620000","","false","true",26,2,"1404315600898",2014-07-02 11:40:00,28,0.928571428571429,0.0714285714285714
"176","182","Fairfax Dr & Kenmore St","31040","1404320219722","38.884616","-77.10108","true","false","1366814880000","","false","true",12,29,"1404311478687",2014-07-02 10:31:18,41,0.292682926829268,0.707317073170732
"177","183","Gallaudet / 8th St & Florida Ave NE","31508","1404320309399","38.90509","-76.9941","true","false","1342033620000","","false","true",25,4,"1404317389097",2014-07-02 12:09:49,29,0.862068965517241,0.137931034482759
"178","185","20th & L St NW","31250","1404320210207","38.903584","-77.044789","true","false","1340632500000","","false","true",9,21,"1404318518872",2014-07-02 12:28:38,30,0.3,0.7
"179","186","12th & L St NW","31251","1404320144001","38.903819","-77.0284","true","false","1340639640000","","false","true",1,12,"1404316212907",2014-07-02 11:50:12,13,0.0769230769230769,0.923076923076923
"180","187","21st St & Pennsylvania Ave NW","31252","1404320158055","38.901539","-77.046564","true","false","1340811180000","","false","true",7,24,"1404319640169",2014-07-02 12:47:20,31,0.225806451612903,0.774193548387097
"181","188","19th & K St NW","31253","1404320273129","38.902204","-77.04337","true","false","1340801880000","","false","true",14,1,"1404319788978",2014-07-02 12:49:48,15,0.933333333333333,0.0666666666666667
"182","189","Prince St & Union St","31041","1404320285779","38.803124","-77.040363","true","false","1346070420000","","false","true",25,4,"1404320043631",2014-07-02 12:54:03,29,0.862068965517241,0.137931034482759
"183","190","Market Square / King St & Royal St","31042","1404320197371","38.804718","-77.043363","true","false","1346077680000","","false","true",4,21,"1404316766732",2014-07-02 11:59:26,25,0.16,0.84
"184","191","Saint Asaph St & Pendleton  St","31043","1404320337618","38.810743","-77.044664","true","false","1346084880000","","false","true",23,29,"1404311997698",2014-07-02 10:39:57,52,0.442307692307692,0.557692307692308
"185","192","King St & Patrick St","31044","1404320340213","38.805317","-77.049883","true","false","1346442900000","","false","true",4,24,"1404311862452",2014-07-02 10:37:42,28,0.142857142857143,0.857142857142857
"186","193","15th & K St NW","31254","1404320222673","38.902","-77.03353","true","false","1341232920000","","false","true",7,25,"1404319392223",2014-07-02 12:43:12,32,0.21875,0.78125
"187","194","Commerce St & Fayette St","31045","1404320194840","38.805648","-77.05293","true","false","1346442960000","","false","true",12,6,"1404313775792",2014-07-02 11:09:35,18,0.666666666666667,0.333333333333333
"188","195","Henry St & Pendleton St","31046","1404320115252","38.811456","-77.050276","true","false","1346442960000","","false","true",24,3,"1404302733052",2014-07-02 08:05:33,27,0.888888888888889,0.111111111111111
"189","196","Braddock Rd Metro","31047","1404320127991","38.814577","-77.052808","true","false","1346442960000","","false","true",5,27,"1404309362280",2014-07-02 09:56:02,32,0.15625,0.84375
"190","197","King St Metro","31048","1404320191900","38.805767","-77.06072","true","false","1346443020000","","false","true",23,6,"1404320191060",2014-07-02 12:56:31,29,0.793103448275862,0.206896551724138
"191","198","24th & N St NW","31255","1404320134045","38.9066","-77.05152","true","false","1341575340000","","false","true",3,25,"1404320133094",2014-07-02 12:55:33,28,0.107142857142857,0.892857142857143
"192","199","10th & E St NW","31256","1404320319019","38.895914","-77.026064","true","false","1342109700000","","false","true",24,28,"1404319378995",2014-07-02 12:42:58,52,0.461538461538462,0.538461538461538
"193","200","22nd & I St NW / Foggy Bottom","31257","1404320211260","38.90088","-77.048911","true","false","1342442220000","","false","true",7,2,"1404320210541",2014-07-02 12:56:50,9,0.777777777777778,0.222222222222222
"194","201","Utah St & 11th St N ","31049","1404320224160","38.883669","-77.113905","true","false","1342539420000","","false","true",22,26,"1404320223202",2014-07-02 12:57:03,48,0.458333333333333,0.541666666666667
"195","202","Barton St & 10th St N","31050","1404320188763","38.884961","-77.08777","true","false","1346771820000","","false","true",23,25,"1404314108864",2014-07-02 11:15:08,48,0.479166666666667,0.520833333333333
"196","203","Arlington Blvd & N Queen St","31051","1404320208332","38.889365","-77.077294","true","false","1346776740000","","false","true",22,26,"1404305517547",2014-07-02 08:51:57,48,0.458333333333333,0.541666666666667
"197","204","Lincoln Memorial","31258","1404320124200","38.888251","-77.049426","true","false","1349268360000","","false","true",18,15,"1404319640353",2014-07-02 12:47:20,33,0.545454545454545,0.454545454545455
"198","206","20th St & Virginia Ave NW","31259","1404320149848","38.894722","-77.045128","true","false","1359646980000","","false","true",24,25,"1404316578938",2014-07-02 11:56:18,49,0.489795918367347,0.510204081632653
"199","207","5th St & Massachusetts Ave NW","31265","1404320289042","38.90093","-77.018677","true","false","1367842440000","","false","true",12,10,"1404319564231",2014-07-02 12:46:04,22,0.545454545454545,0.454545454545455
"200","208","39th & Veazey St NW","31308","1404320141161","38.943837","-77.077078","true","false","1360598160000","","false","true",26,25,"1404316512948",2014-07-02 11:55:12,51,0.509803921568627,0.490196078431373
"201","209","Fessenden St & Wisconsin Ave NW","31309","1404320335126","38.954812","-77.082426","true","false","1360588560000","","false","true",26,26,"1404306238177",2014-07-02 09:03:58,52,0.5,0.5
"202","210","M St & Delaware Ave NE","31627","1404320343571","38.905707","-77.003041","true","false","1360929900000","","false","true",24,8,"1404320341773",2014-07-02 12:59:01,32,0.75,0.25
"203","211","Columbia Pike & S Courthouse Rd","31053","1404320341719","38.863833","-77.080319","true","false","1364482620000","","false","true",21,4,"1404311745350",2014-07-02 10:35:45,25,0.84,0.16
"204","212","Walter Reed Community Center / Walter Reed Dr & 16th St S","31054","1404320151266","38.857803","-77.086733","true","false","1364466180000","","false","true",21,27,"1404298798466",2014-07-02 06:59:58,48,0.4375,0.5625
"205","213","28th St S & S Meade St","31055","1404320157862","38.846222","-77.069275","true","false","1364476320000","","false","true",3,25,"1404258554346",2014-07-01 19:49:14,28,0.107142857142857,0.892857142857143
"206","214","18th St & Wyoming Ave NW","31114","1404320156855","38.918809","-77.041571","true","false","1365003300000","","false","true",23,10,"1404319543858",2014-07-02 12:45:43,33,0.696969696969697,0.303030303030303
"207","215","5th & Kennedy St NW","31403","1404320156685","38.956595","-77.019815","true","false","1365777420000","","false","true",21,4,"1404318223529",2014-07-02 12:23:43,25,0.84,0.16
"208","216","Georgia Ave & Emerson St NW","31405","1404320147839","38.949662","-77.027333","true","false","1365783540000","","false","true",25,4,"1404313275830",2014-07-02 11:01:15,29,0.862068965517241,0.137931034482759
"209","217","14th & Upshur St NW","31406","1404320114986","38.942016","-77.032652","true","false","1365794820000","","false","true",24,5,"1404312964189",2014-07-02 10:56:04,29,0.827586206896552,0.172413793103448
"210","218","14th St & Colorado Ave NW","31407","1404320180814","38.956432","-77.032947","true","false","1365798900000","","false","true",23,6,"1404311692641",2014-07-02 10:34:52,29,0.793103448275862,0.206896551724138
"211","219","S Troy St & 26th St S","31056","1404320260267","38.847977","-77.075104","true","false","1366725840000","","false","true",22,26,"1404303550069",2014-07-02 08:19:10,48,0.458333333333333,0.541666666666667
"212","220","S Four Mile Run Dr & S Shirlington Rd","31057","1404320188859","38.8444","-77.085931","true","false","1366729200000","","false","true",24,24,"1404317730526",2014-07-02 12:15:30,48,0.5,0.5
"213","221","S Oakland St & Columbia Pike","31058","1404320274241","38.860789","-77.09586","true","false","1366735380000","","false","true",22,26,"1404277077194",2014-07-02 00:57:57,48,0.458333333333333,0.541666666666667
"214","222","S Abingdon St & 36th St S","31059","1404320308669","38.835213","-77.094295","true","false","1366739700000","","false","true",18,28,"1404304286792",2014-07-02 08:31:26,46,0.391304347826087,0.608695652173913
"215","223","S Arlington Mill Dr & Campbell Ave","31060","1404320275052","38.84232","-77.089555","true","false","1366802400000","","false","true",25,27,"1404308838413",2014-07-02 09:47:18,52,0.480769230769231,0.519230769230769
"216","224","S Kenmore & 24th St S","31061","1404320118218","38.848454","-77.084918","true","false","1366825140000","","false","true",21,27,"1404277091118",2014-07-02 00:58:11,48,0.4375,0.5625
"217","225","13th St & Eastern Ave","32006","1404320338641","38.987","-77.029417","true","false","1380292680000","","false","true",24,28,"1404318878079",2014-07-02 12:34:38,52,0.461538461538462,0.538461538461538
"218","226","Wisconsin Ave & O St NW","31312","1404320205721","38.90849","-77.063586","true","false","1366910820000","","false","true",22,6,"1404319963684",2014-07-02 12:52:43,28,0.785714285714286,0.214285714285714
"219","227","S George Mason Dr & 13th St S","31062","1404320273375","38.854691","-77.100555","true","false","1372694040000","","false","true",22,26,"1404277089232",2014-07-02 00:58:09,48,0.458333333333333,0.541666666666667
"220","228","Connecticut & Nebraska Ave NW","31310","1404320286109","38.955016","-77.069956","true","false","1366894140000","","false","true",4,5,"1404316356922",2014-07-02 11:52:36,9,0.444444444444444,0.555555555555556
"221","229","17th St & Massachusetts Ave NW","31267","1404320346021","38.908142","-77.038359","true","false","1367851920000","","false","true",5,25,"1404319862011",2014-07-02 12:51:02,30,0.166666666666667,0.833333333333333
"222","230","15th & Euclid St  NW","31117","1404320312739","38.92333","-77.0352","true","false","1367856780000","","false","true",18,5,"1404319105216",2014-07-02 12:38:25,23,0.782608695652174,0.217391304347826
"223","231","8th & East Capitol St NE","31629","1404320343333","38.889988","-76.995193","true","false","1368545580000","","false","true",12,29,"1404320341438",2014-07-02 12:59:01,41,0.292682926829268,0.707317073170732
"224","232","New Jersey Ave & R St NW","31509","1404320284304","38.912659","-77.017669","true","false","1368532680000","","false","true",18,5,"1404318008514",2014-07-02 12:20:08,23,0.782608695652174,0.217391304347826
"225","233","15th & East Capitol St NE","31630","1404320250480","38.889908","-76.983326","true","false","1368541260000","","false","true",1,4,"1404316498782",2014-07-02 11:54:58,5,0.2,0.8
"226","234","8th & F St NE","31631","1404320348837","38.897274","-76.994749","true","false","1368552540000","","false","true",5,21,"1404319381553",2014-07-02 12:43:01,26,0.192307692307692,0.807692307692308
"227","235","18th St & Rhode Island Ave NE","31510","1404320265046","38.927095","-76.978924","true","false","1369915500000","","false","true",26,26,"1404314274096",2014-07-02 11:17:54,52,0.5,0.5
"228","236","15th & F St NE","31632","1404320135661","38.897195","-76.983575","true","false","1369928820000","","false","true",12,10,"1404317720487",2014-07-02 12:15:20,22,0.545454545454545,0.454545454545455
"229","237","12th & Irving St NE","31511","1404320122501","38.928644","-76.990955","true","false","1369923120000","","false","true",26,26,"1404317000829",2014-07-02 12:03:20,52,0.5,0.5
"230","238","34th St & Minnesota Ave SE","31709","1404320156570","38.884085","-76.957461","true","false","1370358840000","","false","true",22,25,"1404277084642",2014-07-02 00:58:04,47,0.468085106382979,0.531914893617021
"231","239","Alabama & MLK Ave SE","31800","1404320343243","38.843222","-76.999388","true","false","1370345160000","","false","true",23,25,"1404315573109",2014-07-02 11:39:33,48,0.479166666666667,0.520833333333333
"232","240","Pleasant St & MLK Ave SE","31807","1404320298427","38.863897","-76.990037","true","false","1370351820000","","false","true",22,26,"1404303993480",2014-07-02 08:26:33,48,0.458333333333333,0.541666666666667
"233","241","Neal St & Trinidad Ave NE","31512","1404320278335","38.903732","-76.987211","true","false","1371221640000","","false","true",18,5,"1404320276369",2014-07-02 12:57:56,23,0.782608695652174,0.217391304347826
"234","242","13th & U St NW","31268","1404320210785","38.916794","-77.029779","true","false","1371231240000","","false","true",2,15,"1404319816887",2014-07-02 12:50:16,17,0.117647058823529,0.882352941176471
"235","243","S George Mason Dr & Four Mile Run","31063","1404320196905","38.852248","-77.105022","true","false","1372690500000","","false","true",24,24,"1404270532547",2014-07-01 23:08:52,48,0.5,0.5
"236","244","S Stafford & 34th St S","31064","1404320222289","38.834108","-77.087323","true","false","1372701360000","","false","true",22,3,"1404255433004",2014-07-01 18:57:13,25,0.88,0.12
"237","245","N Pershing Dr & Wayne St","31065","1404320328281","38.880705","-77.08596","true","false","1372680300000","","false","true",26,13,"1404317426015",2014-07-02 12:10:26,39,0.666666666666667,0.333333333333333
"238","246","Columbia Pike & S Orme St","31066","1404320228600","38.867262","-77.072315","true","false","1372684620000","","false","true",21,27,"1404317504486",2014-07-02 12:11:44,48,0.4375,0.5625
"239","247","3rd St & Pennsylvania Ave SE","31269","1404320321492","38.887378","-77.001955","true","false","1374598740000","","false","true",3,25,"1404315945276",2014-07-02 11:45:45,28,0.107142857142857,0.892857142857143
"240","248","8th & D St NW","31270","1404320294003","38.894851","-77.02324","true","false","1374581640000","","false","true",6,13,"1404319198142",2014-07-02 12:39:58,19,0.315789473684211,0.684210526315789
"241","249","3rd & Elm St NW","31118","1404320317659","38.917622","-77.01597","true","false","1374589740000","","false","true",2,7,"1404318099714",2014-07-02 12:21:39,9,0.222222222222222,0.777777777777778
"242","250","Rhode Island Ave & V St NE","31513","1404320271761","38.918155","-77.004746","true","false","1375196700000","","false","true",23,5,"1404316051484",2014-07-02 11:47:31,28,0.821428571428571,0.178571428571429
"243","251","Constitution Ave & 2nd St NW/DOL","31271","1404320243056","38.892275","-77.013917","true","false","1375190280000","","false","true",16,2,"1404320242351",2014-07-02 12:57:22,18,0.888888888888889,0.111111111111111
"244","252","Washington & Independence Ave SW/HHS","31272","1404320269623","38.88731","-77.01397","true","false","1375445040000","","false","true",8,3,"1404320003401",2014-07-02 12:53:23,11,0.727272727272727,0.272727272727273
"245","253","Independence Ave & L'Enfant Plaza SW/DOE","31633","1404320270016","38.887397","-77.026154","true","false","1375789680000","","false","true",3,25,"1404319786009",2014-07-02 12:49:46,28,0.107142857142857,0.892857142857143
"246","254","Hamlin & 7th St NE","31514","1404320268271","38.927497","-76.997194","true","false","1376653440000","","false","true",22,3,"1404318300708",2014-07-02 12:25:00,25,0.88,0.12
"247","255","Columbia Pike & S Walter Reed Dr","31067","1404320273557","38.862478","-77.086599","true","false","1377605340000","","false","true",18,29,"1404310357073",2014-07-02 10:12:37,47,0.382978723404255,0.617021276595745
"248","256","Columbia Pike & S Dinwiddie St / Arlington Mill Community Center","31068","1404320333756","38.856319","-77.11153","true","false","1377776460000","","false","true",23,29,"1404257311070",2014-07-01 19:28:31,52,0.442307692307692,0.557692307692308
"249","257","Pershing & N George Mason Dr","31069","1404320195238","38.871822","-77.107906","true","false","1377792000000","","false","true",23,25,"1404318105623",2014-07-02 12:21:45,48,0.479166666666667,0.520833333333333
"250","258","Fenton St & New York Ave ","32001","1404320285772","38.985404","-77.023082","true","false","1380292620000","","false","true",24,28,"1404319239662",2014-07-02 12:40:39,52,0.461538461538462,0.538461538461538
"251","259","Bethesda Ave & Arlington Blvd","32002","1404320139326","38.981103","-77.097426","true","false","1380292620000","","false","true",5,27,"1404319896637",2014-07-02 12:51:36,32,0.15625,0.84375
"252","260","Montgomery Ave & Waverly St ","32003","1404320333263","38.983838","-77.09221","true","false","1382208480000","","false","true",22,26,"1404240942780",2014-07-01 14:55:42,48,0.458333333333333,0.541666666666667
"253","261","Fallsgrove Blvd & Fallsgrove Dr","32004","1404320216449","39.096312","-77.192672","true","false","1380292620000","","false","true",23,6,"1404303667124",2014-07-02 08:21:07,29,0.793103448275862,0.206896551724138
"254","262","Traville Gateway Dr & Gudelsky Dr","32005","1404320248232","39.093783","-77.202501","true","false","1380292680000","","false","true",25,4,"1404277079546",2014-07-02 00:57:59,29,0.862068965517241,0.137931034482759
"255","263","Norfolk Ave & Fairmont St","32000","1404320268399","38.988562","-77.096539","true","false","1380292560000","","false","true",25,21,"1404315476808",2014-07-02 11:37:56,46,0.543478260869565,0.456521739130435
"256","264","E Montgomery Ave & Maryland Ave","32007","1404320188029","39.084125","-77.151291","true","false","1380292560000","","false","true",22,3,"1404300087130",2014-07-02 07:21:27,25,0.88,0.12
"257","265","Cordell & Norfolk Ave","32008","1404320207522","38.98954","-77.098029","true","false","1380292740000","","false","true",23,25,"1404320206071",2014-07-02 12:56:46,48,0.479166666666667,0.520833333333333
"258","266","Frederick Ave & Horners Ln","32009","1404320214545","39.094772","-77.145213","true","false","1380292740000","","false","true",21,27,"1404303216378",2014-07-02 08:13:36,48,0.4375,0.5625
"259","267","Philadelphia & Maple Ave","32010","1404320273557","38.98128","-77.011336","true","false","1380292740000","","false","true",24,28,"1404317277242",2014-07-02 12:07:57,52,0.461538461538462,0.538461538461538
"260","268","Maple & Ritchie Ave","32011","1404320235903","38.983627","-77.006311","true","false","1380292800000","","false","true",8,24,"1404319481977",2014-07-02 12:44:41,32,0.25,0.75
"261","269","Silver Spring Metro/Colesville Rd & Wayne Ave","32012","1404320164191","38.99521","-77.02918","true","false","1380292800000","","false","true",5,27,"1404310695702",2014-07-02 10:18:15,32,0.15625,0.84375
"262","270","Montgomery & East Ln","32013","1404320221205","38.983525","-77.095367","true","false","1380292800000","","false","true",22,26,"1404319737251",2014-07-02 12:48:57,48,0.458333333333333,0.541666666666667
"263","271","Friendship Hts Metro/Wisconsin Ave & Wisconsin Cir","32014","1404320299683","38.961763","-77.085998","true","false","1380292860000","","false","true",24,5,"1404314964505",2014-07-02 11:29:24,29,0.827586206896552,0.172413793103448
"264","272","14th & Belmont St NW","31119","1404320218340","38.921074","-77.031887","true","false","1380719160000","","false","true",1,8,"1404317398961",2014-07-02 12:09:58,9,0.111111111111111,0.888888888888889
"265","273","3rd & Tingey St SE","31634","1404320204422","38.87501","-77.0024","true","false","1380722700000","","false","true",26,3,"1404319334498",2014-07-02 12:42:14,29,0.896551724137931,0.103448275862069
"266","274","10th & Florida Ave NW","31120","1404320142341","38.920387","-77.025672","true","false","1381320720000","","false","true",2,11,"1404318451797",2014-07-02 12:27:31,13,0.153846153846154,0.846153846153846
"267","275","Potomac Ave & 8th St SE","31635","1404320152888","38.876737","-76.994468","true","false","1381333800000","","false","true",5,13,"1404318094486",2014-07-02 12:21:34,18,0.277777777777778,0.722222222222222
"268","276","Crabbs Branch Way & Redland Rd","32015","1404320248423","39.120045","-77.156985","true","false","1382100480000","","false","true",24,28,"1404277086434",2014-07-02 00:58:06,52,0.461538461538462,0.538461538461538
"269","277","Fallsgrove Dr & W Montgomery Ave","32016","1404320295484","39.099376","-77.188014","true","false","1382120580000","","false","true",4,24,"1404310166078",2014-07-02 10:09:26,28,0.142857142857143,0.857142857142857
"270","278","Monroe St & Monroe Pl","32017","1404320238861","39.083705","-77.149443","true","false","1383309240000","","false","true",26,26,"1404304821807",2014-07-02 08:40:21,52,0.5,0.5
"271","279","Needwood Rd & Eagles Head Ct","32018","1404320250214","39.123513","-77.15741","true","false","1382107020000","","false","true",23,29,"1404277075025",2014-07-02 00:57:55,52,0.442307692307692,0.557692307692308
"272","280","East West Hwy & Blair Mill Rd","32019","1404320160189","38.990249","-77.02935","true","false","1383148920000","","false","true",3,25,"1404277074549",2014-07-02 00:57:54,28,0.107142857142857,0.892857142857143
"273","281","Crabbs Branch Way & Calhoun Pl","32020","1404320280508","39.107709","-77.152072","true","false","1382111460000","","false","true",25,27,"1404306656268",2014-07-02 09:10:56,52,0.480769230769231,0.519230769230769
"274","282","47th & Elm St","32021","1404320336600","38.982456","-77.091991","true","false","1382208540000","","false","true",4,24,"1404315673399",2014-07-02 11:41:13,28,0.142857142857143,0.857142857142857
"275","283","Garland Ave & Walden Rd","32022","1404320117715","39.000578","-77.00149","true","false","1383059580000","","false","true",25,27,"1404277069891",2014-07-02 00:57:49,52,0.480769230769231,0.519230769230769
"276","284","Montgomery College/W Campus Dr & Mannakee St","32023","1404320226205","39.095661","-77.159048","true","false","1382199120000","","false","true",5,29,"1404319693077",2014-07-02 12:48:13,34,0.147058823529412,0.852941176470588
"277","285","Fenton St & Gist Ave","32024","1404320227232","38.989724","-77.023854","true","false","1383054960000","","false","true",23,25,"1404319696831",2014-07-02 12:48:16,48,0.479166666666667,0.520833333333333
"278","286","Carroll & Westmoreland Ave","32025","1404320304899","38.975","-77.01121","true","false","1383065460000","","false","true",26,26,"1404320303697",2014-07-02 12:58:23,52,0.5,0.5
"279","287","Carroll & Ethan Allen Ave","32026","1404320335612","38.977933","-77.006472","true","false","1383070440000","","false","true",25,27,"1404320333873",2014-07-02 12:58:53,52,0.480769230769231,0.519230769230769
"280","288","Battery Ln & Trolley Trail","32027","1404320325025","38.992375","-77.100104","true","false","1382712300000","","false","true",24,28,"1404320323177",2014-07-02 12:58:43,52,0.461538461538462,0.538461538461538
"281","289","Norfolk & Rugby Ave","32028","1404320238552","38.990639","-77.100239","true","false","1382715180000","","false","true",24,24,"1404302720905",2014-07-02 08:05:20,48,0.5,0.5
"282","290","Offutt Ln & Chevy Chase Dr","32029","1404320213318","38.977093","-77.094589","true","false","1382722080000","","false","true",22,26,"1404308133723",2014-07-02 09:35:33,48,0.458333333333333,0.541666666666667
"283","291","Broschart & Blackwell Rd","32030","1404320246012","39.102099","-77.200322","true","false","1382798640000","","false","true",24,28,"1404277074444",2014-07-02 00:57:54,52,0.461538461538462,0.538461538461538
"284","292","Taft St & E Gude Dr","32031","1404320248099","39.094103","-77.132954","true","false","1382804520000","","false","true",24,28,"1404277070455",2014-07-02 00:57:50,52,0.461538461538462,0.538461538461538
"285","293","Fleet St & Ritchie Pkwy","32032","1404320198574","39.076331","-77.141378","true","false","1382809500000","","false","true",25,27,"1404277070772",2014-07-02 00:57:50,52,0.480769230769231,0.519230769230769
"286","294","Piccard & W Gude Dr","32033","1404320267164","39.102212","-77.177091","true","false","1382795700000","","false","true",3,29,"1404308635124",2014-07-02 09:43:55,32,0.09375,0.90625
"287","295","Ripley & Bonifant St","32034","1404320336209","38.992679","-77.029457","true","false","1383141360000","","false","true",26,26,"1404312353617",2014-07-02 10:45:53,52,0.5,0.5
"288","296","Georgia Ave & Spring St","32035","1404320251187","38.999388","-77.031555","true","false","1383146520000","","false","true",23,25,"1404305240163",2014-07-02 08:47:20,48,0.479166666666667,0.520833333333333
"289","297","Fenton St & Ellsworth Dr ","32036","1404320139378","38.997033","-77.025608","true","false","1383135960000","","false","true",3,25,"1404320134625",2014-07-02 12:55:34,28,0.107142857142857,0.892857142857143
"290","298","King Farm Blvd & Pleasant Dr","32037","1404320317889","39.114688","-77.171487","true","false","1383323580000","","false","true",5,26,"1404320282315",2014-07-02 12:58:02,31,0.161290322580645,0.838709677419355
"291","299","King Farm Blvd & Piccard Dr","32038","1404320285236","39.110314","-77.182669","true","false","1383318120000","","false","true",23,29,"1404320072389",2014-07-02 12:54:32,52,0.442307692307692,0.557692307692308
"292","301","Calvert St & Woodley Pl NW","31121","1404320227720","38.923583","-77.050046","true","false","1383657120000","","false","true",5,27,"1404318054448",2014-07-02 12:20:54,32,0.15625,0.84375
"293","302","New Jersey Ave & N St NW/Dunbar HS","31636","1404320345115","38.90706","-77.015231","true","false","1383662880000","","false","true",23,6,"1404315844115",2014-07-02 11:44:04,29,0.793103448275862,0.206896551724138
"294","303","Nannie Helen Burroughs Ave & 49th St NE","31710","1404320182856","38.898536","-76.931862","true","false","1383923280000","","false","true",22,26,"1404303263249",2014-07-02 08:14:23,48,0.458333333333333,0.541666666666667
"295","304","Deanwood Rec Center","31711","1404320161898","38.908473","-76.933099","true","false","1383923280000","","false","true",22,3,"1404297310776",2014-07-02 06:35:10,25,0.88,0.12
"296","305","Hains Point/Buckeye & Ohio Dr SW","31273","1404320120172","38.878433","-77.03023","true","false","1383929160000","","false","true",24,3,"1404310742243",2014-07-02 10:19:02,27,0.888888888888889,0.111111111111111
"297","306","Arlington Blvd & Fillmore St","31070","1404320154482","38.873755","-77.089233","true","false","1384527780000","","false","true",24,24,"1404277085657",2014-07-02 00:58:05,48,0.5,0.5
"298","307","Long Bridge Park/Long Bridge Dr & 6th St S","31071","1404320308061","38.86646","-77.04826","true","false","1384520760000","","false","true",4,24,"1404277073642",2014-07-02 00:57:53,28,0.142857142857143,0.857142857142857
"299","308","Old Georgetown Rd & Southwick St","32039","1404320181307","38.999634","-77.109647","true","false","1384367940000","","false","true",23,6,"1404303516279",2014-07-02 08:18:36,29,0.793103448275862,0.206896551724138
"300","309","Friendship Blvd & Willard Ave","32040","1404320332720","38.96115","-77.088659","true","false","1384355760000","","false","true",26,3,"1404304569790",2014-07-02 08:36:09,29,0.896551724137931,0.103448275862069
"301","310","North Capitol St & G Pl NE","31637","1404320211377","38.899703","-77.008911","true","false","1386954360000","","false","true",24,4,"1404318520080",2014-07-02 12:28:40,28,0.857142857142857,0.142857142857143
"302","311","31st & Woodrow St S","31072","1404320306287","38.837666","-77.09482","true","false","1387298640000","","false","true",22,26,"1404277082920",2014-07-02 00:58:02,48,0.458333333333333,0.541666666666667
"303","312","Washington Blvd & Walter Reed Dr ","31073","1404320336442","38.873219","-77.082104","true","false","1387287180000","","false","true",22,3,"1404304590557",2014-07-02 08:36:30,25,0.88,0.12
"304","313","Thomas Jefferson Cmty Ctr / 2nd St S & Ivy","31074","1404320130863","38.869675","-77.093586","true","false","1386774900000","","false","true",22,26,"1404320129763",2014-07-02 12:55:29,48,0.458333333333333,0.541666666666667
"305","314","Connecticut Ave & Tilden St NW","31313","1404320217768","38.941154","-77.062036","true","false","1386954480000","","false","true",23,29,"1404315085878",2014-07-02 11:31:25,52,0.442307692307692,0.557692307692308
"306","315","Medical Center Dr & Key West Ave","32041","1404320149225","39.103091","-77.196442","true","false","1389273960000","","false","true",23,29,"1404315816718",2014-07-02 11:43:36,52,0.442307692307692,0.557692307692308
"307","316","Shady Grove Hospital","32042","1404320285625","39.097636","-77.196636","true","false","1389287040000","","false","true",26,3,"1404277085320",2014-07-02 00:58:05,29,0.896551724137931,0.103448275862069
"308","317","Veterans Pl & Pershing Dr ","32043","1404320341943","38.997445","-77.023894","true","false","1391876460000","","false","true",23,25,"1404314495386",2014-07-02 11:21:35,48,0.479166666666667,0.520833333333333
"309","318","Rockville Metro East","32044","1404320308939","39.085394","-77.145803","true","false","1393000800000","","false","true",25,25,"1404303668830",2014-07-02 08:21:08,50,0.5,0.5
"310","319","1st & H St NW","31638","1404320152499","38.900358","-77.012108","true","false","1392727500000","","false","true",18,5,"1404316417924",2014-07-02 11:53:37,23,0.782608695652174,0.217391304347826
"311","320","Fort Totten Metro","31515","1404320336976","38.952369","-77.002721","true","false","1392825840000","","false","true",25,3,"1404298679809",2014-07-02 06:57:59,28,0.892857142857143,0.107142857142857
"312","321","Takoma Metro","31408","1404320238155","38.975219","-77.016855","true","false","1392833400000","","false","true",3,29,"1404320236480",2014-07-02 12:57:16,32,0.09375,0.90625
"313","322","Rhode Island Ave Metro","31516","1404320319540","38.920682","-76.995876","true","false","1393259520000","","false","true",23,6,"1404320076827",2014-07-02 12:54:36,29,0.793103448275862,0.206896551724138
"314","323","Rolfe St & 9th St S","31075","1404320311659","38.866471","-77.076131","true","false","1394630640000","","false","true",23,25,"1404319509597",2014-07-02 12:45:09,48,0.479166666666667,0.520833333333333
"315","324","Shirlington Transit Center / S Quincy & Randolph St","31076","1404320122962","38.839912","-77.087083","true","false","1394637480000","","false","true",26,26,"1404317548232",2014-07-02 12:12:28,52,0.5,0.5
"316","325","Shady Grove Metro West","32045","1404320274212","39.119765","-77.166093","true","false","1397837820000","","false","true",22,7,"1404310560827",2014-07-02 10:16:00,29,0.758620689655172,0.241379310344828
"317","326","River Rd & Landy Ln","32046","1404320208150","38.964992","-77.103381","true","false","1396972380000","","false","true",4,28,"1404315423227",2014-07-02 11:37:03,32,0.125,0.875
"318","327","Rockville Metro West","32047","1404320166559","39.084379","-77.146866","true","false","1397847900000","","false","true",22,7,"1404318958654",2014-07-02 12:35:58,29,0.758620689655172,0.241379310344828
"319","328","Bethesda Metro","32048","1404320263158","38.984691","-77.094537","true","false","1398786060000","","false","true",21,28,"1404317791550",2014-07-02 12:16:31,49,0.428571428571429,0.571428571428571
"320","329","Iwo Jima Memorial/N Meade & 14th St N","31077","1404320235147","38.88992","-77.071301","true","false","1402585680000","","false","true",3,29,"1404318081281",2014-07-02 12:21:21,32,0.09375,0.90625
