"","id","name","terminalName","lastCommWithServer","lat","long","installed","locked","installDate","removalDate","temporary","public","nbBikes","nbEmptyDocks","latestUpdateTime","date","total","percentBikes","percentDocks"
"1","1","20th & Bell St","31000","1404074289832","38.8561","-77.0512","true","false","1316059200000","","false","true",21,26,"1404073322493",2014-06-29 16:22:02,47,0.446808510638298,0.553191489361702
"2","2","18th & Eads St.","31001","1404074419280","38.85725","-77.05332","true","false","1284989400000","","false","true",17,29,"1404074418191",2014-06-29 16:40:18,46,0.369565217391304,0.630434782608696
"3","3","20th & Crystal Dr","31002","1404074406629","38.8564","-77.0492","true","false","1284464580000","","false","true",2,7,"1404074109828",2014-06-29 16:35:09,9,0.222222222222222,0.777777777777778
"4","4","15th & Crystal Dr","31003","1404074256720","38.86017","-77.049593","true","false","1284464880000","","false","true",2,3,"1404073290268",2014-06-29 16:21:30,5,0.4,0.6
"5","5","Aurora Hills Community Ctr/18th & Hayes St","31004","1404074428760","38.857866","-77.05949","true","false","1284464880000","","false","true",22,24,"1404073702871",2014-06-29 16:28:22,46,0.478260869565217,0.521739130434783
"6","6","12th & Hayes St /  Pentagon City Metro","31005","1404074368494","38.862303","-77.059936","true","false","1284464940000","","false","true",6,27,"1404072918958",2014-06-29 16:15:18,33,0.181818181818182,0.818181818181818
"7","7","S Joyce & Army Navy Dr","31006","1404074316455","38.8637","-77.0633","true","false","1284464940000","","false","true",21,26,"1404073591629",2014-06-29 16:26:31,47,0.446808510638298,0.553191489361702
"8","8","Crystal City Metro / 18th & Bell St","31007","1404074427920","38.8573","-77.0511","true","false","1284465000000","","false","true",23,4,"1404073702057",2014-06-29 16:28:22,27,0.851851851851852,0.148148148148148
"9","9","12th & Army Navy Dr","31008","1404074330937","38.8629","-77.0528","true","false","1284465000000","","false","true",23,22,"1404064127130",2014-06-29 13:48:47,45,0.511111111111111,0.488888888888889
"10","10","27th & Crystal Dr","31009","1404074252306","38.848441","-77.051516","true","false","1284465060000","","false","true",22,5,"1404071877387",2014-06-29 15:57:57,27,0.814814814814815,0.185185185185185
"11","11","S Glebe & Potomac Ave","31010","1404074341466","38.8426","-77.0502","true","false","1284465120000","","false","true",19,28,"1404073850653",2014-06-29 16:30:50,47,0.404255319148936,0.595744680851064
"12","12","23rd & Crystal Dr","31011","1404074280164","38.8533","-77.0498","true","false","1284465120000","","false","true",21,4,"1404074038152",2014-06-29 16:33:58,25,0.84,0.16
"13","13","26th & S Clark St","31012","1404074345361","38.850688","-77.05152","true","false","1284465300000","","false","true",17,29,"1404060824883",2014-06-29 12:53:44,46,0.369565217391304,0.630434782608696
"14","14","19th St & Pennsylvania Ave NW","31100","1404074254887","38.9003","-77.0429","true","false","1284465360000","","false","true",19,4,"1404074253334",2014-06-29 16:37:33,23,0.826086956521739,0.173913043478261
"15","15","14th & V St NW","31101","1404074442117","38.9176","-77.0321","true","false","1284465420000","","false","true",8,5,"1404074440656",2014-06-29 16:40:40,13,0.615384615384615,0.384615384615385
"16","16","11th & Kenyon St NW","31102","1404074317227","38.929464","-77.027822","true","false","1286539080000","","false","true",17,16,"1404074315840",2014-06-29 16:38:35,33,0.515151515151515,0.484848484848485
"17","17","16th & Harvard St NW","31103","1404074354736","38.926088","-77.036536","true","false","1284465480000","","false","true",23,18,"1404074112309",2014-06-29 16:35:12,41,0.560975609756098,0.439024390243902
"18","18","Adams Mill & Columbia Rd NW","31104","1404074377531","38.922925","-77.042581","true","false","1284465540000","","false","true",19,30,"1404073652648",2014-06-29 16:27:32,49,0.387755102040816,0.612244897959184
"19","19","14th & Harvard St NW","31105","1404074354322","38.9268","-77.0322","true","false","1284465540000","","false","true",2,11,"1404074353976",2014-06-29 16:39:13,13,0.153846153846154,0.846153846153846
"20","20","Calvert & Biltmore St NW","31106","1404074448113","38.923203","-77.047637","true","false","1284465600000","","false","true",1,16,"1404070548045",2014-06-29 15:35:48,17,0.0588235294117647,0.941176470588235
"21","21","Lamont & Mt Pleasant NW","31107","1404074257096","38.9319","-77.0388","true","false","1284465600000","","false","true",2,11,"1404074014012",2014-06-29 16:33:34,13,0.153846153846154,0.846153846153846
"22","22","4th & M St SW","31108","1404074450716","38.8767","-77.0178","true","false","1284465660000","","false","true",23,8,"1404074212534",2014-06-29 16:36:52,31,0.741935483870968,0.258064516129032
"23","23","15th & P St NW","31201","1404074347719","38.90985","-77.034438","true","false","1284465660000","","false","true",20,6,"1404074346886",2014-06-29 16:39:06,26,0.769230769230769,0.230769230769231
"24","24","14th & R St NW","31202","1404074276041","38.912682","-77.031681","true","false","1284465720000","","false","true",7,1,"1404072826639",2014-06-29 16:13:46,8,0.875,0.125
"25","25","14th & Rhode Island Ave NW","31203","1404074386881","38.9086","-77.0323","true","false","1284465780000","","false","true",17,14,"1404074143876",2014-06-29 16:35:43,31,0.548387096774194,0.451612903225806
"26","26","20th & E St NW","31204","1404074437475","38.8963","-77.045","true","false","1284465840000","","false","true",22,29,"1404073555908",2014-06-29 16:25:55,51,0.431372549019608,0.568627450980392
"27","27","21st & I St NW","31205","1404074297675","38.9008","-77.047","true","false","1283861040000","","false","true",4,17,"1404074296266",2014-06-29 16:38:16,21,0.19047619047619,0.80952380952381
"28","28","Georgia & New Hampshire Ave NW","31400","1404074368049","38.936043","-77.024649","true","false","1284465900000","","false","true",22,29,"1404074124849",2014-06-29 16:35:24,51,0.431372549019608,0.568627450980392
"29","29","14th St & Spring Rd NW","31401","1404074439401","38.9375","-77.0328","true","false","1284465960000","","false","true",2,3,"1404074196567",2014-06-29 16:36:36,5,0.4,0.6
"30","30","John McCormack Dr & Michigan Ave NE","31502","1404074253237","38.9346","-76.9955","true","false","1284465960000","","false","true",23,22,"1404074010557",2014-06-29 16:33:30,45,0.511111111111111,0.488888888888889
"31","31","5th & K St NW","31600","1404074409513","38.90304","-77.019027","true","false","1284466020000","","false","true",10,2,"1404074351941",2014-06-29 16:39:11,12,0.833333333333333,0.166666666666667
"32","32","19th & East Capitol St SE","31601","1404074310558","38.8896","-76.9769","true","false","1284466020000","","false","true",19,4,"1404074309490",2014-06-29 16:38:29,23,0.826086956521739,0.173913043478261
"33","33","Park Rd & Holmead Pl NW","31602","1404074250508","38.9308","-77.0315","true","false","1284466080000","","false","true",24,3,"1404074075067",2014-06-29 16:34:35,27,0.888888888888889,0.111111111111111
"34","34","Good Hope & Naylor Rd SE","31700","1404074377048","38.8601","-76.9672","true","false","1284466140000","","false","true",21,26,"1403977894709",2014-06-28 13:51:34,47,0.446808510638298,0.553191489361702
"35","35","Connecticut Ave & Newark St NW / Cleveland Park","31305","1404074326431","38.934267","-77.057979","true","false","1289241840000","","false","true",23,22,"1404073853560",2014-06-29 16:30:53,45,0.511111111111111,0.488888888888889
"36","36","Randle Circle & Minnesota Ave SE","31702","1404074384112","38.878","-76.9607","true","false","1284466200000","","false","true",20,27,"1403930184152",2014-06-28 00:36:24,47,0.425531914893617,0.574468085106383
"37","37","Minnesota Ave Metro/DOES","31703","1404074336185","38.897063","-76.947446","true","false","1284466200000","","false","true",17,29,"1404069053788",2014-06-29 15:10:53,46,0.369565217391304,0.630434782608696
"38","38","Nannie Helen Burroughs & Minnesota Ave NE","31704","1404074219719","38.901385","-76.941877","true","false","1386766320000","1298396940000","false","true",23,22,"1403995482131",2014-06-28 18:44:42,45,0.511111111111111,0.488888888888889
"39","39","Anacostia Metro","31801","1404074354053","38.862669","-76.994637","true","false","1284466260000","","false","true",19,28,"1404071759052",2014-06-29 15:55:59,47,0.404255319148936,0.595744680851064
"40","40","Good Hope Rd & MLK Ave SE","31802","1404074424080","38.867373","-76.988039","true","false","1305288720000","","false","true",21,26,"1404068890309",2014-06-29 15:08:10,47,0.446808510638298,0.553191489361702
"41","41","19th & E Street NW","31206","1404074448414","38.8952","-77.0436","true","false","1284545040000","","false","true",17,29,"1404070022920",2014-06-29 15:27:02,46,0.369565217391304,0.630434782608696
"42","42","4th St & Rhode Island Ave NE","31500","1404074296961","38.919488","-77.000624","true","false","1289970000000","","false","true",22,24,"1404074296097",2014-06-29 16:38:16,46,0.478260869565217,0.521739130434783
"43","43","10th & U St NW","31111","1404074253356","38.9172","-77.0259","true","false","1285822380000","","false","true",13,6,"1404074010308",2014-06-29 16:33:30,19,0.684210526315789,0.315789473684211
"44","44","Georgia Ave and Fairmont St NW","31207","1404074440165","38.9249","-77.0222","true","false","1285041600000","","false","true",3,2,"1404074197391",2014-06-29 16:36:37,5,0.6,0.4
"45","45","1st & N St  SE","31209","1404074357201","38.8743","-77.0057","true","false","1285041600000","","false","true",22,23,"1404074356867",2014-06-29 16:39:16,45,0.488888888888889,0.511111111111111
"46","46","20th St & Florida Ave NW","31110","1404074399533","38.9154","-77.0446","true","false","1285217520000","","false","true",13,6,"1404074398135",2014-06-29 16:39:58,19,0.684210526315789,0.315789473684211
"47","47","7th & T St NW","31109","1404074321298","38.9155","-77.0222","true","false","1285735680000","","false","true",7,2,"1404074078338",2014-06-29 16:34:38,9,0.777777777777778,0.222222222222222
"48","48","23rd & Eads St","31013","1404074415637","38.853613","-77.053535","true","false","1287562620000","","false","true",23,22,"1404073529501",2014-06-29 16:25:29,45,0.511111111111111,0.488888888888889
"49","49","M St & New Jersey Ave SE","31208","1404074364057","38.8763","-77.0037","true","false","1285041600000","","false","true",3,27,"1404072431897",2014-06-29 16:07:11,30,0.1,0.9
"50","51","Massachusetts Ave & Dupont Circle NW","31200","1404074236165","38.9101","-77.0444","true","false","1284523200000","","false","true",2,25,"1404074234505",2014-06-29 16:37:14,27,0.0740740740740741,0.925925925925926
"51","52","1st & M St NE","31603","1404074342760","38.9057","-77.0056","true","false","1287115200000","","false","true",6,13,"1404074341815",2014-06-29 16:39:01,19,0.315789473684211,0.684210526315789
"52","53","21st & M St NW","31212","1404074355726","38.90534","-77.046774","true","false","1285041600000","","false","true",6,27,"1404074354987",2014-06-29 16:39:14,33,0.181818181818182,0.818181818181818
"53","54","17th & K St NW","31213","1404074327291","38.90276","-77.03863","true","false","1306236960000","","false","true",22,5,"1404074325947",2014-06-29 16:38:45,27,0.814814814814815,0.185185185185185
"54","55","3rd & H St NW","31604","1404074449116","38.899408","-77.015289","true","false","1287028800000","","false","true",13,6,"1404074340087",2014-06-29 16:39:00,19,0.684210526315789,0.315789473684211
"55","56","3rd & D St SE","31605","1404074315921","38.8851","-77.0023","true","false","1287201600000","","false","true",21,26,"1404074234416",2014-06-29 16:37:14,47,0.446808510638298,0.553191489361702
"56","57","Potomac & Pennsylvania Ave SE","31606","1404074356091","38.8803","-76.9862","true","false","1287460800000","","false","true",24,26,"1404073630850",2014-06-29 16:27:10,50,0.48,0.52
"57","58","14th & D St SE","31607","1404074424891","38.884","-76.9861","true","false","1287374400000","","false","true",22,29,"1404074182572",2014-06-29 16:36:22,51,0.431372549019608,0.568627450980392
"58","59","17th & Corcoran St NW","31214","1404074381386","38.9121","-77.0387","true","false","1294078980000","","false","true",19,7,"1404074380411",2014-06-29 16:39:40,26,0.730769230769231,0.269230769230769
"59","60","Van Ness Metro / UDC","31300","1404074241479","38.944551","-77.063896","true","false","1289624400000","","false","true",21,30,"1404073820760",2014-06-29 16:30:20,51,0.411764705882353,0.588235294117647
"60","61","Florida Ave & R St NW","31503","1404074315641","38.9126","-77.0135","true","false","1290056400000","","false","true",19,4,"1404073590288",2014-06-29 16:26:30,23,0.826086956521739,0.173913043478261
"61","62","8th & Eye St SE / Barracks Row","31608","1404074348776","38.8792","-76.9953","true","false","1287374400000","","false","true",13,30,"1404069830327",2014-06-29 15:23:50,43,0.302325581395349,0.697674418604651
"62","63","Ward Circle / American University","31301","1404074324083","38.938736","-77.087171","true","false","1289538000000","","false","true",5,22,"1404072509090",2014-06-29 16:08:29,27,0.185185185185185,0.814814814814815
"63","64","Idaho Ave & Newark St NW [on 2nd District patio]","31302","1404074435139","38.934751","-77.074647","true","false","1289970000000","","false","true",1,8,"1404072482705",2014-06-29 16:08:02,9,0.111111111111111,0.888888888888889
"64","65","14th St Heights / 14th & Crittenden St NW","31402","1404074304721","38.947774","-77.032818","true","false","1289970000000","","false","true",20,27,"1404074062340",2014-06-29 16:34:22,47,0.425531914893617,0.574468085106383
"65","66","Anacostia Library","31804","1404074369003","38.865784","-76.9784","true","false","1288584000000","","false","true",21,26,"1403977830846",2014-06-28 13:50:30,47,0.446808510638298,0.553191489361702
"66","67","Pennsylvania & Minnesota Ave SE","31805","1404074413273","38.873057","-76.971015","true","false","1288584000000","","false","true",23,22,"1404067696818",2014-06-29 14:48:16,45,0.511111111111111,0.488888888888889
"67","68","Eastern Market / 7th & North Carolina Ave SE","31610","1404074399522","38.886952","-76.996806","true","false","1282363200000","","false","true",2,7,"1404074398133",2014-06-29 16:39:58,9,0.222222222222222,0.777777777777778
"68","69","McPherson Square / 14th & H St NW","31216","1404074375443","38.899641","-77.032005","true","false","1284436800000","","false","true",23,4,"1404072685466",2014-06-29 16:11:25,27,0.851851851851852,0.148148148148148
"69","70","Benning Branch Library","31705","1404074268003","38.894","-76.947974","true","false","1288584000000","","false","true",19,28,"1403994585514",2014-06-28 18:29:45,47,0.404255319148936,0.595744680851064
"70","71","USDA / 12th & Independence Ave SW","31217","1404074409584","38.887237","-77.028226","true","false","1286297580000","","false","true",18,22,"1404073860717",2014-06-29 16:31:00,40,0.45,0.55
"71","72","Georgetown Harbor / 30th St NW","31215","1404074450439","38.9022212","-77.059219","true","false","1286300580000","","false","true",24,30,"1404074449684",2014-06-29 16:40:49,54,0.444444444444444,0.555555555555556
"72","73","12th & Newton St NE","31501","1404074342379","38.933668","-76.991016","true","false","1286306220000","","false","true",13,30,"1404063585332",2014-06-29 13:39:45,43,0.302325581395349,0.697674418604651
"73","74","US Dept of State / Virginia Ave & 21st St NW","31220","1404074247726","38.894919","-77.046587","true","false","1286661900000","","false","true",17,5,"1404071821697",2014-06-29 15:57:01,22,0.772727272727273,0.227272727272727
"74","75","L'Enfant Plaza / 7th & C St SW","31218","1404074422224","38.886266","-77.022241","true","false","1286410980000","","false","true",20,3,"1404074179720",2014-06-29 16:36:19,23,0.869565217391304,0.130434782608696
"75","76","10th St & Constitution Ave NW","31219","1404074304399","38.893028","-77.026013","true","false","1286497620000","","false","true",14,3,"1404073819790",2014-06-29 16:30:19,17,0.823529411764706,0.176470588235294
"76","77","Kennedy Center","31211","1404074319911","38.895184","-77.054845","true","false","1286325060000","","false","true",2,29,"1404074104759",2014-06-29 16:35:04,31,0.0645161290322581,0.935483870967742
"77","78","Eastern Market Metro / Pennsylvania Ave & 7th St SE","31613","1404074446401","38.884","-76.995397","true","false","1286411820000","","false","true",23,4,"1404074446413",2014-06-29 16:40:46,27,0.851851851851852,0.148148148148148
"78","79","18th & M St NW","31221","1404074271288","38.904742","-77.041606","true","false","1286458140000","","false","true",4,28,"1404072097979",2014-06-29 16:01:37,32,0.125,0.875
"79","80","Tenleytown / Wisconsin Ave & Albemarle St NW","31303","1404074222037","38.947607","-77.079382","true","false","1287150300000","","false","true",7,2,"1404073982040",2014-06-29 16:33:02,9,0.777777777777778,0.222222222222222
"80","81","13th & H St NE","31611","1404074389216","38.9003","-76.9882","true","false","1286547000000","","false","true",15,22,"1404072939940",2014-06-29 16:15:39,37,0.405405405405405,0.594594594594595
"81","82","5th & F St NW","31620","1404074409299","38.897222","-77.019347","true","false","1286492280000","","false","true",13,20,"1404074407834",2014-06-29 16:40:07,33,0.393939393939394,0.606060606060606
"82","83","New York Ave & 15th St NW","31222","1404074446628","38.8991","-77.0337","true","false","1286631960000","","false","true",22,28,"1404074019976",2014-06-29 16:33:39,50,0.44,0.56
"83","84","Convention Center / 7th & M St NW","31223","1404074381386","38.90572","-77.022264","true","false","1286631960000","","false","true",20,7,"1404074380060",2014-06-29 16:39:40,27,0.740740740740741,0.259259259259259
"84","85","Harvard St & Adams Mill Rd NW","31112","1404074352219","38.927872","-77.043358","true","false","1294164840000","","false","true",23,28,"1404073627456",2014-06-29 16:27:07,51,0.450980392156863,0.549019607843137
"85","86","19th & L St NW","31224","1404074244927","38.903407","-77.043648","true","false","1287182880000","","false","true",1,8,"1404072876899",2014-06-29 16:14:36,9,0.111111111111111,0.888888888888889
"86","87","C & O Canal & Wisconsin Ave NW","31225","1404074375299","38.90375","-77.06269","true","false","1287460800000","","false","true",5,3,"1404074373113",2014-06-29 16:39:33,8,0.625,0.375
"87","88","6th & Water St SW / SW Waterfront","31609","1404074426330","38.87675","-77.02127","true","false","1287720000000","","false","true",4,29,"1404072444767",2014-06-29 16:07:24,33,0.121212121212121,0.878787878787879
"88","89","D St & Maryland Ave NE","31612","1404074446621","38.894758","-76.997114","true","false","1330094460000","","false","true",7,30,"1404072030215",2014-06-29 16:00:30,37,0.189189189189189,0.810810810810811
"89","90","34th St & Wisconsin Ave NW","31226","1404074222071","38.916442","-77.0682","true","false","1287182760000","","false","true",22,24,"1404073497728",2014-06-29 16:24:57,46,0.478260869565217,0.521739130434783
"90","91","13th St & New York Ave NW","31227","1404074331369","38.900283","-77.029822","true","false","1287416880000","","false","true",23,8,"1404071674818",2014-06-29 15:54:34,31,0.741935483870968,0.258064516129032
"91","92","8th & H St NW","31228","1404074405115","38.8997","-77.023086","true","false","1287115200000","","false","true",6,10,"1404074404706",2014-06-29 16:40:04,16,0.375,0.625
"92","93","10th & Monroe St NE","31504","1404074325737","38.932514","-76.992889","true","false","1287096120000","","false","true",24,13,"1404066359341",2014-06-29 14:25:59,37,0.648648648648649,0.351351351351351
"93","94","Eckington Pl & Q St NE","31505","1404074234894","38.910972","-77.00495","true","false","1287096120000","","false","true",13,30,"1404074236569",2014-06-29 16:37:16,43,0.302325581395349,0.697674418604651
"94","95","6th & H St NE","31615","1404074442051","38.900384","-76.99831","true","false","1323696720000","","false","true",5,4,"1404074441280",2014-06-29 16:40:41,9,0.555555555555556,0.444444444444444
"95","96","3rd & H St NE","31616","1404074412529","38.900412","-77.001949","true","false","1287096060000","","false","true",5,28,"1404074411166",2014-06-29 16:40:11,33,0.151515151515152,0.848484848484849
"96","97","Bladensburg Rd & Benning Rd NE","31617","1404074360456","38.900413","-76.982872","true","false","1288200360000","","false","true",17,4,"1404073876513",2014-06-29 16:31:16,21,0.80952380952381,0.19047619047619
"97","98","4th & East Capitol St NE","31618","1404074447033","38.889955","-77.000349","true","false","1287028800000","","false","true",13,30,"1404074445966",2014-06-29 16:40:45,43,0.302325581395349,0.697674418604651
"98","99","Lincoln Park / 13th & East Capitol St NE ","31619","1404074253884","38.890461","-76.988355","true","false","1288038900000","","false","true",5,6,"1404074252828",2014-06-29 16:37:32,11,0.454545454545455,0.545454545454545
"99","100","Branch & Pennsylvania Ave SE","31701","1404074221431","38.8692","-76.9599","true","false","1309008600000","","false","true",22,24,"1404045968491",2014-06-29 08:46:08,46,0.478260869565217,0.521739130434783
"100","101","13th & D St NE","31622","1404074356118","38.894832","-76.987633","true","false","1288114080000","","false","true",10,7,"1404074354078",2014-06-29 16:39:14,17,0.588235294117647,0.411764705882353
"101","102","New Hampshire Ave & T St NW","31229","1404074351566","38.91554","-77.03818","true","false","1287178020000","","false","true",22,9,"1404074350732",2014-06-29 16:39:10,31,0.709677419354839,0.290322580645161
"102","103","Metro Center / 12th & G St NW","31230","1404074441764","38.898364","-77.027869","true","false","1305259200000","","false","true",20,19,"1404074199109",2014-06-29 16:36:39,39,0.512820512820513,0.487179487179487
"103","104","14th & D St NW / Ronald Reagan Building","31231","1404074365806","38.894514","-77.031617","true","false","1303306260000","","false","true",13,16,"1404074123372",2014-06-29 16:35:23,29,0.448275862068966,0.551724137931034
"104","105","7th & F St NW / National Portrait Gallery","31232","1404074322194","38.897324","-77.022322","true","false","1304108940000","","false","true",19,6,"1404074321838",2014-06-29 16:38:41,25,0.76,0.24
"105","106","17th & K St NW / Farragut Square","31233","1404074388632","38.902061","-77.038322","true","false","1304022480000","","false","true",24,9,"1404074386662",2014-06-29 16:39:46,33,0.727272727272727,0.272727272727273
"106","107","20th & O St NW / Dupont South","31234","1404074295448","38.908905","-77.04478","true","false","1328850000000","","false","true",22,4,"1404073811628",2014-06-29 16:30:11,26,0.846153846153846,0.153846153846154
"107","108","4th & D St NW / Judiciary Square","31621","1404074349325","38.895344","-77.016106","true","false","1304481600000","","false","true",23,28,"1404071692820",2014-06-29 15:54:52,51,0.450980392156863,0.549019607843137
"108","109","19th St & Constitution Ave NW","31235","1404074455946","38.8923","-77.0436","true","false","1287607080000","","false","true",12,9,"1404073951029",2014-06-29 16:32:31,21,0.571428571428571,0.428571428571429
"109","110","37th & O St NW / Georgetown University","31236","1404074326574","38.90774","-77.071652","true","false","1288037580000","","false","true",2,15,"1404074083933",2014-06-29 16:34:43,17,0.117647058823529,0.882352941176471
"110","111","11th & H St NE","31614","1404074243392","38.899983","-76.991383","true","false","1323666000000","","false","true",19,5,"1404074241883",2014-06-29 16:37:21,24,0.791666666666667,0.208333333333333
"111","112","25th St & Pennsylvania Ave NW","31237","1404074307579","38.903827","-77.053485","true","false","1288551000000","","false","true",20,3,"1404074306652",2014-06-29 16:38:26,23,0.869565217391304,0.130434782608696
"112","113","Columbus Circle / Union Station","31623","1404074256964","38.89696","-77.00493","true","false","1285905600000","","false","true",16,7,"1404074255585",2014-06-29 16:37:35,23,0.695652173913043,0.304347826086957
"113","114","North Capitol St & F St NW","31624","1404074428059","38.897446","-77.009888","true","false","1288122720000","","false","true",17,14,"1404073674305",2014-06-29 16:27:54,31,0.548387096774194,0.451612903225806
"114","115","11th & M St NW","31266","1404074406659","38.905607","-77.027137","true","false","1364995680000","","false","true",13,10,"1404074405092",2014-06-29 16:40:05,23,0.565217391304348,0.434782608695652
"115","116","36th & Calvert St NW / Glover Park","31304","1404074450828","38.922581","-77.070334","true","false","1289236620000","","false","true",4,24,"1404072533775",2014-06-29 16:08:53,28,0.142857142857143,0.857142857142857
"116","117","14th & G St NW","31238","1404074436684","38.898069","-77.031823","true","false","1289237340000","","false","true",24,7,"1404073953335",2014-06-29 16:32:33,31,0.774193548387097,0.225806451612903
"117","118","Potomac Ave & 35th St S","31052","1404074254210","38.844015","-77.050537","true","false","1351092960000","","false","true",19,12,"1404068887765",2014-06-29 15:08:07,31,0.612903225806452,0.387096774193548
"118","124","Ohio Dr & West Basin Dr SW / MLK & FDR Memorials","31240","1404074291534","38.88412","-77.04657","true","false","1331904960000","","false","true",6,3,"1404072548192",2014-06-29 16:09:08,9,0.666666666666667,0.333333333333333
"119","125","11th & F St NW","31262","1404074237928","38.897857","-77.026975","true","false","1359981840000","","false","true",23,28,"1404073549427",2014-06-29 16:25:49,51,0.450980392156863,0.549019607843137
"120","126","23rd & E St NW ","31260","1404074438772","38.896104","-77.049882","true","false","1359652440000","","false","true",20,6,"1404073927463",2014-06-29 16:32:07,26,0.769230769230769,0.230769230769231
"121","127","Lynn & 19th St North","31014","1404074341681","38.897315","-77.070993","true","false","1302957060000","","false","true",21,6,"1404073765136",2014-06-29 16:29:25,27,0.777777777777778,0.222222222222222
"122","128","Rosslyn Metro / Wilson Blvd & Ft Myer Dr","31015","1404072495899","38.8946","-77.072305","true","false","1302957120000","","false","true",21,29,"1404070650550",2014-06-29 15:37:30,50,0.42,0.58
"123","129","Clarendon Blvd & Pierce St","31016","1404074431387","38.893648","-77.076701","true","false","1302957960000","","false","true",13,30,"1404073464442",2014-06-29 16:24:24,43,0.302325581395349,0.697674418604651
"124","130","Court House Metro / Wilson Blvd & N Uhle St","31017","1404074454633","38.891696","-77.0846","true","false","1320933600000","","false","true",23,28,"1404074453565",2014-06-29 16:40:53,51,0.450980392156863,0.549019607843137
"125","131","N Rhodes & 16th St N","31018","1404074353586","38.892164","-77.079375","true","false","1302963480000","","false","true",13,30,"1404070209863",2014-06-29 15:30:09,43,0.302325581395349,0.697674418604651
"126","132","Fairfax Village","31706","1404074358975","38.86559","-76.952103","true","false","1311771600000","","false","true",23,28,"1403957523001",2014-06-28 08:12:03,51,0.450980392156863,0.549019607843137
"127","133","21st St & Constitution Ave NW","31261","1404074435325","38.892459","-77.046567","true","false","1359639120000","","false","true",1,8,"1404073469202",2014-06-29 16:24:29,9,0.111111111111111,0.888888888888889
"128","134","Wilson Blvd & N Edgewood St","31019","1404074253243","38.889","-77.0925","true","false","1321015980000","","false","true",20,3,"1404067736065",2014-06-29 14:48:56,23,0.869565217391304,0.130434782608696
"129","135","Columbia Rd & Belmont St NW","31113","1404074315056","38.920669","-77.04368","true","false","1321625100000","","false","true",19,7,"1404073802948",2014-06-29 16:30:02,26,0.730769230769231,0.269230769230769
"130","136","17th & Rhode Island Ave NW","31239","1404074323097","38.906602","-77.038785","true","false","1321639800000","","false","true",4,5,"1404074322530",2014-06-29 16:38:42,9,0.444444444444444,0.555555555555556
"131","137","Thomas Circle","31241","1404074424224","38.9059","-77.0325","true","false","1321714320000","","false","true",19,21,"1404074422829",2014-06-29 16:40:22,40,0.475,0.525
"132","138","Wilson Blvd & Franklin Rd","31020","1404074353388","38.8904","-77.0889","true","false","1322715600000","","false","true",20,27,"1404070338402",2014-06-29 15:32:18,47,0.425531914893617,0.574468085106383
"133","139","Clarendon Blvd & N Fillmore St","31021","1404074272827","38.8881","-77.09308","true","false","1321981080000","","false","true",23,28,"1404072529487",2014-06-29 16:08:49,51,0.450980392156863,0.549019607843137
"134","140","Clarendon Metro / Wilson Blvd & N Highland St","31022","1404074438426","38.88786","-77.094875","true","false","1321983480000","","false","true",22,3,"1404073471537",2014-06-29 16:24:31,25,0.88,0.12
"135","141","18th St & Pennsylvania Ave NW","31242","1404074241867","38.89968","-77.041539","true","false","1322571600000","","false","true",20,3,"1404073244054",2014-06-29 16:20:44,23,0.869565217391304,0.130434782608696
"136","142","Maryland & Independence Ave SW","31243","1404074391864","38.887299","-77.018939","true","false","1327669020000","","false","true",5,20,"1404074081250",2014-06-29 16:34:41,25,0.2,0.8
"137","143","4th & E St SW","31244","1404074422662","38.88412","-77.017445","true","false","1322756880000","","false","true",24,3,"1404074180474",2014-06-29 16:36:20,27,0.888888888888889,0.111111111111111
"138","144","3rd & G St SE","31625","1404074359235","38.881185","-77.001828","true","false","1322661660000","","false","true",13,9,"1404074117047",2014-06-29 16:35:17,22,0.590909090909091,0.409090909090909
"139","145","7th & R St NW / Shaw Library","31245","1404074217517","38.912719","-77.022155","true","false","1322583120000","","false","true",23,28,"1404074216048",2014-06-29 16:36:56,51,0.450980392156863,0.549019607843137
"140","146","9th & Upshur St NW","31404","1404074282626","38.9418","-77.0251","true","false","1323194880000","","false","true",20,3,"1404073542869",2014-06-29 16:25:42,23,0.869565217391304,0.130434782608696
"141","147","1st & Rhode Island Ave NW","31506","1404074357918","38.915417","-77.012289","true","false","1323178380000","","false","true",17,5,"1404074356482",2014-06-29 16:39:16,22,0.772727272727273,0.227272727272727
"142","148","Columbia Rd & Georgia Ave NW","31115","1404074247250","38.928156","-77.02344","true","false","1323234000000","","false","true",5,27,"1404073305953",2014-06-29 16:21:45,32,0.15625,0.84375
"143","149","California St & Florida Ave NW","31116","1404074387210","38.917761","-77.04062","true","false","1323752400000","","false","true",20,5,"1404074386469",2014-06-29 16:39:46,25,0.8,0.2
"144","150","Benning Rd & East Capitol St NE / Benning Rd Metro","31707","1404074363648","38.889935","-76.93723","true","false","1324404360000","","false","true",8,24,"1403995306267",2014-06-28 18:41:46,32,0.25,0.75
"145","151","3000 Connecticut Ave NW / National Zoo","31307","1404074428069","38.930282","-77.055599","true","false","1324496640000","","false","true",1,8,"1404073773851",2014-06-29 16:29:33,9,0.111111111111111,0.888888888888889
"146","152","Anacostia Ave & Benning Rd NE / River Terrace ","31708","1404074308693","38.896544","-76.96012","true","false","1324402320000","","false","true",23,28,"1404069970750",2014-06-29 15:26:10,51,0.450980392156863,0.549019607843137
"147","153","M St & Pennsylvania Ave NW","31246","1404074434136","38.905126","-77.056887","true","false","1324485480000","","false","true",10,13,"1404074432969",2014-06-29 16:40:32,23,0.434782608695652,0.565217391304348
"148","154","15th St & Massachusetts Ave SE","31626","1404074323657","38.88732","-76.983569","true","false","1324565040000","","false","true",21,30,"1404074322324",2014-06-29 16:38:42,51,0.411764705882353,0.588235294117647
"149","155","Congress Heights Metro","31806","1404074431218","38.844711","-76.987823","true","false","1324581180000","","false","true",3,26,"1403930199465",2014-06-28 00:36:39,29,0.103448275862069,0.896551724137931
"150","156","N Quincy St & Glebe Rd","31035","1404074312486","38.876393","-77.107735","true","false","1335552600000","","false","true",17,29,"1404072046579",2014-06-29 16:00:46,46,0.369565217391304,0.630434782608696
"151","157","Wilson Blvd & N Oakland St","31033","1404074266793","38.8815","-77.10396","true","false","1335387720000","","false","true",22,24,"1404073059071",2014-06-29 16:17:39,46,0.478260869565217,0.521739130434783
"152","158","N Veitch  & 20th St N","31029","1404074365989","38.896923","-77.086502","true","false","1335213360000","","false","true",19,4,"1404072292388",2014-06-29 16:04:52,23,0.826086956521739,0.173913043478261
"153","159","11th & K St NW","31263","1404074438587","38.90268","-77.02674","true","false","1360936140000","","false","true",19,8,"1404073955031",2014-06-29 16:32:35,27,0.703703703703704,0.296296296296296
"154","160","Fairfax Dr & Wilson Blvd","31023","1404074418886","38.885801","-77.097745","true","false","1335545880000","","false","true",17,28,"1404074176661",2014-06-29 16:36:16,45,0.377777777777778,0.622222222222222
"155","161","Key Blvd & N Quinn St","31027","1404074407131","38.896015","-77.078107","true","false","1335195480000","","false","true",20,27,"1404074163778",2014-06-29 16:36:03,47,0.425531914893617,0.574468085106383
"156","162","1st & K St SE","31628","1404074265696","38.87861","-77.006004","true","false","1328717220000","","false","true",4,24,"1404073324999",2014-06-29 16:22:04,28,0.142857142857143,0.857142857142857
"157","163","39th & Calvert St NW / Stoddert","31306","1404074307000","38.922649","-77.077271","true","false","1328898300000","","false","true",3,30,"1404072861716",2014-06-29 16:14:21,33,0.0909090909090909,0.909090909090909
"158","164","1st & Washington Hospital Center NW","31507","1404074341493","38.928743","-77.012457","true","false","1329153540000","","false","true",21,30,"1404069656480",2014-06-29 15:20:56,51,0.411764705882353,0.588235294117647
"159","165","Virginia Square Metro / N Monroe St & 9th St N","31024","1404074268373","38.882788","-77.103148","true","false","1329508980000","","false","true",13,10,"1404072132857",2014-06-29 16:02:12,23,0.565217391304348,0.434782608695652
"160","166","Central Library / N Quincy St & 10th St N","31025","1404074331252","38.88397","-77.10783","true","false","1329493920000","","false","true",17,29,"1404070865831",2014-06-29 15:41:05,46,0.369565217391304,0.630434782608696
"161","167","Washington Blvd & 10th St N","31026","1404074277162","38.884734","-77.093485","true","false","1329944340000","","false","true",13,6,"1404073309844",2014-06-29 16:21:49,19,0.684210526315789,0.315789473684211
"162","168","Jefferson Dr & 14th St SW","31247","1404074298664","38.888553","-77.032429","true","false","1331911860000","","false","true",10,27,"1404074295929",2014-06-29 16:38:15,37,0.27027027027027,0.72972972972973
"163","169","Smithsonian / Jefferson Dr & 12th St SW","31248","1404074327089","38.888767","-77.02858","true","false","1333369620000","","false","true",11,24,"1404074325449",2014-06-29 16:38:45,35,0.314285714285714,0.685714285714286
"164","170","George Mason Dr & Wilson Blvd","31036","1404074241904","38.87887","-77.1207","true","false","1335805380000","","false","true",20,3,"1404070700265",2014-06-29 15:38:20,23,0.869565217391304,0.130434782608696
"165","171","6th St & Indiana Ave NW","31264","1404074364354","38.894573","-77.01994","true","false","1364990040000","","false","true",22,4,"1404074121722",2014-06-29 16:35:21,26,0.846153846153846,0.153846153846154
"166","172","N Veitch & Key Blvd","31028","1404074387368","38.893241","-77.086045","true","false","1335202980000","","false","true",13,30,"1404074144731",2014-06-29 16:35:44,43,0.302325581395349,0.697674418604651
"167","173","N Adams St & Lee Hwy","31030","1404074270468","38.89593","-77.089006","true","false","1335369060000","","false","true",13,6,"1404074270193",2014-06-29 16:37:50,19,0.684210526315789,0.315789473684211
"168","174","15th & N Scott St","31031","1404074371368","38.89054","-77.08095","true","false","1335362100000","","false","true",2,3,"1404072921854",2014-06-29 16:15:21,5,0.4,0.6
"169","175","Washington Blvd & 7th St N","31032","1404074456474","38.880834","-77.091129","true","false","1335794400000","","false","true",2,3,"1404072166050",2014-06-29 16:02:46,5,0.4,0.6
"170","176","Ballston Metro / N Stuart & 9th St N","31037","1404074326072","38.881044","-77.111768","true","false","1335817440000","","false","true",20,7,"1404073359815",2014-06-29 16:22:39,27,0.740740740740741,0.259259259259259
"171","177","N Randolph St & Fairfax Dr","31034","1404074281656","38.882629","-77.109366","true","false","1335542580000","","false","true",23,22,"1404073315446",2014-06-29 16:21:55,45,0.511111111111111,0.488888888888889
"172","178","Jefferson Memorial","31249","1404074450467","38.879819","-77.037413","true","false","1335969180000","","false","true",6,3,"1404073966093",2014-06-29 16:32:46,9,0.666666666666667,0.333333333333333
"173","179","Good Hope Rd & 14th St SE","31803","1404074308280","38.866611","-76.985238","true","false","1335981060000","","false","true",3,26,"1404031972527",2014-06-29 04:52:52,29,0.103448275862069,0.896551724137931
"174","180","Glebe Rd & 11th St N","31038","1404074389704","38.883921","-77.116817","true","false","1337269200000","","false","true",24,13,"1404066049085",2014-06-29 14:20:49,37,0.648648648648649,0.351351351351351
"175","181","N Quincy St & Wilson Blvd","31039","1404074309573","38.880151","-77.107673","true","false","1338301620000","","false","true",17,28,"1404069378327",2014-06-29 15:16:18,45,0.377777777777778,0.622222222222222
"176","182","Fairfax Dr & Kenmore St","31040","1404074357726","38.884616","-77.10108","true","false","1366814880000","","false","true",19,28,"1404073631827",2014-06-29 16:27:11,47,0.404255319148936,0.595744680851064
"177","183","Gallaudet / 8th St & Florida Ave NE","31508","1404074417843","38.90509","-76.9941","true","false","1342033620000","","false","true",20,7,"1404071730893",2014-06-29 15:55:30,27,0.740740740740741,0.259259259259259
"178","185","20th & L St NW","31250","1404074424285","38.903584","-77.044789","true","false","1340632500000","","false","true",20,6,"1404073939719",2014-06-29 16:32:19,26,0.769230769230769,0.230769230769231
"179","186","12th & L St NW","31251","1404074301411","38.903819","-77.0284","true","false","1340639640000","","false","true",1,12,"1404074299928",2014-06-29 16:38:19,13,0.0769230769230769,0.923076923076923
"180","187","21st St & Pennsylvania Ave NW","31252","1404074232750","38.901539","-77.046564","true","false","1340811180000","","false","true",19,8,"1404072884988",2014-06-29 16:14:44,27,0.703703703703704,0.296296296296296
"181","188","19th & K St NW","31253","1404074403787","38.902204","-77.04337","true","false","1340801880000","","false","true",1,16,"1404073678881",2014-06-29 16:27:58,17,0.0588235294117647,0.941176470588235
"182","189","Prince St & Union St","31041","1404074393560","38.803124","-77.040363","true","false","1346070420000","","false","true",3,28,"1404073667947",2014-06-29 16:27:47,31,0.0967741935483871,0.903225806451613
"183","190","Market Square / King St & Royal St","31042","1404074233823","38.804718","-77.043363","true","false","1346077680000","","false","true",23,28,"1404072543231",2014-06-29 16:09:03,51,0.450980392156863,0.549019607843137
"184","191","Saint Asaph St & Pendleton  St","31043","1404074367937","38.810743","-77.044664","true","false","1346084880000","","false","true",22,29,"1404074125705",2014-06-29 16:35:25,51,0.431372549019608,0.568627450980392
"185","192","King St & Patrick St","31044","1404074378118","38.805317","-77.049883","true","false","1346442900000","","false","true",22,29,"1404073170477",2014-06-29 16:19:30,51,0.431372549019608,0.568627450980392
"186","193","15th & K St NW","31254","1404074223909","38.902","-77.03353","true","false","1341232920000","","false","true",17,9,"1404072725829",2014-06-29 16:12:05,26,0.653846153846154,0.346153846153846
"187","194","Commerce St & Fayette St","31045","1404074428714","38.805648","-77.05293","true","false","1346442960000","","false","true",22,29,"1404072750113",2014-06-29 16:12:30,51,0.431372549019608,0.568627450980392
"188","195","Henry St & Pendleton St","31046","1404074428828","38.811456","-77.050276","true","false","1346442960000","","false","true",21,30,"1404071161080",2014-06-29 15:46:01,51,0.411764705882353,0.588235294117647
"189","196","Braddock Rd Metro","31047","1404074367530","38.814577","-77.052808","true","false","1346442960000","","false","true",10,13,"1404070149516",2014-06-29 15:29:09,23,0.434782608695652,0.565217391304348
"190","197","King St Metro","31048","1404074374396","38.805767","-77.06072","true","false","1346443020000","","false","true",9,22,"1404071747310",2014-06-29 15:55:47,31,0.290322580645161,0.709677419354839
"191","198","24th & N St NW","31255","1404074451371","38.9066","-77.05152","true","false","1341575340000","","false","true",8,1,"1404073411400",2014-06-29 16:23:31,9,0.888888888888889,0.111111111111111
"192","199","10th & E St NW","31256","1404074403825","38.895914","-77.026064","true","false","1342109700000","","false","true",8,1,"1404074403400",2014-06-29 16:40:03,9,0.888888888888889,0.111111111111111
"193","200","22nd & I St NW / Foggy Bottom","31257","1404074444436","38.90088","-77.048911","true","false","1342442220000","","false","true",3,26,"1404074025397",2014-06-29 16:33:45,29,0.103448275862069,0.896551724137931
"194","201","Utah St & 11th St N ","31049","1404074236641","38.883669","-77.113905","true","false","1342539420000","","false","true",13,30,"1404073753093",2014-06-29 16:29:13,43,0.302325581395349,0.697674418604651
"195","202","Barton St & 10th St N","31050","1404074314828","38.884961","-77.08777","true","false","1346771820000","","false","true",1,3,"1404073348438",2014-06-29 16:22:28,4,0.25,0.75
"196","203","Arlington Blvd & N Queen St","31051","1404074308111","38.889365","-77.077294","true","false","1346776740000","","false","true",24,13,"1404065324613",2014-06-29 14:08:44,37,0.648648648648649,0.351351351351351
"197","204","Lincoln Memorial","31258","1404074447447","38.888251","-77.049426","true","false","1349268360000","","false","true",20,14,"1404074446577",2014-06-29 16:40:46,34,0.588235294117647,0.411764705882353
"198","206","20th St & Virginia Ave NW","31259","1404074350666","38.894722","-77.045128","true","false","1359646980000","","false","true",2,7,"1404061479388",2014-06-29 13:04:39,9,0.222222222222222,0.777777777777778
"199","207","5th St & Massachusetts Ave NW","31265","1404074305392","38.90093","-77.018677","true","false","1367842440000","","false","true",5,27,"1404074063034",2014-06-29 16:34:23,32,0.15625,0.84375
"200","208","39th & Veazey St NW","31308","1404074448391","38.943837","-77.077078","true","false","1360598160000","","false","true",22,29,"1404074308277",2014-06-29 16:38:28,51,0.431372549019608,0.568627450980392
"201","209","Fessenden St & Wisconsin Ave NW","31309","1404074372702","38.954812","-77.082426","true","false","1360588560000","","false","true",2,7,"1404074130092",2014-06-29 16:35:30,9,0.222222222222222,0.777777777777778
"202","210","M St & Delaware Ave NE","31627","1404074345129","38.905707","-77.003041","true","false","1360929900000","","false","true",17,14,"1404074343749",2014-06-29 16:39:03,31,0.548387096774194,0.451612903225806
"203","211","Columbia Pike & S Courthouse Rd","31053","1404074346899","38.863833","-77.080319","true","false","1364482620000","","false","true",17,5,"1404072655252",2014-06-29 16:10:55,22,0.772727272727273,0.227272727272727
"204","212","Walter Reed Community Center / Walter Reed Dr & 16th St S","31054","1404074277442","38.857803","-77.086733","true","false","1364466180000","","false","true",20,27,"1404052081162",2014-06-29 10:28:01,47,0.425531914893617,0.574468085106383
"205","213","28th St S & S Meade St","31055","1404074277121","38.846222","-77.069275","true","false","1364476320000","","false","true",22,29,"1404073065471",2014-06-29 16:17:45,51,0.431372549019608,0.568627450980392
"206","214","18th St & Wyoming Ave NW","31114","1404074278005","38.918809","-77.041571","true","false","1365003300000","","false","true",1,15,"1404073929330",2014-06-29 16:32:09,16,0.0625,0.9375
"207","215","5th & Kennedy St NW","31403","1404074236430","38.956595","-77.019815","true","false","1365777420000","","false","true",24,27,"1404069845285",2014-06-29 15:24:05,51,0.470588235294118,0.529411764705882
"208","216","Georgia Ave & Emerson St NW","31405","1404074287955","38.949662","-77.027333","true","false","1365783540000","","false","true",22,5,"1404060447335",2014-06-29 12:47:27,27,0.814814814814815,0.185185185185185
"209","217","14th & Upshur St NW","31406","1404074234121","38.942016","-77.032652","true","false","1365794820000","","false","true",4,29,"1404074233207",2014-06-29 16:37:13,33,0.121212121212121,0.878787878787879
"210","218","14th St & Colorado Ave NW","31407","1404074322981","38.956432","-77.032947","true","false","1365798900000","","false","true",7,26,"1404070398451",2014-06-29 15:33:18,33,0.212121212121212,0.787878787878788
"211","219","S Troy St & 26th St S","31056","1404074312917","38.847977","-77.075104","true","false","1366725840000","","false","true",19,28,"1404072884646",2014-06-29 16:14:44,47,0.404255319148936,0.595744680851064
"212","220","S Four Mile Run Dr & S Shirlington Rd","31057","1404074318700","38.8444","-77.085931","true","false","1366729200000","","false","true",23,22,"1404052385610",2014-06-29 10:33:05,45,0.511111111111111,0.488888888888889
"213","221","S Oakland St & Columbia Pike","31058","1404074391864","38.860789","-77.09586","true","false","1366735380000","","false","true",20,27,"1403996635973",2014-06-28 19:03:55,47,0.425531914893617,0.574468085106383
"214","222","S Abingdon St & 36th St S","31059","1404074403651","38.835213","-77.094295","true","false","1366739700000","","false","true",17,29,"1404073679661",2014-06-29 16:27:59,46,0.369565217391304,0.630434782608696
"215","223","S Arlington Mill Dr & Campbell Ave","31060","1404074234688","38.84232","-77.089555","true","false","1366802400000","","false","true",23,27,"1404073991644",2014-06-29 16:33:11,50,0.46,0.54
"216","224","S Kenmore & 24th St S","31061","1404074224536","38.848454","-77.084918","true","false","1366825140000","","false","true",22,24,"1404039938691",2014-06-29 07:05:38,46,0.478260869565217,0.521739130434783
"217","225","13th St & Eastern Ave","32006","1404074446860","38.987","-77.029417","true","false","1380292680000","","false","true",24,27,"1404064075926",2014-06-29 13:47:55,51,0.470588235294118,0.529411764705882
"218","226","Wisconsin Ave & O St NW","31312","1404074261140","38.90849","-77.063586","true","false","1366910820000","","false","true",7,26,"1404073630444",2014-06-29 16:27:10,33,0.212121212121212,0.787878787878788
"219","227","S George Mason Dr & 13th St S","31062","1404074380672","38.854691","-77.100555","true","false","1372694040000","","false","true",20,27,"1403970919411",2014-06-28 11:55:19,47,0.425531914893617,0.574468085106383
"220","228","Connecticut & Nebraska Ave NW","31310","1404074240869","38.955016","-77.069956","true","false","1366894140000","","false","true",20,11,"1404073032368",2014-06-29 16:17:12,31,0.645161290322581,0.354838709677419
"221","229","17th St & Massachusetts Ave NW","31267","1404074306772","38.908142","-77.038359","true","false","1367851920000","","false","true",13,10,"1404074306037",2014-06-29 16:38:26,23,0.565217391304348,0.434782608695652
"222","230","15th & Euclid St  NW","31117","1404074413212","38.92333","-77.0352","true","false","1367856780000","","false","true",13,5,"1404074171439",2014-06-29 16:36:11,18,0.722222222222222,0.277777777777778
"223","231","8th & East Capitol St NE","31629","1404074318339","38.889988","-76.995193","true","false","1368545580000","","false","true",2,3,"1404073839577",2014-06-29 16:30:39,5,0.4,0.6
"224","232","New Jersey Ave & R St NW","31509","1404074355222","38.912659","-77.017669","true","false","1368532680000","","false","true",8,1,"1404071093489",2014-06-29 15:44:53,9,0.888888888888889,0.111111111111111
"225","233","15th & East Capitol St NE","31630","1404074346795","38.889908","-76.983326","true","false","1368541260000","","false","true",19,26,"1404074251053",2014-06-29 16:37:31,45,0.422222222222222,0.577777777777778
"226","234","8th & F St NE","31631","1404074310554","38.897274","-76.994749","true","false","1368552540000","","false","true",21,30,"1404073831828",2014-06-29 16:30:31,51,0.411764705882353,0.588235294117647
"227","235","18th St & Rhode Island Ave NE","31510","1404074429339","38.927095","-76.978924","true","false","1369915500000","","false","true",24,27,"1404000273103",2014-06-28 20:04:33,51,0.470588235294118,0.529411764705882
"228","236","15th & F St NE","31632","1404074301845","38.897195","-76.983575","true","false","1369928820000","","false","true",19,8,"1404072405066",2014-06-29 16:06:45,27,0.703703703703704,0.296296296296296
"229","237","12th & Irving St NE","31511","1404074438479","38.928644","-76.990955","true","false","1369923120000","","false","true",4,24,"1404074428410",2014-06-29 16:40:28,28,0.142857142857143,0.857142857142857
"230","238","34th St & Minnesota Ave SE","31709","1404074282963","38.884085","-76.957461","true","false","1370358840000","","false","true",19,27,"1404069723225",2014-06-29 15:22:03,46,0.41304347826087,0.58695652173913
"231","239","Alabama & MLK Ave SE","31800","1404074455526","38.843222","-76.999388","true","false","1370345160000","","false","true",20,27,"1403930198515",2014-06-28 00:36:38,47,0.425531914893617,0.574468085106383
"232","240","Pleasant St & MLK Ave SE","31807","1404074428299","38.863897","-76.990037","true","false","1370351820000","","false","true",19,28,"1403992002817",2014-06-28 17:46:42,47,0.404255319148936,0.595744680851064
"233","241","Neal St & Trinidad Ave NE","31512","1404074347913","38.903732","-76.987211","true","false","1371221640000","","false","true",2,7,"1404070055829",2014-06-29 15:27:35,9,0.222222222222222,0.777777777777778
"234","242","13th & U St NW","31268","1404074322721","38.916794","-77.029779","true","false","1371231240000","","false","true",20,10,"1404073725046",2014-06-29 16:28:45,30,0.666666666666667,0.333333333333333
"235","243","S George Mason Dr & Four Mile Run","31063","1404074395327","38.852248","-77.105022","true","false","1372690500000","","false","true",22,24,"1404067122874",2014-06-29 14:38:42,46,0.478260869565217,0.521739130434783
"236","244","S Stafford & 34th St S","31064","1404074346636","38.834108","-77.087323","true","false","1372701360000","","false","true",21,30,"1404068514878",2014-06-29 15:01:54,51,0.411764705882353,0.588235294117647
"237","245","N Pershing Dr & Wayne St","31065","1404074448311","38.880705","-77.08596","true","false","1372680300000","","false","true",1,4,"1404074109175",2014-06-29 16:35:09,5,0.2,0.8
"238","246","Columbia Pike & S Orme St","31066","1404074420634","38.867262","-77.072315","true","false","1372684620000","","false","true",13,30,"1404072971085",2014-06-29 16:16:11,43,0.302325581395349,0.697674418604651
"239","247","3rd St & Pennsylvania Ave SE","31269","1404074445002","38.887378","-77.001955","true","false","1374598740000","","false","true",1,8,"1404072968061",2014-06-29 16:16:08,9,0.111111111111111,0.888888888888889
"240","248","8th & D St NW","31270","1404074430900","38.894851","-77.02324","true","false","1374581640000","","false","true",3,22,"1404074353619",2014-06-29 16:39:13,25,0.12,0.88
"241","249","3rd & Elm St NW","31118","1404074229878","38.917622","-77.01597","true","false","1374589740000","","false","true",1,7,"1404066637332",2014-06-29 14:30:37,8,0.125,0.875
"242","250","Rhode Island Ave & V St NE","31513","1404074426525","38.918155","-77.004746","true","false","1375196700000","","false","true",22,5,"1404071655580",2014-06-29 15:54:15,27,0.814814814814815,0.185185185185185
"243","251","Constitution Ave & 2nd St NW/DOL","31271","1404074453908","38.892275","-77.013917","true","false","1375190280000","","false","true",9,4,"1404074453350",2014-06-29 16:40:53,13,0.692307692307692,0.307692307692308
"244","252","Washington & Independence Ave SW/HHS","31272","1404074415568","38.88731","-77.01397","true","false","1375445040000","","false","true",23,9,"1404074414302",2014-06-29 16:40:14,32,0.71875,0.28125
"245","253","Independence Ave & L'Enfant Plaza SW/DOE","31633","1404074448648","38.887397","-77.026154","true","false","1375789680000","","false","true",23,28,"1404074122951",2014-06-29 16:35:22,51,0.450980392156863,0.549019607843137
"246","254","Hamlin & 7th St NE","31514","1404074382499","38.927497","-76.997194","true","false","1376653440000","","false","true",21,30,"1404044295592",2014-06-29 08:18:15,51,0.411764705882353,0.588235294117647
"247","255","Columbia Pike & S Walter Reed Dr","31067","1404074411003","38.862478","-77.086599","true","false","1377605340000","","false","true",2,3,"1404066663942",2014-06-29 14:31:03,5,0.4,0.6
"248","256","Columbia Pike & S Dinwiddie St / Arlington Mill Community Center","31068","1404074367212","38.856319","-77.11153","true","false","1377776460000","","false","true",13,5,"1404074124280",2014-06-29 16:35:24,18,0.722222222222222,0.277777777777778
"249","257","Pershing & N George Mason Dr","31069","1404074285870","38.871822","-77.107906","true","false","1377792000000","","false","true",19,28,"1404066903265",2014-06-29 14:35:03,47,0.404255319148936,0.595744680851064
"250","258","Fenton St & New York Ave ","32001","1404074401427","38.985404","-77.023082","true","false","1380292620000","","false","true",21,30,"1404059292009",2014-06-29 12:28:12,51,0.411764705882353,0.588235294117647
"251","259","Bethesda Ave & Arlington Blvd","32002","1404074309427","38.981103","-77.097426","true","false","1380292620000","","false","true",20,7,"1404072143117",2014-06-29 16:02:23,27,0.740740740740741,0.259259259259259
"252","260","Montgomery Ave & Waverly St ","32003","1404074345622","38.983838","-77.09221","true","false","1382208480000","","false","true",19,28,"1404016664004",2014-06-29 00:37:44,47,0.404255319148936,0.595744680851064
"253","261","Fallsgrove Blvd & Fallsgrove Dr","32004","1404074348324","39.096312","-77.192672","true","false","1380292620000","","false","true",24,3,"1404069542809",2014-06-29 15:19:02,27,0.888888888888889,0.111111111111111
"254","262","Traville Gateway Dr & Gudelsky Dr","32005","1404074429597","39.093783","-77.202501","true","false","1380292680000","","false","true",23,4,"1403963181008",2014-06-28 09:46:21,27,0.851851851851852,0.148148148148148
"255","263","Norfolk Ave & Fairmont St","32000","1404074385372","38.988562","-77.096539","true","false","1380292560000","","false","true",20,26,"1404071724514",2014-06-29 15:55:24,46,0.434782608695652,0.565217391304348
"256","264","E Montgomery Ave & Maryland Ave","32007","1404074215388","39.084125","-77.151291","true","false","1380292560000","","false","true",19,3,"1404052839590",2014-06-29 10:40:39,22,0.863636363636364,0.136363636363636
"257","265","Cordell & Norfolk Ave","32008","1404074328716","38.98954","-77.098029","true","false","1380292740000","","false","true",21,26,"1404070908939",2014-06-29 15:41:48,47,0.446808510638298,0.553191489361702
"258","266","Frederick Ave & Horners Ln","32009","1404074327515","39.094772","-77.145213","true","false","1380292740000","","false","true",19,28,"1403994933391",2014-06-28 18:35:33,47,0.404255319148936,0.595744680851064
"259","267","Philadelphia & Maple Ave","32010","1404074400928","38.98128","-77.011336","true","false","1380292740000","","false","true",23,28,"1404063786507",2014-06-29 13:43:06,51,0.450980392156863,0.549019607843137
"260","268","Maple & Ritchie Ave","32011","1404074351994","38.983627","-77.006311","true","false","1380292800000","","false","true",3,30,"1404061327787",2014-06-29 13:02:07,33,0.0909090909090909,0.909090909090909
"261","269","Silver Spring Metro/Colesville Rd & Wayne Ave","32012","1404074287067","38.99521","-77.02918","true","false","1380292800000","","false","true",22,5,"1404063767901",2014-06-29 13:42:47,27,0.814814814814815,0.185185185185185
"262","270","Montgomery & East Ln","32013","1404074234350","38.983525","-77.095367","true","false","1380292800000","","false","true",20,27,"1404071336629",2014-06-29 15:48:56,47,0.425531914893617,0.574468085106383
"263","271","Friendship Hts Metro/Wisconsin Ave & Wisconsin Cir","32014","1404074427656","38.961763","-77.085998","true","false","1380292860000","","false","true",17,9,"1404071078089",2014-06-29 15:44:38,26,0.653846153846154,0.346153846153846
"264","272","14th & Belmont St NW","31119","1404074264407","38.921074","-77.031887","true","false","1380719160000","","false","true",17,5,"1404072815566",2014-06-29 16:13:35,22,0.772727272727273,0.227272727272727
"265","273","3rd & Tingey St SE","31634","1404074417516","38.87501","-77.0024","true","false","1380722700000","","false","true",5,28,"1404074416729",2014-06-29 16:40:16,33,0.151515151515152,0.848484848484849
"266","274","10th & Florida Ave NW","31120","1404074228348","38.920387","-77.025672","true","false","1381320720000","","false","true",20,7,"1404073985646",2014-06-29 16:33:05,27,0.740740740740741,0.259259259259259
"267","275","Potomac Ave & 8th St SE","31635","1404074391052","38.876737","-76.994468","true","false","1381333800000","","false","true",21,29,"1404073900980",2014-06-29 16:31:40,50,0.42,0.58
"268","276","Crabbs Branch Way & Redland Rd","32015","1404074361264","39.120045","-77.156985","true","false","1382100480000","","false","true",22,29,"1404000661586",2014-06-28 20:11:01,51,0.431372549019608,0.568627450980392
"269","277","Fallsgrove Dr & W Montgomery Ave","32016","1404074414212","39.099376","-77.188014","true","false","1382120580000","","false","true",3,26,"1403930178534",2014-06-28 00:36:18,29,0.103448275862069,0.896551724137931
"270","278","Monroe St & Monroe Pl","32017","1404074357907","39.083705","-77.149443","true","false","1383309240000","","false","true",23,27,"1403990546804",2014-06-28 17:22:26,50,0.46,0.54
"271","279","Needwood Rd & Eagles Head Ct","32018","1404074291380","39.123513","-77.15741","true","false","1382107020000","","false","true",21,30,"1404016662389",2014-06-29 00:37:42,51,0.411764705882353,0.588235294117647
"272","280","East West Hwy & Blair Mill Rd","32019","1404074267212","38.990249","-77.02935","true","false","1383148920000","","false","true",20,3,"1404073612167",2014-06-29 16:26:52,23,0.869565217391304,0.130434782608696
"273","281","Crabbs Branch Way & Calhoun Pl","32020","1404074407536","39.107709","-77.152072","true","false","1382111460000","","false","true",20,3,"1403930178845",2014-06-28 00:36:18,23,0.869565217391304,0.130434782608696
"274","282","47th & Elm St","32021","1404074218795","38.982456","-77.091991","true","false","1382208540000","","false","true",21,30,"1404071152486",2014-06-29 15:45:52,51,0.411764705882353,0.588235294117647
"275","283","Garland Ave & Walden Rd","32022","1404074326438","39.000578","-77.00149","true","false","1383059580000","","false","true",23,28,"1403968252725",2014-06-28 11:10:52,51,0.450980392156863,0.549019607843137
"276","284","Montgomery College/W Campus Dr & Mannakee St","32023","1404074355214","39.095661","-77.159048","true","false","1382199120000","","false","true",4,3,"1403989978692",2014-06-28 17:12:58,7,0.571428571428571,0.428571428571429
"277","285","Fenton St & Gist Ave","32024","1404074363444","38.989724","-77.023854","true","false","1383054960000","","false","true",17,29,"1404068521831",2014-06-29 15:02:01,46,0.369565217391304,0.630434782608696
"278","286","Carroll & Westmoreland Ave","32025","1404074329977","38.975","-77.01121","true","false","1383065460000","","false","true",22,29,"1404072757570",2014-06-29 16:12:37,51,0.431372549019608,0.568627450980392
"279","287","Carroll & Ethan Allen Ave","32026","1404074366988","38.977933","-77.006472","true","false","1383070440000","","false","true",23,28,"1404041288163",2014-06-29 07:28:08,51,0.450980392156863,0.549019607843137
"280","288","Battery Ln & Trolley Trail","32027","1404074276951","38.992375","-77.100104","true","false","1382712300000","","false","true",22,29,"1404067812977",2014-06-29 14:50:12,51,0.431372549019608,0.568627450980392
"281","289","Norfolk & Rugby Ave","32028","1404074367476","38.990639","-77.100239","true","false","1382715180000","","false","true",21,26,"1404069889496",2014-06-29 15:24:49,47,0.446808510638298,0.553191489361702
"282","290","Offutt Ln & Chevy Chase Dr","32029","1404074329341","38.977093","-77.094589","true","false","1382722080000","","false","true",20,27,"1404069549127",2014-06-29 15:19:09,47,0.425531914893617,0.574468085106383
"283","291","Broschart & Blackwell Rd","32030","1404074389440","39.102099","-77.200322","true","false","1382798640000","","false","true",22,29,"1403930182002",2014-06-28 00:36:22,51,0.431372549019608,0.568627450980392
"284","292","Taft St & E Gude Dr","32031","1404074376518","39.094103","-77.132954","true","false","1382804520000","","false","true",21,30,"1403930178443",2014-06-28 00:36:18,51,0.411764705882353,0.588235294117647
"285","293","Fleet St & Ritchie Pkwy","32032","1404074325632","39.076331","-77.141378","true","false","1382809500000","","false","true",24,27,"1403990890898",2014-06-28 17:28:10,51,0.470588235294118,0.529411764705882
"286","294","Piccard & W Gude Dr","32033","1404074383313","39.102212","-77.177091","true","false","1382795700000","","false","true",3,30,"1404069038711",2014-06-29 15:10:38,33,0.0909090909090909,0.909090909090909
"287","295","Ripley & Bonifant St","32034","1404074444072","38.992679","-77.029457","true","false","1383141360000","","false","true",21,30,"1404058536988",2014-06-29 12:15:36,51,0.411764705882353,0.588235294117647
"288","296","Georgia Ave & Spring St","32035","1404074340249","38.999388","-77.031555","true","false","1383146520000","","false","true",19,27,"1404072000770",2014-06-29 16:00:00,46,0.41304347826087,0.58695652173913
"289","297","Fenton St & Ellsworth Dr ","32036","1404074245864","38.997033","-77.025608","true","false","1383135960000","","false","true",23,28,"1404072275896",2014-06-29 16:04:35,51,0.450980392156863,0.549019607843137
"290","298","King Farm Blvd & Pleasant Dr","32037","1404074433317","39.114688","-77.171487","true","false","1383323580000","","false","true",3,29,"1404053484125",2014-06-29 10:51:24,32,0.09375,0.90625
"291","299","King Farm Blvd & Piccard Dr","32038","1404074397933","39.110314","-77.182669","true","false","1383318120000","","false","true",22,29,"1404052726109",2014-06-29 10:38:46,51,0.431372549019608,0.568627450980392
"292","301","Calvert St & Woodley Pl NW","31121","1404074393274","38.923583","-77.050046","true","false","1383657120000","","false","true",1,10,"1404073667798",2014-06-29 16:27:47,11,0.0909090909090909,0.909090909090909
"293","302","New Jersey Ave & N St NW/Dunbar HS","31636","1404074226789","38.90706","-77.015231","true","false","1383662880000","","false","true",20,7,"1404073585962",2014-06-29 16:26:25,27,0.740740740740741,0.259259259259259
"294","303","Nannie Helen Burroughs Ave & 49th St NE","31710","1404074304190","38.898536","-76.931862","true","false","1383923280000","","false","true",22,24,"1404017802974",2014-06-29 00:56:42,46,0.478260869565217,0.521739130434783
"295","304","Deanwood Rec Center","31711","1404074281656","38.908473","-76.933099","true","false","1383923280000","","false","true",23,28,"1404047675064",2014-06-29 09:14:35,51,0.450980392156863,0.549019607843137
"296","305","Hains Point/Buckeye & Ohio Dr SW","31273","1404074289268","38.878433","-77.03023","true","false","1383929160000","","false","true",21,4,"1404074287869",2014-06-29 16:38:07,25,0.84,0.16
"297","306","Arlington Blvd & Fillmore St","31070","1404074264320","38.873755","-77.089233","true","false","1384527780000","","false","true",20,27,"1404059573843",2014-06-29 12:32:53,47,0.425531914893617,0.574468085106383
"298","307","Long Bridge Park/Long Bridge Dr & 6th St S","31071","1404074428506","38.86646","-77.04826","true","false","1384520760000","","false","true",24,27,"1404064862044",2014-06-29 14:01:02,51,0.470588235294118,0.529411764705882
"299","308","Old Georgetown Rd & Southwick St","32039","1404074447921","38.999634","-77.109647","true","false","1384367940000","","false","true",3,30,"1404061344145",2014-06-29 13:02:24,33,0.0909090909090909,0.909090909090909
"300","309","Friendship Blvd & Willard Ave","32040","1404074246500","38.96115","-77.088659","true","false","1384355760000","","false","true",21,6,"1404074004486",2014-06-29 16:33:24,27,0.777777777777778,0.222222222222222
"301","310","North Capitol St & G Pl NE","31637","1404074262251","38.899703","-77.008911","true","false","1386954360000","","false","true",13,10,"1404069539173",2014-06-29 15:18:59,23,0.565217391304348,0.434782608695652
"302","311","31st & Woodrow St S","31072","1404074454407","38.837666","-77.09482","true","false","1387298640000","","false","true",20,27,"1403953943841",2014-06-28 07:12:23,47,0.425531914893617,0.574468085106383
"303","312","Washington Blvd & Walter Reed Dr ","31073","1404074216700","38.873219","-77.082104","true","false","1387287180000","","false","true",21,30,"1404066890449",2014-06-29 14:34:50,51,0.411764705882353,0.588235294117647
"304","313","Thomas Jefferson Cmty Ctr / 2nd St S & Ivy","31074","1404074338602","38.869675","-77.093586","true","false","1386774900000","","false","true",13,29,"1404071465337",2014-06-29 15:51:05,42,0.30952380952381,0.69047619047619
"305","314","Connecticut Ave & Tilden St NW","31313","1404074285751","38.941154","-77.062036","true","false","1386954480000","","false","true",21,29,"1404074284696",2014-06-29 16:38:04,50,0.42,0.58
"306","315","Medical Center Dr & Key West Ave","32041","1404074246965","39.103091","-77.196442","true","false","1389273960000","","false","true",22,29,"1403962254511",2014-06-28 09:30:54,51,0.431372549019608,0.568627450980392
"307","316","Shady Grove Hospital","32042","1404074410168","39.097636","-77.196636","true","false","1389287040000","","false","true",24,3,"1403930192762",2014-06-28 00:36:32,27,0.888888888888889,0.111111111111111
"308","317","Veterans Pl & Pershing Dr ","32043","1404074231383","38.997445","-77.023894","true","false","1391876460000","","false","true",20,27,"1403974023291",2014-06-28 12:47:03,47,0.425531914893617,0.574468085106383
"309","318","Rockville Metro East","32044","1404074416297","39.085394","-77.145803","true","false","1393000800000","","false","true",23,26,"1404070382209",2014-06-29 15:33:02,49,0.469387755102041,0.530612244897959
"310","319","1st & H St NW","31638","1404074271241","38.900358","-77.012108","true","false","1392727500000","","false","true",20,3,"1404073304426",2014-06-29 16:21:44,23,0.869565217391304,0.130434782608696
"311","320","Fort Totten Metro","31515","1404074383071","38.952369","-77.002721","true","false","1392825840000","","false","true",19,5,"1404074381176",2014-06-29 16:39:41,24,0.791666666666667,0.208333333333333
"312","321","Takoma Metro","31408","1404074372951","38.975219","-77.016855","true","false","1392833400000","","false","true",4,29,"1404073405648",2014-06-29 16:23:25,33,0.121212121212121,0.878787878787879
"313","322","Rhode Island Ave Metro","31516","1404074295961","38.920682","-76.995876","true","false","1393259520000","","false","true",24,3,"1404068639677",2014-06-29 15:03:59,27,0.888888888888889,0.111111111111111
"314","323","Rolfe St & 9th St S","31075","1404074397617","38.866471","-77.076131","true","false","1394630640000","","false","true",20,27,"1404048874183",2014-06-29 09:34:34,47,0.425531914893617,0.574468085106383
"315","324","Shirlington Transit Center / S Quincy & Randolph St","31076","1404074429336","38.839912","-77.087083","true","false","1394637480000","","false","true",24,27,"1404074186929",2014-06-29 16:36:26,51,0.470588235294118,0.529411764705882
"316","325","Shady Grove Metro West","32045","1404074216661","39.119765","-77.166093","true","false","1397837820000","","false","true",20,7,"1404068321659",2014-06-29 14:58:41,27,0.740740740740741,0.259259259259259
"317","326","River Rd & Landy Ln","32046","1404074305762","38.964992","-77.103381","true","false","1396972380000","","false","true",24,3,"1404073821559",2014-06-29 16:30:21,27,0.888888888888889,0.111111111111111
"318","327","Rockville Metro West","32047","1404074346392","39.084379","-77.146866","true","false","1397847900000","","false","true",22,5,"1404016667962",2014-06-29 00:37:47,27,0.814814814814815,0.185185185185185
"319","328","Bethesda Metro","32048","1404074402479","38.984691","-77.094537","true","false","1398786060000","","false","true",19,29,"1404062623148",2014-06-29 13:23:43,48,0.395833333333333,0.604166666666667
"320","329","Iwo Jima Memorial/N Meade & 14th St N","31077","1404074412179","38.88992","-77.071301","true","false","1402585680000","","false","true",6,24,"1404073200727",2014-06-29 16:20:00,30,0.2,0.8
