"","id","name","terminalName","lastCommWithServer","lat","long","installed","locked","installDate","removalDate","temporary","public","nbBikes","nbEmptyDocks","latestUpdateTime","date","total","percentBikes","percentDocks"
"1","1","20th & Bell St","31000","1404425064492","38.8561","-77.0512","true","false","1316059200000","","false","true",22,26,"1404419907719",2014-07-03 16:38:27,48,0.458333333333333,0.541666666666667
"2","2","18th & Eads St.","31001","1404424865375","38.85725","-77.05332","true","false","1284989400000","","false","true",13,31,"1404417381316",2014-07-03 15:56:21,44,0.295454545454545,0.704545454545455
"3","3","20th & Crystal Dr","31002","1404424965909","38.8564","-77.0492","true","false","1284464580000","","false","true",3,27,"1404419023828",2014-07-03 16:23:43,30,0.1,0.9
"4","4","15th & Crystal Dr","31003","1404424871555","38.86017","-77.049593","true","false","1284464880000","","false","true",24,13,"1404419086365",2014-07-03 16:24:46,37,0.648648648648649,0.351351351351351
"5","5","Aurora Hills Community Ctr/18th & Hayes St","31004","1404424904894","38.857866","-77.05949","true","false","1284464880000","","false","true",21,27,"1404419848488",2014-07-03 16:37:28,48,0.4375,0.5625
"6","6","12th & Hayes St /  Pentagon City Metro","31005","1404425039855","38.862303","-77.059936","true","false","1284464940000","","false","true",9,23,"1404422866860",2014-07-03 17:27:46,32,0.28125,0.71875
"7","7","S Joyce & Army Navy Dr","31006","1404425040755","38.8637","-77.0633","true","false","1284464940000","","false","true",24,13,"1404424291490",2014-07-03 17:51:31,37,0.648648648648649,0.351351351351351
"8","8","Crystal City Metro / 18th & Bell St","31007","1404424881488","38.8573","-77.0511","true","false","1284465000000","","false","true",24,3,"1404424156205",2014-07-03 17:49:16,27,0.888888888888889,0.111111111111111
"9","9","12th & Army Navy Dr","31008","1404424916831","38.8629","-77.0528","true","false","1284465000000","","false","true",24,13,"1404423951033",2014-07-03 17:45:51,37,0.648648648648649,0.351351351351351
"10","10","27th & Crystal Dr","31009","1404424854401","38.848441","-77.051516","true","false","1284465060000","","false","true",21,6,"1404423646510",2014-07-03 17:40:46,27,0.777777777777778,0.222222222222222
"11","11","S Glebe & Potomac Ave","31010","1404424989803","38.8426","-77.0502","true","false","1284465120000","","false","true",4,1,"1404419258548",2014-07-03 16:27:38,5,0.8,0.2
"12","12","23rd & Crystal Dr","31011","1404424865845","38.8533","-77.0498","true","false","1284465120000","","false","true",19,6,"1404421426210",2014-07-03 17:03:46,25,0.76,0.24
"13","13","26th & S Clark St","31012","1404424920586","38.850688","-77.05152","true","false","1284465300000","","false","true",23,23,"1404416345237",2014-07-03 15:39:05,46,0.5,0.5
"14","14","19th St & Pennsylvania Ave NW","31100","1404424932408","38.9003","-77.0429","true","false","1284465360000","","false","true",1,8,"1404423254743",2014-07-03 17:34:14,9,0.111111111111111,0.888888888888889
"15","15","14th & V St NW","31101","1404424845461","38.9176","-77.0321","true","false","1284465420000","","false","true",10,3,"1404424144119",2014-07-03 17:49:04,13,0.769230769230769,0.230769230769231
"16","16","11th & Kenyon St NW","31102","1404425019299","38.929464","-77.027822","true","false","1286539080000","","false","true",2,20,"1404425018225",2014-07-03 18:03:38,22,0.0909090909090909,0.909090909090909
"17","17","16th & Harvard St NW","31103","1404424976599","38.926088","-77.036536","true","false","1284465480000","","false","true",22,20,"1404424975905",2014-07-03 18:02:55,42,0.523809523809524,0.476190476190476
"18","18","Adams Mill & Columbia Rd NW","31104","1404424997811","38.922925","-77.042581","true","false","1284465540000","","false","true",3,27,"1404424755118",2014-07-03 17:59:15,30,0.1,0.9
"19","19","14th & Harvard St NW","31105","1404424890815","38.9268","-77.0322","true","false","1284465540000","","false","true",18,9,"1404424405927",2014-07-03 17:53:25,27,0.666666666666667,0.333333333333333
"20","20","Calvert & Biltmore St NW","31106","1404425038495","38.923203","-77.047637","true","false","1284465600000","","false","true",1,17,"1404424566392",2014-07-03 17:56:06,18,0.0555555555555556,0.944444444444444
"21","21","Lamont & Mt Pleasant NW","31107","1404424940449","38.9319","-77.0388","true","false","1284465600000","","false","true",20,7,"1404424939339",2014-07-03 18:02:19,27,0.740740740740741,0.259259259259259
"22","22","4th & M St SW","31108","1404425083979","38.8767","-77.0178","true","false","1284465660000","","false","true",4,5,"1404422327454",2014-07-03 17:18:47,9,0.444444444444444,0.555555555555556
"23","23","15th & P St NW","31201","1404425081326","38.90985","-77.034438","true","false","1284465660000","","false","true",9,23,"1404425082213",2014-07-03 18:04:42,32,0.28125,0.71875
"24","24","14th & R St NW","31202","1404425072723","38.912682","-77.031681","true","false","1284465720000","","false","true",7,1,"1404423958969",2014-07-03 17:45:58,8,0.875,0.125
"25","25","14th & Rhode Island Ave NW","31203","1404424962869","38.9086","-77.0323","true","false","1284465780000","","false","true",6,3,"1404424961296",2014-07-03 18:02:41,9,0.666666666666667,0.333333333333333
"26","26","20th & E St NW","31204","1404425053683","38.8963","-77.045","true","false","1284465840000","","false","true",19,3,"1404425052143",2014-07-03 18:04:12,22,0.863636363636364,0.136363636363636
"27","27","21st & I St NW","31205","1404424909613","38.9008","-77.047","true","false","1283861040000","","false","true",16,4,"1404424908286",2014-07-03 18:01:48,20,0.8,0.2
"28","28","Georgia & New Hampshire Ave NW","31400","1404425002081","38.936043","-77.024649","true","false","1284465900000","","false","true",19,4,"1404425001341",2014-07-03 18:03:21,23,0.826086956521739,0.173913043478261
"29","29","14th St & Spring Rd NW","31401","1404424871173","38.9375","-77.0328","true","false","1284465960000","","false","true",21,26,"1404420661864",2014-07-03 16:51:01,47,0.446808510638298,0.553191489361702
"30","30","John McCormack Dr & Michigan Ave NE","31502","1404425084629","38.9346","-76.9955","true","false","1284465960000","","false","true",13,31,"1404422464325",2014-07-03 17:21:04,44,0.295454545454545,0.704545454545455
"31","31","5th & K St NW","31600","1404424987368","38.90304","-77.019027","true","false","1284466020000","","false","true",23,4,"1404424502851",2014-07-03 17:55:02,27,0.851851851851852,0.148148148148148
"32","32","19th & East Capitol St SE","31601","1404425078780","38.8896","-76.9769","true","false","1284466020000","","false","true",20,3,"1404423388337",2014-07-03 17:36:28,23,0.869565217391304,0.130434782608696
"33","33","Park Rd & Holmead Pl NW","31602","1404424978693","38.9308","-77.0315","true","false","1284466080000","","false","true",24,3,"1404424735557",2014-07-03 17:58:55,27,0.888888888888889,0.111111111111111
"34","34","Good Hope & Naylor Rd SE","31700","1404424863258","38.8601","-76.9672","true","false","1284466140000","","false","true",13,31,"1404414304220",2014-07-03 15:05:04,44,0.295454545454545,0.704545454545455
"35","35","Connecticut Ave & Newark St NW / Cleveland Park","31305","1404424918467","38.934267","-77.057979","true","false","1289241840000","","false","true",21,27,"1404419435474",2014-07-03 16:30:35,48,0.4375,0.5625
"36","36","Randle Circle & Minnesota Ave SE","31702","1404424962214","38.878","-76.9607","true","false","1284466200000","","false","true",20,28,"1404337602993",2014-07-02 17:46:42,48,0.416666666666667,0.583333333333333
"37","37","Minnesota Ave Metro/DOES","31703","1404424972056","38.897063","-76.947446","true","false","1284466200000","","false","true",19,29,"1404418475507",2014-07-03 16:14:35,48,0.395833333333333,0.604166666666667
"38","38","Nannie Helen Burroughs & Minnesota Ave NE","31704","1404424901112","38.901385","-76.941877","true","false","1386766320000","1298396940000","false","true",24,13,"1404414121858",2014-07-03 15:02:01,37,0.648648648648649,0.351351351351351
"39","39","Anacostia Metro","31801","1404425078202","38.862669","-76.994637","true","false","1284466260000","","false","true",19,29,"1404423438799",2014-07-03 17:37:18,48,0.395833333333333,0.604166666666667
"40","40","Good Hope Rd & MLK Ave SE","31802","1404424877014","38.867373","-76.988039","true","false","1305288720000","","false","true",21,27,"1404417896938",2014-07-03 16:04:56,48,0.4375,0.5625
"41","41","19th & E Street NW","31206","1404424899106","38.8952","-77.0436","true","false","1284545040000","","false","true",20,28,"1404419313127",2014-07-03 16:28:33,48,0.416666666666667,0.583333333333333
"42","42","4th St & Rhode Island Ave NE","31500","1404424957953","38.919488","-77.000624","true","false","1289970000000","","false","true",19,29,"1404423509087",2014-07-03 17:38:29,48,0.395833333333333,0.604166666666667
"43","43","10th & U St NW","31111","1404425060441","38.9172","-77.0259","true","false","1285822380000","","false","true",3,27,"1404424113427",2014-07-03 17:48:33,30,0.1,0.9
"44","44","Georgia Ave and Fairmont St NW","31207","1404424874778","38.9249","-77.0222","true","false","1285041600000","","false","true",23,23,"1404420783541",2014-07-03 16:53:03,46,0.5,0.5
"45","45","1st & N St  SE","31209","1404425040837","38.8743","-77.0057","true","false","1285041600000","","false","true",18,25,"1404422076050",2014-07-03 17:14:36,43,0.418604651162791,0.581395348837209
"46","46","20th St & Florida Ave NW","31110","1404424874593","38.9154","-77.0446","true","false","1285217520000","","false","true",18,5,"1404424873665",2014-07-03 18:01:13,23,0.782608695652174,0.217391304347826
"47","47","7th & T St NW","31109","1404424970856","38.9155","-77.0222","true","false","1285735680000","","false","true",7,2,"1404424383107",2014-07-03 17:53:03,9,0.777777777777778,0.222222222222222
"48","48","23rd & Eads St","31013","1404425032732","38.853613","-77.053535","true","false","1287562620000","","false","true",3,2,"1404418047749",2014-07-03 16:07:27,5,0.6,0.4
"49","49","M St & New Jersey Ave SE","31208","1404425071873","38.8763","-77.0037","true","false","1285041600000","","false","true",23,31,"1404421652229",2014-07-03 17:07:32,54,0.425925925925926,0.574074074074074
"50","51","Massachusetts Ave & Dupont Circle NW","31200","1404424962404","38.9101","-77.0444","true","false","1284523200000","","false","true",15,17,"1404424961020",2014-07-03 18:02:41,32,0.46875,0.53125
"51","52","1st & M St NE","31603","1404425029637","38.9057","-77.0056","true","false","1287115200000","","false","true",20,3,"1404424544980",2014-07-03 17:55:44,23,0.869565217391304,0.130434782608696
"52","53","21st & M St NW","31212","1404425061098","38.90534","-77.046774","true","false","1285041600000","","false","true",3,31,"1404424577115",2014-07-03 17:56:17,34,0.0882352941176471,0.911764705882353
"53","54","17th & K St NW","31213","1404425075465","38.90276","-77.03863","true","false","1306236960000","","false","true",7,26,"1404424696500",2014-07-03 17:58:16,33,0.212121212121212,0.787878787878788
"54","55","3rd & H St NW","31604","1404424870874","38.899408","-77.015289","true","false","1287028800000","","false","true",3,27,"1404422089589",2014-07-03 17:14:49,30,0.1,0.9
"55","56","3rd & D St SE","31605","1404424999080","38.8851","-77.0023","true","false","1287201600000","","false","true",1,4,"1404422583845",2014-07-03 17:23:03,5,0.2,0.8
"56","57","Potomac & Pennsylvania Ave SE","31606","1404425014107","38.8803","-76.9862","true","false","1287460800000","","false","true",24,28,"1404423111664",2014-07-03 17:31:51,52,0.461538461538462,0.538461538461538
"57","58","14th & D St SE","31607","1404425067527","38.884","-76.9861","true","false","1287374400000","","false","true",13,6,"1404422411950",2014-07-03 17:20:11,19,0.684210526315789,0.315789473684211
"58","59","17th & Corcoran St NW","31214","1404425058560","38.9121","-77.0387","true","false","1294078980000","","false","true",10,2,"1404424815787",2014-07-03 18:00:15,12,0.833333333333333,0.166666666666667
"59","60","Van Ness Metro / UDC","31300","1404424933422","38.944551","-77.063896","true","false","1289624400000","","false","true",13,6,"1404423724838",2014-07-03 17:42:04,19,0.684210526315789,0.315789473684211
"60","61","Florida Ave & R St NW","31503","1404424863375","38.9126","-77.0135","true","false","1290056400000","","false","true",6,13,"1404424861943",2014-07-03 18:01:01,19,0.315789473684211,0.684210526315789
"61","62","8th & Eye St SE / Barracks Row","31608","1404424991535","38.8792","-76.9953","true","false","1287374400000","","false","true",18,30,"1404423299909",2014-07-03 17:34:59,48,0.375,0.625
"62","63","Ward Circle / American University","31301","1404424855419","38.938736","-77.087171","true","false","1289538000000","","false","true",20,3,"1404424854276",2014-07-03 18:00:54,23,0.869565217391304,0.130434782608696
"63","64","Idaho Ave & Newark St NW [on 2nd District patio]","31302","1404424896252","38.934751","-77.074647","true","false","1289970000000","","false","true",3,27,"1404417309632",2014-07-03 15:55:09,30,0.1,0.9
"64","65","14th St Heights / 14th & Crittenden St NW","31402","1404424921660","38.947774","-77.032818","true","false","1289970000000","","false","true",21,27,"1404415661194",2014-07-03 15:27:41,48,0.4375,0.5625
"65","66","Anacostia Library","31804","1404424881057","38.865784","-76.9784","true","false","1288584000000","","false","true",21,27,"1404408885700",2014-07-03 13:34:45,48,0.4375,0.5625
"66","67","Pennsylvania & Minnesota Ave SE","31805","1404425079705","38.873057","-76.971015","true","false","1288584000000","","false","true",24,13,"1404420726338",2014-07-03 16:52:06,37,0.648648648648649,0.351351351351351
"67","68","Eastern Market / 7th & North Carolina Ave SE","31610","1404425061276","38.886952","-76.996806","true","false","1282363200000","","false","true",3,23,"1404424094648",2014-07-03 17:48:14,26,0.115384615384615,0.884615384615385
"68","69","McPherson Square / 14th & H St NW","31216","1404425062744","38.899641","-77.032005","true","false","1284436800000","","false","true",5,29,"1404424337874",2014-07-03 17:52:17,34,0.147058823529412,0.852941176470588
"69","70","Benning Branch Library","31705","1404425036555","38.894","-76.947974","true","false","1288584000000","","false","true",20,27,"1404393911817",2014-07-03 09:25:11,47,0.425531914893617,0.574468085106383
"70","71","USDA / 12th & Independence Ave SW","31217","1404424864921","38.887237","-77.028226","true","false","1286297580000","","false","true",6,20,"1404423657600",2014-07-03 17:40:57,26,0.230769230769231,0.769230769230769
"71","72","Georgetown Harbor / 30th St NW","31215","1404424882672","38.9022212","-77.059219","true","false","1286300580000","","false","true",21,6,"1404423192376",2014-07-03 17:33:12,27,0.777777777777778,0.222222222222222
"72","73","12th & Newton St NE","31501","1404424874077","38.933668","-76.991016","true","false","1286306220000","","false","true",22,26,"1404424188339",2014-07-03 17:49:48,48,0.458333333333333,0.541666666666667
"73","74","US Dept of State / Virginia Ave & 21st St NW","31220","1404424897007","38.894919","-77.046587","true","false","1286661900000","","false","true",1,8,"1404417929936",2014-07-03 16:05:29,9,0.111111111111111,0.888888888888889
"74","75","L'Enfant Plaza / 7th & C St SW","31218","1404424867561","38.886266","-77.022241","true","false","1286410980000","","false","true",3,27,"1404423176970",2014-07-03 17:32:56,30,0.1,0.9
"75","76","10th St & Constitution Ave NW","31219","1404425048794","38.893028","-77.026013","true","false","1286497620000","","false","true",15,31,"1404421724848",2014-07-03 17:08:44,46,0.326086956521739,0.673913043478261
"76","77","Kennedy Center","31211","1404424946299","38.895184","-77.054845","true","false","1286325060000","","false","true",3,2,"1404422974427",2014-07-03 17:29:34,5,0.6,0.4
"77","78","Eastern Market Metro / Pennsylvania Ave & 7th St SE","31613","1404424887918","38.884","-76.995397","true","false","1286411820000","","false","true",22,4,"1404424887436",2014-07-03 18:01:27,26,0.846153846153846,0.153846153846154
"78","79","18th & M St NW","31221","1404425029081","38.904742","-77.041606","true","false","1286458140000","","false","true",1,12,"1404420848215",2014-07-03 16:54:08,13,0.0769230769230769,0.923076923076923
"79","80","Tenleytown / Wisconsin Ave & Albemarle St NW","31303","1404425050458","38.947607","-77.079382","true","false","1287150300000","","false","true",22,30,"1404418786775",2014-07-03 16:19:46,52,0.423076923076923,0.576923076923077
"80","81","13th & H St NE","31611","1404424913016","38.9003","-76.9882","true","false","1286547000000","","false","true",7,6,"1404424911173",2014-07-03 18:01:51,13,0.538461538461538,0.461538461538462
"81","82","5th & F St NW","31620","1404424887559","38.897222","-77.019347","true","false","1286492280000","","false","true",9,8,"1404424887444",2014-07-03 18:01:27,17,0.529411764705882,0.470588235294118
"82","83","New York Ave & 15th St NW","31222","1404424943867","38.8991","-77.0337","true","false","1286631960000","","false","true",3,26,"1404424943013",2014-07-03 18:02:23,29,0.103448275862069,0.896551724137931
"83","84","Convention Center / 7th & M St NW","31223","1404424886260","38.90572","-77.022264","true","false","1286631960000","","false","true",4,30,"1404424403090",2014-07-03 17:53:23,34,0.117647058823529,0.882352941176471
"84","85","Harvard St & Adams Mill Rd NW","31112","1404424944574","38.927872","-77.043358","true","false","1294164840000","","false","true",19,4,"1404416359636",2014-07-03 15:39:19,23,0.826086956521739,0.173913043478261
"85","86","19th & L St NW","31224","1404424959125","38.903407","-77.043648","true","false","1287182880000","","false","true",13,6,"1404424716277",2014-07-03 17:58:36,19,0.684210526315789,0.315789473684211
"86","87","C & O Canal & Wisconsin Ave NW","31225","1404425059239","38.90375","-77.06269","true","false","1287460800000","","false","true",13,15,"1404424093459",2014-07-03 17:48:13,28,0.464285714285714,0.535714285714286
"87","88","6th & Water St SW / SW Waterfront","31609","1404424896512","38.87675","-77.02127","true","false","1287720000000","","false","true",7,27,"1404424653772",2014-07-03 17:57:33,34,0.205882352941176,0.794117647058823
"88","89","D St & Maryland Ave NE","31612","1404425014833","38.894758","-76.997114","true","false","1330094460000","","false","true",10,27,"1404425014046",2014-07-03 18:03:34,37,0.27027027027027,0.72972972972973
"89","90","34th St & Wisconsin Ave NW","31226","1404424907185","38.916442","-77.0682","true","false","1287182760000","","false","true",1,4,"1404420801581",2014-07-03 16:53:21,5,0.2,0.8
"90","91","13th St & New York Ave NW","31227","1404425047043","38.900283","-77.029822","true","false","1287416880000","","false","true",11,27,"1404422839903",2014-07-03 17:27:19,38,0.289473684210526,0.710526315789474
"91","92","8th & H St NW","31228","1404425022292","38.8997","-77.023086","true","false","1287115200000","","false","true",20,22,"1404425021008",2014-07-03 18:03:41,42,0.476190476190476,0.523809523809524
"92","93","10th & Monroe St NE","31504","1404424936471","38.932514","-76.992889","true","false","1287096120000","","false","true",21,26,"1404419984629",2014-07-03 16:39:44,47,0.446808510638298,0.553191489361702
"93","94","Eckington Pl & Q St NE","31505","1404424949235","38.910972","-77.00495","true","false","1287096120000","","false","true",22,26,"1404424224278",2014-07-03 17:50:24,48,0.458333333333333,0.541666666666667
"94","95","6th & H St NE","31615","1404425032867","38.900384","-76.99831","true","false","1323696720000","","false","true",19,12,"1404422365057",2014-07-03 17:19:25,31,0.612903225806452,0.387096774193548
"95","96","3rd & H St NE","31616","1404424927543","38.900412","-77.001949","true","false","1287096060000","","false","true",21,5,"1404424925913",2014-07-03 18:02:05,26,0.807692307692308,0.192307692307692
"96","97","Bladensburg Rd & Benning Rd NE","31617","1404424869413","38.900413","-76.982872","true","false","1288200360000","","false","true",13,6,"1404419877415",2014-07-03 16:37:57,19,0.684210526315789,0.315789473684211
"97","98","4th & East Capitol St NE","31618","1404424913404","38.889955","-77.000349","true","false","1287028800000","","false","true",23,13,"1404423946212",2014-07-03 17:45:46,36,0.638888888888889,0.361111111111111
"98","99","Lincoln Park / 13th & East Capitol St NE ","31619","1404424959602","38.890461","-76.988355","true","false","1288038900000","","false","true",9,31,"1404424956694",2014-07-03 18:02:36,40,0.225,0.775
"99","100","Branch & Pennsylvania Ave SE","31701","1404424848021","38.8692","-76.9599","true","false","1309008600000","","false","true",21,27,"1404420489924",2014-07-03 16:48:09,48,0.4375,0.5625
"100","101","13th & D St NE","31622","1404425053316","38.894832","-76.987633","true","false","1288114080000","","false","true",7,10,"1404425051955",2014-07-03 18:04:11,17,0.411764705882353,0.588235294117647
"101","102","New Hampshire Ave & T St NW","31229","1404425048746","38.91554","-77.03818","true","false","1287178020000","","false","true",12,26,"1404425047681",2014-07-03 18:04:07,38,0.315789473684211,0.684210526315789
"102","103","Metro Center / 12th & G St NW","31230","1404424925824","38.898364","-77.027869","true","false","1305259200000","","false","true",24,16,"1404423476800",2014-07-03 17:37:56,40,0.6,0.4
"103","104","14th & D St NW / Ronald Reagan Building","31231","1404424906724","38.894514","-77.031617","true","false","1303306260000","","false","true",19,14,"1404424905929",2014-07-03 18:01:45,33,0.575757575757576,0.424242424242424
"104","105","7th & F St NW / National Portrait Gallery","31232","1404425011438","38.897324","-77.022322","true","false","1304108940000","","false","true",7,27,"1404425010323",2014-07-03 18:03:30,34,0.205882352941176,0.794117647058823
"105","106","17th & K St NW / Farragut Square","31233","1404424874965","38.902061","-77.038322","true","false","1304022480000","","false","true",8,5,"1404424633059",2014-07-03 17:57:13,13,0.615384615384615,0.384615384615385
"106","107","20th & O St NW / Dupont South","31234","1404425026047","38.908905","-77.04478","true","false","1328850000000","","false","true",4,30,"1404425025138",2014-07-03 18:03:45,34,0.117647058823529,0.882352941176471
"107","108","4th & D St NW / Judiciary Square","31621","1404424927172","38.895344","-77.016106","true","false","1304481600000","","false","true",22,30,"1404423236884",2014-07-03 17:33:56,52,0.423076923076923,0.576923076923077
"108","109","19th St & Constitution Ave NW","31235","1404425063183","38.8923","-77.0436","true","false","1287607080000","","false","true",13,24,"1404424505753",2014-07-03 17:55:05,37,0.351351351351351,0.648648648648649
"109","110","37th & O St NW / Georgetown University","31236","1404425061598","38.90774","-77.071652","true","false","1288037580000","","false","true",18,14,"1404423853899",2014-07-03 17:44:13,32,0.5625,0.4375
"110","111","11th & H St NE","31614","1404424861089","38.899983","-76.991383","true","false","1323666000000","","false","true",24,30,"1404424376596",2014-07-03 17:52:56,54,0.444444444444444,0.555555555555556
"111","112","25th St & Pennsylvania Ave NW","31237","1404424860391","38.903827","-77.053485","true","false","1288551000000","","false","true",3,27,"1404424859199",2014-07-03 18:00:59,30,0.1,0.9
"112","113","Columbus Circle / Union Station","31623","1404425005020","38.89696","-77.00493","true","false","1285905600000","","false","true",5,21,"1404425003424",2014-07-03 18:03:23,26,0.192307692307692,0.807692307692308
"113","114","North Capitol St & F St NW","31624","1404424974755","38.897446","-77.009888","true","false","1288122720000","","false","true",14,13,"1404421649887",2014-07-03 17:07:29,27,0.518518518518518,0.481481481481481
"114","115","11th & M St NW","31266","1404424980970","38.905607","-77.027137","true","false","1364995680000","","false","true",11,2,"1404424738575",2014-07-03 17:58:58,13,0.846153846153846,0.153846153846154
"115","116","36th & Calvert St NW / Glover Park","31304","1404424928005","38.922581","-77.070334","true","false","1289236620000","","false","true",21,31,"1404416956066",2014-07-03 15:49:16,52,0.403846153846154,0.596153846153846
"116","117","14th & G St NW","31238","1404425019918","38.898069","-77.031823","true","false","1289237340000","","false","true",22,8,"1404423507507",2014-07-03 17:38:27,30,0.733333333333333,0.266666666666667
"117","118","Potomac Ave & 35th St S","31052","1404425005640","38.844015","-77.050537","true","false","1351092960000","","false","true",12,26,"1404424521606",2014-07-03 17:55:21,38,0.315789473684211,0.684210526315789
"118","124","Ohio Dr & West Basin Dr SW / MLK & FDR Memorials","31240","1404424852814","38.88412","-77.04657","true","false","1331904960000","","false","true",22,9,"1404419370069",2014-07-03 16:29:30,31,0.709677419354839,0.290322580645161
"119","125","11th & F St NW","31262","1404424845882","38.897857","-77.026975","true","false","1359981840000","","false","true",2,7,"1404424793306",2014-07-03 17:59:53,9,0.222222222222222,0.777777777777778
"120","126","23rd & E St NW ","31260","1404424949352","38.896104","-77.049882","true","false","1359652440000","","false","true",23,4,"1404424357161",2014-07-03 17:52:37,27,0.851851851851852,0.148148148148148
"121","127","Lynn & 19th St North","31014","1404424925511","38.897315","-77.070993","true","false","1302957060000","","false","true",6,28,"1404419402793",2014-07-03 16:30:02,34,0.176470588235294,0.823529411764706
"122","128","Rosslyn Metro / Wilson Blvd & Ft Myer Dr","31015","1404425007145","38.8946","-77.072305","true","false","1302957120000","","false","true",23,29,"1404422592367",2014-07-03 17:23:12,52,0.442307692307692,0.557692307692308
"123","129","Clarendon Blvd & Pierce St","31016","1404424975424","38.893648","-77.076701","true","false","1302957960000","","false","true",20,28,"1404423880986",2014-07-03 17:44:40,48,0.416666666666667,0.583333333333333
"124","130","Court House Metro / Wilson Blvd & N Uhle St","31017","1404425035512","38.891696","-77.0846","true","false","1320933600000","","false","true",20,3,"1404423599249",2014-07-03 17:39:59,23,0.869565217391304,0.130434782608696
"125","131","N Rhodes & 16th St N","31018","1404424971205","38.892164","-77.079375","true","false","1302963480000","","false","true",19,28,"1404417664600",2014-07-03 16:01:04,47,0.404255319148936,0.595744680851064
"126","132","Fairfax Village","31706","1404424865048","38.86559","-76.952103","true","false","1311771600000","","false","true",22,30,"1404277074154",2014-07-02 00:57:54,52,0.423076923076923,0.576923076923077
"127","133","21st St & Constitution Ave NW","31261","1404425006003","38.892459","-77.046567","true","false","1359639120000","","false","true",13,6,"1404423074515",2014-07-03 17:31:14,19,0.684210526315789,0.315789473684211
"128","134","Wilson Blvd & N Edgewood St","31019","1404424902224","38.889","-77.0925","true","false","1321015980000","","false","true",24,28,"1404424660340",2014-07-03 17:57:40,52,0.461538461538462,0.538461538461538
"129","135","Columbia Rd & Belmont St NW","31113","1404425039811","38.920669","-77.04368","true","false","1321625100000","","false","true",21,6,"1404424555795",2014-07-03 17:55:55,27,0.777777777777778,0.222222222222222
"130","136","17th & Rhode Island Ave NW","31239","1404425051909","38.906602","-77.038785","true","false","1321639800000","","false","true",2,16,"1404424809169",2014-07-03 18:00:09,18,0.111111111111111,0.888888888888889
"131","137","Thomas Circle","31241","1404424959984","38.9059","-77.0325","true","false","1321714320000","","false","true",17,27,"1404424959581",2014-07-03 18:02:39,44,0.386363636363636,0.613636363636364
"132","138","Wilson Blvd & Franklin Rd","31020","1404424876507","38.8904","-77.0889","true","false","1322715600000","","false","true",19,29,"1404423538845",2014-07-03 17:38:58,48,0.395833333333333,0.604166666666667
"133","139","Clarendon Blvd & N Fillmore St","31021","1404425054564","38.8881","-77.09308","true","false","1321981080000","","false","true",21,31,"1404420546530",2014-07-03 16:49:06,52,0.403846153846154,0.596153846153846
"134","140","Clarendon Metro / Wilson Blvd & N Highland St","31022","1404424942166","38.88786","-77.094875","true","false","1321983480000","","false","true",24,30,"1404421927788",2014-07-03 17:12:07,54,0.444444444444444,0.555555555555556
"135","141","18th St & Pennsylvania Ave NW","31242","1404425005370","38.89968","-77.041539","true","false","1322571600000","","false","true",1,8,"1404421463815",2014-07-03 17:04:23,9,0.111111111111111,0.888888888888889
"136","142","Maryland & Independence Ave SW","31243","1404425072325","38.887299","-77.018939","true","false","1327669020000","","false","true",9,17,"1404425064620",2014-07-03 18:04:24,26,0.346153846153846,0.653846153846154
"137","143","4th & E St SW","31244","1404424863088","38.88412","-77.017445","true","false","1322756880000","","false","true",8,23,"1404424861832",2014-07-03 18:01:01,31,0.258064516129032,0.741935483870968
"138","144","3rd & G St SE","31625","1404425080557","38.881185","-77.001828","true","false","1322661660000","","false","true",13,10,"1404419551455",2014-07-03 16:32:31,23,0.565217391304348,0.434782608695652
"139","145","7th & R St NW / Shaw Library","31245","1404425077313","38.912719","-77.022155","true","false","1322583120000","","false","true",6,13,"1404425075989",2014-07-03 18:04:35,19,0.315789473684211,0.684210526315789
"140","146","9th & Upshur St NW","31404","1404424947426","38.9418","-77.0251","true","false","1323194880000","","false","true",23,29,"1404424945598",2014-07-03 18:02:25,52,0.442307692307692,0.557692307692308
"141","147","1st & Rhode Island Ave NW","31506","1404425070863","38.915417","-77.012289","true","false","1323178380000","","false","true",24,28,"1404424828542",2014-07-03 18:00:28,52,0.461538461538462,0.538461538461538
"142","148","Columbia Rd & Georgia Ave NW","31115","1404424847175","38.928156","-77.02344","true","false","1323234000000","","false","true",4,30,"1404424114738",2014-07-03 17:48:34,34,0.117647058823529,0.882352941176471
"143","149","California St & Florida Ave NW","31116","1404424961328","38.917761","-77.04062","true","false","1323752400000","","false","true",11,2,"1404423355732",2014-07-03 17:35:55,13,0.846153846153846,0.153846153846154
"144","150","Benning Rd & East Capitol St NE / Benning Rd Metro","31707","1404424896642","38.889935","-76.93723","true","false","1324404360000","","false","true",24,3,"1404379574672",2014-07-03 05:26:14,27,0.888888888888889,0.111111111111111
"145","151","3000 Connecticut Ave NW / National Zoo","31307","1404425008548","38.930282","-77.055599","true","false","1324496640000","","false","true",23,29,"1404419384471",2014-07-03 16:29:44,52,0.442307692307692,0.557692307692308
"146","152","Anacostia Ave & Benning Rd NE / River Terrace ","31708","1404425061337","38.896544","-76.96012","true","false","1324402320000","","false","true",20,3,"1404380865194",2014-07-03 05:47:45,23,0.869565217391304,0.130434782608696
"147","153","M St & Pennsylvania Ave NW","31246","1404425080047","38.905126","-77.056887","true","false","1324485480000","","false","true",20,7,"1404423341525",2014-07-03 17:35:41,27,0.740740740740741,0.259259259259259
"148","154","15th St & Massachusetts Ave SE","31626","1404425064153","38.88732","-76.983569","true","false","1324565040000","","false","true",22,30,"1404422927644",2014-07-03 17:28:47,52,0.423076923076923,0.576923076923077
"149","155","Congress Heights Metro","31806","1404425074574","38.844711","-76.987823","true","false","1324581180000","","false","true",24,28,"1404422884287",2014-07-03 17:28:04,52,0.461538461538462,0.538461538461538
"150","156","N Quincy St & Glebe Rd","31035","1404424896960","38.876393","-77.107735","true","false","1335552600000","","false","true",19,29,"1404424327857",2014-07-03 17:52:07,48,0.395833333333333,0.604166666666667
"151","157","Wilson Blvd & N Oakland St","31033","1404424985010","38.8815","-77.10396","true","false","1335387720000","","false","true",18,30,"1404424018436",2014-07-03 17:46:58,48,0.375,0.625
"152","158","N Veitch  & 20th St N","31029","1404424964746","38.896923","-77.086502","true","false","1335213360000","","false","true",3,27,"1404422549520",2014-07-03 17:22:29,30,0.1,0.9
"153","159","11th & K St NW","31263","1404425073164","38.90268","-77.02674","true","false","1360936140000","","false","true",22,5,"1404425029674",2014-07-03 18:03:49,27,0.814814814814815,0.185185185185185
"154","160","Fairfax Dr & Wilson Blvd","31023","1404424984986","38.885801","-77.097745","true","false","1335545880000","","false","true",23,23,"1404420674520",2014-07-03 16:51:14,46,0.5,0.5
"155","161","Key Blvd & N Quinn St","31027","1404425071978","38.896015","-77.078107","true","false","1335195480000","","false","true",19,29,"1404394525573",2014-07-03 09:35:25,48,0.395833333333333,0.604166666666667
"156","162","1st & K St SE","31628","1404424953936","38.87861","-77.006004","true","false","1328717220000","","false","true",3,27,"1404419945438",2014-07-03 16:39:05,30,0.1,0.9
"157","163","39th & Calvert St NW / Stoddert","31306","1404424882011","38.922649","-77.077271","true","false","1328898300000","","false","true",18,9,"1404424156607",2014-07-03 17:49:16,27,0.666666666666667,0.333333333333333
"158","164","1st & Washington Hospital Center NW","31507","1404424924684","38.928743","-77.012457","true","false","1329153540000","","false","true",13,6,"1404418792302",2014-07-03 16:19:52,19,0.684210526315789,0.315789473684211
"159","165","Virginia Square Metro / N Monroe St & 9th St N","31024","1404424902190","38.882788","-77.103148","true","false","1329508980000","","false","true",19,8,"1404424901365",2014-07-03 18:01:41,27,0.703703703703704,0.296296296296296
"160","166","Central Library / N Quincy St & 10th St N","31025","1404424925110","38.88397","-77.10783","true","false","1329493920000","","false","true",20,28,"1404424683444",2014-07-03 17:58:03,48,0.416666666666667,0.583333333333333
"161","167","Washington Blvd & 10th St N","31026","1404424923266","38.884734","-77.093485","true","false","1329944340000","","false","true",18,5,"1404424094176",2014-07-03 17:48:14,23,0.782608695652174,0.217391304347826
"162","168","Jefferson Dr & 14th St SW","31247","1404424907148","38.888553","-77.032429","true","false","1331911860000","","false","true",13,15,"1404423457437",2014-07-03 17:37:37,28,0.464285714285714,0.535714285714286
"163","169","Smithsonian / Jefferson Dr & 12th St SW","31248","1404424921687","38.888767","-77.02858","true","false","1333369620000","","false","true",8,30,"1404424897267",2014-07-03 18:01:37,38,0.210526315789474,0.789473684210526
"164","170","George Mason Dr & Wilson Blvd","31036","1404424855272","38.87887","-77.1207","true","false","1335805380000","","false","true",20,3,"1404424130360",2014-07-03 17:48:50,23,0.869565217391304,0.130434782608696
"165","171","6th St & Indiana Ave NW","31264","1404424909316","38.894573","-77.01994","true","false","1364990040000","","false","true",21,6,"1404420430782",2014-07-03 16:47:10,27,0.777777777777778,0.222222222222222
"166","172","N Veitch & Key Blvd","31028","1404424967246","38.893241","-77.086045","true","false","1335202980000","","false","true",2,3,"1404423758479",2014-07-03 17:42:38,5,0.4,0.6
"167","173","N Adams St & Lee Hwy","31030","1404425052075","38.89593","-77.089006","true","false","1335369060000","","false","true",24,28,"1404423602586",2014-07-03 17:40:02,52,0.461538461538462,0.538461538461538
"168","174","15th & N Scott St","31031","1404425009440","38.89054","-77.08095","true","false","1335362100000","","false","true",23,23,"1404424525008",2014-07-03 17:55:25,46,0.5,0.5
"169","175","Washington Blvd & 7th St N","31032","1404425039310","38.880834","-77.091129","true","false","1335794400000","","false","true",20,28,"1404424259066",2014-07-03 17:50:59,48,0.416666666666667,0.583333333333333
"170","176","Ballston Metro / N Stuart & 9th St N","31037","1404424959529","38.881044","-77.111768","true","false","1335817440000","","false","true",23,4,"1404424056935",2014-07-03 17:47:36,27,0.851851851851852,0.148148148148148
"171","177","N Randolph St & Fairfax Dr","31034","1404424927127","38.882629","-77.109366","true","false","1335542580000","","false","true",18,29,"1404424004308",2014-07-03 17:46:44,47,0.382978723404255,0.617021276595745
"172","178","Jefferson Memorial","31249","1404424990167","38.879819","-77.037413","true","false","1335969180000","","false","true",1,17,"1404424989430",2014-07-03 18:03:09,18,0.0555555555555556,0.944444444444444
"173","179","Good Hope Rd & 14th St SE","31803","1404425045874","38.866611","-76.985238","true","false","1335981060000","","false","true",24,27,"1404419044396",2014-07-03 16:24:04,51,0.470588235294118,0.529411764705882
"174","180","Glebe Rd & 11th St N","31038","1404424851567","38.883921","-77.116817","true","false","1337269200000","","false","true",1,4,"1404423892098",2014-07-03 17:44:52,5,0.2,0.8
"175","181","N Quincy St & Wilson Blvd","31039","1404425027764","38.880151","-77.107673","true","false","1338301620000","","false","true",22,26,"1404425026027",2014-07-03 18:03:46,48,0.458333333333333,0.541666666666667
"176","182","Fairfax Dr & Kenmore St","31040","1404424955179","38.884616","-77.10108","true","false","1366814880000","","false","true",13,31,"1404414095127",2014-07-03 15:01:35,44,0.295454545454545,0.704545454545455
"177","183","Gallaudet / 8th St & Florida Ave NE","31508","1404425024426","38.90509","-76.9941","true","false","1342033620000","","false","true",7,27,"1404423815503",2014-07-03 17:43:35,34,0.205882352941176,0.794117647058823
"178","185","20th & L St NW","31250","1404424965842","38.903584","-77.044789","true","false","1340632500000","","false","true",18,9,"1404424964745",2014-07-03 18:02:44,27,0.666666666666667,0.333333333333333
"179","186","12th & L St NW","31251","1404424909052","38.903819","-77.0284","true","false","1340639640000","","false","true",7,26,"1404424908130",2014-07-03 18:01:48,33,0.212121212121212,0.787878787878788
"180","187","21st St & Pennsylvania Ave NW","31252","1404425025481","38.901539","-77.046564","true","false","1340811180000","","false","true",1,12,"1404424342037",2014-07-03 17:52:22,13,0.0769230769230769,0.923076923076923
"181","188","19th & K St NW","31253","1404425000842","38.902204","-77.04337","true","false","1340801880000","","false","true",13,15,"1404424516327",2014-07-03 17:55:16,28,0.464285714285714,0.535714285714286
"182","189","Prince St & Union St","31041","1404424936796","38.803124","-77.040363","true","false","1346070420000","","false","true",3,31,"1404419590250",2014-07-03 16:33:10,34,0.0882352941176471,0.911764705882353
"183","190","Market Square / King St & Royal St","31042","1404424856693","38.804718","-77.043363","true","false","1346077680000","","false","true",3,27,"1404423166513",2014-07-03 17:32:46,30,0.1,0.9
"184","191","Saint Asaph St & Pendleton  St","31043","1404424885684","38.810743","-77.044664","true","false","1346084880000","","false","true",22,30,"1404419194364",2014-07-03 16:26:34,52,0.423076923076923,0.576923076923077
"185","192","King St & Patrick St","31044","1404425059992","38.805317","-77.049883","true","false","1346442900000","","false","true",8,1,"1404421399461",2014-07-03 17:03:19,9,0.888888888888889,0.111111111111111
"186","193","15th & K St NW","31254","1404425077125","38.902","-77.03353","true","false","1341232920000","","false","true",21,6,"1404425076400",2014-07-03 18:04:36,27,0.777777777777778,0.222222222222222
"187","194","Commerce St & Fayette St","31045","1404424901133","38.805648","-77.05293","true","false","1346442960000","","false","true",18,5,"1404420849848",2014-07-03 16:54:09,23,0.782608695652174,0.217391304347826
"188","195","Henry St & Pendleton St","31046","1404424932506","38.811456","-77.050276","true","false","1346442960000","","false","true",23,31,"1404417969145",2014-07-03 16:06:09,54,0.425925925925926,0.574074074074074
"189","196","Braddock Rd Metro","31047","1404425034743","38.814577","-77.052808","true","false","1346442960000","","false","true",9,23,"1404419499521",2014-07-03 16:31:39,32,0.28125,0.71875
"190","197","King St Metro","31048","1404424894370","38.805767","-77.06072","true","false","1346443020000","","false","true",2,11,"1404422748574",2014-07-03 17:25:48,13,0.153846153846154,0.846153846153846
"191","198","24th & N St NW","31255","1404424926958","38.9066","-77.05152","true","false","1341575340000","","false","true",1,7,"1404418186792",2014-07-03 16:09:46,8,0.125,0.875
"192","199","10th & E St NW","31256","1404424926437","38.895914","-77.026064","true","false","1342109700000","","false","true",22,30,"1404422985622",2014-07-03 17:29:45,52,0.423076923076923,0.576923076923077
"193","200","22nd & I St NW / Foggy Bottom","31257","1404424881933","38.90088","-77.048911","true","false","1342442220000","","false","true",20,3,"1404423432148",2014-07-03 17:37:12,23,0.869565217391304,0.130434782608696
"194","201","Utah St & 11th St N ","31049","1404425045141","38.883669","-77.113905","true","false","1342539420000","","false","true",18,30,"1404411860784",2014-07-03 14:24:20,48,0.375,0.625
"195","202","Barton St & 10th St N","31050","1404425035008","38.884961","-77.08777","true","false","1346771820000","","false","true",23,23,"1404423523782",2014-07-03 17:38:43,46,0.5,0.5
"196","203","Arlington Blvd & N Queen St","31051","1404424855126","38.889365","-77.077294","true","false","1346776740000","","false","true",24,13,"1404423887733",2014-07-03 17:44:47,37,0.648648648648649,0.351351351351351
"197","204","Lincoln Memorial","31258","1404424964615","38.888251","-77.049426","true","false","1349268360000","","false","true",14,26,"1404424963563",2014-07-03 18:02:43,40,0.35,0.65
"198","206","20th St & Virginia Ave NW","31259","1404425054262","38.894722","-77.045128","true","false","1359646980000","","false","true",2,7,"1404425053476",2014-07-03 18:04:13,9,0.222222222222222,0.777777777777778
"199","207","5th St & Massachusetts Ave NW","31265","1404424927587","38.90093","-77.018677","true","false","1367842440000","","false","true",5,28,"1404423679644",2014-07-03 17:41:19,33,0.151515151515152,0.848484848484849
"200","208","39th & Veazey St NW","31308","1404424958685","38.943837","-77.077078","true","false","1360598160000","","false","true",22,30,"1404424474790",2014-07-03 17:54:34,52,0.423076923076923,0.576923076923077
"201","209","Fessenden St & Wisconsin Ave NW","31309","1404424896260","38.954812","-77.082426","true","false","1360588560000","","false","true",5,23,"1404392897485",2014-07-03 09:08:17,28,0.178571428571429,0.821428571428571
"202","210","M St & Delaware Ave NE","31627","1404424956500","38.905707","-77.003041","true","false","1360929900000","","false","true",24,5,"1404424713231",2014-07-03 17:58:33,29,0.827586206896552,0.172413793103448
"203","211","Columbia Pike & S Courthouse Rd","31053","1404425011577","38.863833","-77.080319","true","false","1364482620000","","false","true",22,30,"1404414844219",2014-07-03 15:14:04,52,0.423076923076923,0.576923076923077
"204","212","Walter Reed Community Center / Walter Reed Dr & 16th St S","31054","1404425000058","38.857803","-77.086733","true","false","1364466180000","","false","true",21,27,"1404411863638",2014-07-03 14:24:23,48,0.4375,0.5625
"205","213","28th St S & S Meade St","31055","1404425019902","38.846222","-77.069275","true","false","1364476320000","","false","true",20,3,"1404408360206",2014-07-03 13:26:00,23,0.869565217391304,0.130434782608696
"206","214","18th St & Wyoming Ave NW","31114","1404424935785","38.918809","-77.041571","true","false","1365003300000","","false","true",20,11,"1404423969541",2014-07-03 17:46:09,31,0.645161290322581,0.354838709677419
"207","215","5th & Kennedy St NW","31403","1404424923146","38.956595","-77.019815","true","false","1365777420000","","false","true",24,28,"1404399531219",2014-07-03 10:58:51,52,0.461538461538462,0.538461538461538
"208","216","Georgia Ave & Emerson St NW","31405","1404424880147","38.949662","-77.027333","true","false","1365783540000","","false","true",7,27,"1404424638713",2014-07-03 17:57:18,34,0.205882352941176,0.794117647058823
"209","217","14th & Upshur St NW","31406","1404424911060","38.942016","-77.032652","true","false","1365794820000","","false","true",5,29,"1404420086133",2014-07-03 16:41:26,34,0.147058823529412,0.852941176470588
"210","218","14th St & Colorado Ave NW","31407","1404425010240","38.956432","-77.032947","true","false","1365798900000","","false","true",20,7,"1404409220330",2014-07-03 13:40:20,27,0.740740740740741,0.259259259259259
"211","219","S Troy St & 26th St S","31056","1404424998550","38.847977","-77.075104","true","false","1366725840000","","false","true",19,29,"1404418723037",2014-07-03 16:18:43,48,0.395833333333333,0.604166666666667
"212","220","S Four Mile Run Dr & S Shirlington Rd","31057","1404425040470","38.8444","-77.085931","true","false","1366729200000","","false","true",22,26,"1404416582236",2014-07-03 15:43:02,48,0.458333333333333,0.541666666666667
"213","221","S Oakland St & Columbia Pike","31058","1404424870344","38.860789","-77.09586","true","false","1366735380000","","false","true",22,26,"1404391130217",2014-07-03 08:38:50,48,0.458333333333333,0.541666666666667
"214","222","S Abingdon St & 36th St S","31059","1404425003373","38.835213","-77.094295","true","false","1366739700000","","false","true",13,30,"1404395075511",2014-07-03 09:44:35,43,0.302325581395349,0.697674418604651
"215","223","S Arlington Mill Dr & Campbell Ave","31060","1404425059195","38.84232","-77.089555","true","false","1366802400000","","false","true",21,31,"1404413845831",2014-07-03 14:57:25,52,0.403846153846154,0.596153846153846
"216","224","S Kenmore & 24th St S","31061","1404424844811","38.848454","-77.084918","true","false","1366825140000","","false","true",18,30,"1404402604427",2014-07-03 11:50:04,48,0.375,0.625
"217","225","13th St & Eastern Ave","32006","1404425045337","38.987","-77.029417","true","false","1380292680000","","false","true",24,28,"1404423595551",2014-07-03 17:39:55,52,0.461538461538462,0.538461538461538
"218","226","Wisconsin Ave & O St NW","31312","1404424858622","38.90849","-77.063586","true","false","1366910820000","","false","true",23,4,"1404422282730",2014-07-03 17:18:02,27,0.851851851851852,0.148148148148148
"219","227","S George Mason Dr & 13th St S","31062","1404424888504","38.854691","-77.100555","true","false","1372694040000","","false","true",20,28,"1404277089232",2014-07-02 00:58:09,48,0.416666666666667,0.583333333333333
"220","228","Connecticut & Nebraska Ave NW","31310","1404425079970","38.955016","-77.069956","true","false","1366894140000","","false","true",3,6,"1404423147665",2014-07-03 17:32:27,9,0.333333333333333,0.666666666666667
"221","229","17th St & Massachusetts Ave NW","31267","1404424967725","38.908142","-77.038359","true","false","1367851920000","","false","true",20,7,"1404424966880",2014-07-03 18:02:46,27,0.740740740740741,0.259259259259259
"222","230","15th & Euclid St  NW","31117","1404424904114","38.92333","-77.0352","true","false","1367856780000","","false","true",24,28,"1404424903280",2014-07-03 18:01:43,52,0.461538461538462,0.538461538461538
"223","231","8th & East Capitol St NE","31629","1404424978511","38.889988","-76.995193","true","false","1368545580000","","false","true",23,23,"1404423529550",2014-07-03 17:38:49,46,0.5,0.5
"224","232","New Jersey Ave & R St NW","31509","1404424996255","38.912659","-77.017669","true","false","1368532680000","","false","true",8,1,"1404424737755",2014-07-03 17:58:57,9,0.888888888888889,0.111111111111111
"225","233","15th & East Capitol St NE","31630","1404424984195","38.889908","-76.983326","true","false","1368541260000","","false","true",4,1,"1404420622539",2014-07-03 16:50:22,5,0.8,0.2
"226","234","8th & F St NE","31631","1404424958188","38.897274","-76.994749","true","false","1368552540000","","false","true",4,26,"1404424715265",2014-07-03 17:58:35,30,0.133333333333333,0.866666666666667
"227","235","18th St & Rhode Island Ave NE","31510","1404424930295","38.927095","-76.978924","true","false","1369915500000","","false","true",3,27,"1404418900329",2014-07-03 16:21:40,30,0.1,0.9
"228","236","15th & F St NE","31632","1404424860454","38.897195","-76.983575","true","false","1369928820000","","false","true",4,30,"1404423167796",2014-07-03 17:32:47,34,0.117647058823529,0.882352941176471
"229","237","12th & Irving St NE","31511","1404424982991","38.928644","-76.990955","true","false","1369923120000","","false","true",6,13,"1404419765495",2014-07-03 16:36:05,19,0.315789473684211,0.684210526315789
"230","238","34th St & Minnesota Ave SE","31709","1404425041117","38.884085","-76.957461","true","false","1370358840000","","false","true",20,27,"1404277084642",2014-07-02 00:58:04,47,0.425531914893617,0.574468085106383
"231","239","Alabama & MLK Ave SE","31800","1404425068456","38.843222","-76.999388","true","false","1370345160000","","false","true",22,26,"1404423100388",2014-07-03 17:31:40,48,0.458333333333333,0.541666666666667
"232","240","Pleasant St & MLK Ave SE","31807","1404424930372","38.863897","-76.990037","true","false","1370351820000","","false","true",20,28,"1404398717880",2014-07-03 10:45:17,48,0.416666666666667,0.583333333333333
"233","241","Neal St & Trinidad Ave NE","31512","1404425079128","38.903732","-76.987211","true","false","1371221640000","","false","true",3,27,"1404424836566",2014-07-03 18:00:36,30,0.1,0.9
"234","242","13th & U St NW","31268","1404424941120","38.916794","-77.029779","true","false","1371231240000","","false","true",7,31,"1404424712073",2014-07-03 17:58:32,38,0.184210526315789,0.815789473684211
"235","243","S George Mason Dr & Four Mile Run","31063","1404425041240","38.852248","-77.105022","true","false","1372690500000","","false","true",22,26,"1404414372003",2014-07-03 15:06:12,48,0.458333333333333,0.541666666666667
"236","244","S Stafford & 34th St S","31064","1404424942170","38.834108","-77.087323","true","false","1372701360000","","false","true",20,3,"1404407658499",2014-07-03 13:14:18,23,0.869565217391304,0.130434782608696
"237","245","N Pershing Dr & Wayne St","31065","1404424984048","38.880705","-77.08596","true","false","1372680300000","","false","true",23,23,"1404423292827",2014-07-03 17:34:52,46,0.5,0.5
"238","246","Columbia Pike & S Orme St","31066","1404425016428","38.867262","-77.072315","true","false","1372684620000","","false","true",18,30,"1404405725753",2014-07-03 12:42:05,48,0.375,0.625
"239","247","3rd St & Pennsylvania Ave SE","31269","1404425044397","38.887378","-77.001955","true","false","1374598740000","","false","true",21,31,"1404424687918",2014-07-03 17:58:07,52,0.403846153846154,0.596153846153846
"240","248","8th & D St NW","31270","1404425028114","38.894851","-77.02324","true","false","1374581640000","","false","true",19,4,"1404425017567",2014-07-03 18:03:37,23,0.826086956521739,0.173913043478261
"241","249","3rd & Elm St NW","31118","1404425000021","38.917622","-77.01597","true","false","1374589740000","","false","true",3,27,"1404424998986",2014-07-03 18:03:18,30,0.1,0.9
"242","250","Rhode Island Ave & V St NE","31513","1404424884275","38.918155","-77.004746","true","false","1375196700000","","false","true",22,5,"1404424400978",2014-07-03 17:53:20,27,0.814814814814815,0.185185185185185
"243","251","Constitution Ave & 2nd St NW/DOL","31271","1404425065949","38.892275","-77.013917","true","false","1375190280000","","false","true",13,19,"1404424823696",2014-07-03 18:00:23,32,0.40625,0.59375
"244","252","Washington & Independence Ave SW/HHS","31272","1404424968597","38.88731","-77.01397","true","false","1375445040000","","false","true",2,18,"1404424484342",2014-07-03 17:54:44,20,0.1,0.9
"245","253","Independence Ave & L'Enfant Plaza SW/DOE","31633","1404425085447","38.887397","-77.026154","true","false","1375789680000","","false","true",13,6,"1404425083593",2014-07-03 18:04:43,19,0.684210526315789,0.315789473684211
"246","254","Hamlin & 7th St NE","31514","1404424983797","38.927497","-76.997194","true","false","1376653440000","","false","true",23,29,"1404420818499",2014-07-03 16:53:38,52,0.442307692307692,0.557692307692308
"247","255","Columbia Pike & S Walter Reed Dr","31067","1404424997980","38.862478","-77.086599","true","false","1377605340000","","false","true",20,29,"1404408847211",2014-07-03 13:34:07,49,0.408163265306122,0.591836734693878
"248","256","Columbia Pike & S Dinwiddie St / Arlington Mill Community Center","31068","1404425071449","38.856319","-77.11153","true","false","1377776460000","","false","true",22,30,"1404406279068",2014-07-03 12:51:19,52,0.423076923076923,0.576923076923077
"249","257","Pershing & N George Mason Dr","31069","1404424886551","38.871822","-77.107906","true","false","1377792000000","","false","true",21,27,"1404424644792",2014-07-03 17:57:24,48,0.4375,0.5625
"250","258","Fenton St & New York Ave ","32001","1404425008024","38.985404","-77.023082","true","false","1380292620000","","false","true",21,31,"1404390686320",2014-07-03 08:31:26,52,0.403846153846154,0.596153846153846
"251","259","Bethesda Ave & Arlington Blvd","32002","1404424934849","38.981103","-77.097426","true","false","1380292620000","","false","true",3,31,"1404418795475",2014-07-03 16:19:55,34,0.0882352941176471,0.911764705882353
"252","260","Montgomery Ave & Waverly St ","32003","1404425059374","38.983838","-77.09221","true","false","1382208480000","","false","true",21,27,"1404420737223",2014-07-03 16:52:17,48,0.4375,0.5625
"253","261","Fallsgrove Blvd & Fallsgrove Dr","32004","1404424933677","39.096312","-77.192672","true","false","1380292620000","","false","true",23,4,"1404411114832",2014-07-03 14:11:54,27,0.851851851851852,0.148148148148148
"254","262","Traville Gateway Dr & Gudelsky Dr","32005","1404425050110","39.093783","-77.202501","true","false","1380292680000","","false","true",23,4,"1404413866786",2014-07-03 14:57:46,27,0.851851851851852,0.148148148148148
"255","263","Norfolk Ave & Fairmont St","32000","1404424991643","38.988562","-77.096539","true","false","1380292560000","","false","true",20,28,"1404414629890",2014-07-03 15:10:29,48,0.416666666666667,0.583333333333333
"256","264","E Montgomery Ave & Maryland Ave","32007","1404424988504","39.084125","-77.151291","true","false","1380292560000","","false","true",21,31,"1404363521909",2014-07-03 00:58:41,52,0.403846153846154,0.596153846153846
"257","265","Cordell & Norfolk Ave","32008","1404424904674","38.98954","-77.098029","true","false","1380292740000","","false","true",19,29,"1404416728540",2014-07-03 15:45:28,48,0.395833333333333,0.604166666666667
"258","266","Frederick Ave & Horners Ln","32009","1404424940971","39.094772","-77.145213","true","false","1380292740000","","false","true",20,28,"1404389633186",2014-07-03 08:13:53,48,0.416666666666667,0.583333333333333
"259","267","Philadelphia & Maple Ave","32010","1404424994884","38.98128","-77.011336","true","false","1380292740000","","false","true",22,30,"1404423180997",2014-07-03 17:33:00,52,0.423076923076923,0.576923076923077
"260","268","Maple & Ritchie Ave","32011","1404424957953","38.983627","-77.006311","true","false","1380292800000","","false","true",23,4,"1404406897837",2014-07-03 13:01:37,27,0.851851851851852,0.148148148148148
"261","269","Silver Spring Metro/Colesville Rd & Wayne Ave","32012","1404424884991","38.99521","-77.02918","true","false","1380292800000","","false","true",5,29,"1404409527178",2014-07-03 13:45:27,34,0.147058823529412,0.852941176470588
"262","270","Montgomery & East Ln","32013","1404424868925","38.983525","-77.095367","true","false","1380292800000","","false","true",20,28,"1404413755355",2014-07-03 14:55:55,48,0.416666666666667,0.583333333333333
"263","271","Friendship Hts Metro/Wisconsin Ave & Wisconsin Cir","32014","1404425020259","38.961763","-77.085998","true","false","1380292860000","","false","true",23,4,"1404420048217",2014-07-03 16:40:48,27,0.851851851851852,0.148148148148148
"264","272","14th & Belmont St NW","31119","1404424948563","38.921074","-77.031887","true","false","1380719160000","","false","true",7,2,"1404424673783",2014-07-03 17:57:53,9,0.777777777777778,0.222222222222222
"265","273","3rd & Tingey St SE","31634","1404424960012","38.87501","-77.0024","true","false","1380722700000","","false","true",18,9,"1404418916132",2014-07-03 16:21:56,27,0.666666666666667,0.333333333333333
"266","274","10th & Florida Ave NW","31120","1404424872101","38.920387","-77.025672","true","false","1381320720000","","false","true",23,4,"1404423905674",2014-07-03 17:45:05,27,0.851851851851852,0.148148148148148
"267","275","Potomac Ave & 8th St SE","31635","1404424995668","38.876737","-76.994468","true","false","1381333800000","","false","true",22,30,"1404424995129",2014-07-03 18:03:15,52,0.423076923076923,0.576923076923077
"268","276","Crabbs Branch Way & Redland Rd","32015","1404424963630","39.120045","-77.156985","true","false","1382100480000","","false","true",22,30,"1404277086434",2014-07-02 00:58:06,52,0.423076923076923,0.576923076923077
"269","277","Fallsgrove Dr & W Montgomery Ave","32016","1404425019644","39.099376","-77.188014","true","false","1382120580000","","false","true",23,29,"1404410618314",2014-07-03 14:03:38,52,0.442307692307692,0.557692307692308
"270","278","Monroe St & Monroe Pl","32017","1404424963322","39.083705","-77.149443","true","false","1383309240000","","false","true",22,30,"1404394719564",2014-07-03 09:38:39,52,0.423076923076923,0.576923076923077
"271","279","Needwood Rd & Eagles Head Ct","32018","1404424883750","39.123513","-77.15741","true","false","1382107020000","","false","true",22,30,"1404386484179",2014-07-03 07:21:24,52,0.423076923076923,0.576923076923077
"272","280","East West Hwy & Blair Mill Rd","32019","1404424882938","38.990249","-77.02935","true","false","1383148920000","","false","true",4,26,"1404418586735",2014-07-03 16:16:26,30,0.133333333333333,0.866666666666667
"273","281","Crabbs Branch Way & Calhoun Pl","32020","1404424983629","39.107709","-77.152072","true","false","1382111460000","","false","true",23,29,"1404424499351",2014-07-03 17:54:59,52,0.442307692307692,0.557692307692308
"274","282","47th & Elm St","32021","1404424969473","38.982456","-77.091991","true","false","1382208540000","","false","true",23,28,"1404413244347",2014-07-03 14:47:24,51,0.450980392156863,0.549019607843137
"275","283","Garland Ave & Walden Rd","32022","1404424842869","39.000578","-77.00149","true","false","1383059580000","","false","true",22,30,"1404395519052",2014-07-03 09:51:59,52,0.423076923076923,0.576923076923077
"276","284","Montgomery College/W Campus Dr & Mannakee St","32023","1404424947253","39.095661","-77.159048","true","false","1382199120000","","false","true",5,31,"1404373064202",2014-07-03 03:37:44,36,0.138888888888889,0.861111111111111
"277","285","Fenton St & Gist Ave","32024","1404424942899","38.989724","-77.023854","true","false","1383054960000","","false","true",22,26,"1404411236341",2014-07-03 14:13:56,48,0.458333333333333,0.541666666666667
"278","286","Carroll & Westmoreland Ave","32025","1404424926072","38.975","-77.01121","true","false","1383065460000","","false","true",24,28,"1404422993182",2014-07-03 17:29:53,52,0.461538461538462,0.538461538461538
"279","287","Carroll & Ethan Allen Ave","32026","1404424965480","38.977933","-77.006472","true","false","1383070440000","","false","true",22,30,"1404417420219",2014-07-03 15:57:00,52,0.423076923076923,0.576923076923077
"280","288","Battery Ln & Trolley Trail","32027","1404424885449","38.992375","-77.100104","true","false","1382712300000","","false","true",3,27,"1404413205514",2014-07-03 14:46:45,30,0.1,0.9
"281","289","Norfolk & Rugby Ave","32028","1404424957369","38.990639","-77.100239","true","false","1382715180000","","false","true",20,28,"1404405430869",2014-07-03 12:37:10,48,0.416666666666667,0.583333333333333
"282","290","Offutt Ln & Chevy Chase Dr","32029","1404425040090","38.977093","-77.094589","true","false","1382722080000","","false","true",22,26,"1404423831602",2014-07-03 17:43:51,48,0.458333333333333,0.541666666666667
"283","291","Broschart & Blackwell Rd","32030","1404424960867","39.102099","-77.200322","true","false","1382798640000","","false","true",22,30,"1404414911463",2014-07-03 15:15:11,52,0.423076923076923,0.576923076923077
"284","292","Taft St & E Gude Dr","32031","1404424968057","39.094103","-77.132954","true","false","1382804520000","","false","true",22,30,"1404277070455",2014-07-02 00:57:50,52,0.423076923076923,0.576923076923077
"285","293","Fleet St & Ritchie Pkwy","32032","1404424917861","39.076331","-77.141378","true","false","1382809500000","","false","true",24,28,"1404418029756",2014-07-03 16:07:09,52,0.461538461538462,0.538461538461538
"286","294","Piccard & W Gude Dr","32033","1404424864529","39.102212","-77.177091","true","false","1382795700000","","false","true",3,31,"1404423414159",2014-07-03 17:36:54,34,0.0882352941176471,0.911764705882353
"287","295","Ripley & Bonifant St","32034","1404425066098","38.992679","-77.029457","true","false","1383141360000","","false","true",22,30,"1404414220226",2014-07-03 15:03:40,52,0.423076923076923,0.576923076923077
"288","296","Georgia Ave & Spring St","32035","1404424991623","38.999388","-77.031555","true","false","1383146520000","","false","true",20,28,"1404417087371",2014-07-03 15:51:27,48,0.416666666666667,0.583333333333333
"289","297","Fenton St & Ellsworth Dr ","32036","1404424870984","38.997033","-77.025608","true","false","1383135960000","","false","true",23,29,"1404413937998",2014-07-03 14:58:57,52,0.442307692307692,0.557692307692308
"290","298","King Farm Blvd & Pleasant Dr","32037","1404425045889","39.114688","-77.171487","true","false","1383323580000","","false","true",21,5,"1404413449009",2014-07-03 14:50:49,26,0.807692307692308,0.192307692307692
"291","299","King Farm Blvd & Piccard Dr","32038","1404425053844","39.110314","-77.182669","true","false","1383318120000","","false","true",23,29,"1404423844995",2014-07-03 17:44:04,52,0.442307692307692,0.557692307692308
"292","301","Calvert St & Woodley Pl NW","31121","1404425085193","38.923583","-77.050046","true","false","1383657120000","","false","true",18,9,"1404425083862",2014-07-03 18:04:43,27,0.666666666666667,0.333333333333333
"293","302","New Jersey Ave & N St NW/Dunbar HS","31636","1404424896753","38.90706","-77.015231","true","false","1383662880000","","false","true",3,31,"1404424171188",2014-07-03 17:49:31,34,0.0882352941176471,0.911764705882353
"294","303","Nannie Helen Burroughs Ave & 49th St NE","31710","1404424913853","38.898536","-76.931862","true","false","1383923280000","","false","true",21,27,"1404418918156",2014-07-03 16:21:58,48,0.4375,0.5625
"295","304","Deanwood Rec Center","31711","1404425052660","38.908473","-76.933099","true","false","1383923280000","","false","true",21,31,"1404421022395",2014-07-03 16:57:02,52,0.403846153846154,0.596153846153846
"296","305","Hains Point/Buckeye & Ohio Dr SW","31273","1404425084628","38.878433","-77.03023","true","false","1383929160000","","false","true",21,4,"1404420760948",2014-07-03 16:52:40,25,0.84,0.16
"297","306","Arlington Blvd & Fillmore St","31070","1404425058936","38.873755","-77.089233","true","false","1384527780000","","false","true",13,31,"1404396687349",2014-07-03 10:11:27,44,0.295454545454545,0.704545454545455
"298","307","Long Bridge Park/Long Bridge Dr & 6th St S","31071","1404425064576","38.86646","-77.04826","true","false","1384520760000","","false","true",4,26,"1404417016739",2014-07-03 15:50:16,30,0.133333333333333,0.866666666666667
"299","308","Old Georgetown Rd & Southwick St","32039","1404425058017","38.999634","-77.109647","true","false","1384367940000","","false","true",3,31,"1404392420913",2014-07-03 09:00:20,34,0.0882352941176471,0.911764705882353
"300","309","Friendship Blvd & Willard Ave","32040","1404425004618","38.96115","-77.088659","true","false","1384355760000","","false","true",23,4,"1404418990247",2014-07-03 16:23:10,27,0.851851851851852,0.148148148148148
"301","310","North Capitol St & G Pl NE","31637","1404424976426","38.899703","-77.008911","true","false","1386954360000","","false","true",13,9,"1404422078684",2014-07-03 17:14:38,22,0.590909090909091,0.409090909090909
"302","311","31st & Woodrow St S","31072","1404425079540","38.837666","-77.09482","true","false","1387298640000","","false","true",18,30,"1404417525749",2014-07-03 15:58:45,48,0.375,0.625
"303","312","Washington Blvd & Walter Reed Dr ","31073","1404425066310","38.873219","-77.082104","true","false","1387287180000","","false","true",21,31,"1404391428650",2014-07-03 08:43:48,52,0.403846153846154,0.596153846153846
"304","313","Thomas Jefferson Cmty Ctr / 2nd St S & Ivy","31074","1404425074016","38.869675","-77.093586","true","false","1386774900000","","false","true",20,28,"1404417202436",2014-07-03 15:53:22,48,0.416666666666667,0.583333333333333
"305","314","Connecticut Ave & Tilden St NW","31313","1404424887203","38.941154","-77.062036","true","false","1386954480000","","false","true",20,3,"1404418698646",2014-07-03 16:18:18,23,0.869565217391304,0.130434782608696
"306","315","Medical Center Dr & Key West Ave","32041","1404424883107","39.103091","-77.196442","true","false","1389273960000","","false","true",21,31,"1404415426434",2014-07-03 15:23:46,52,0.403846153846154,0.596153846153846
"307","316","Shady Grove Hospital","32042","1404425008120","39.097636","-77.196636","true","false","1389287040000","","false","true",23,3,"1404412983098",2014-07-03 14:43:03,26,0.884615384615385,0.115384615384615
"308","317","Veterans Pl & Pershing Dr ","32043","1404425059820","38.997445","-77.023894","true","false","1391876460000","","false","true",21,27,"1404404371137",2014-07-03 12:19:31,48,0.4375,0.5625
"309","318","Rockville Metro East","32044","1404425038840","39.085394","-77.145803","true","false","1393000800000","","false","true",23,27,"1404390084278",2014-07-03 08:21:24,50,0.46,0.54
"310","319","1st & H St NW","31638","1404425034093","38.900358","-77.012108","true","false","1392727500000","","false","true",22,30,"1404422860145",2014-07-03 17:27:40,52,0.423076923076923,0.576923076923077
"311","320","Fort Totten Metro","31515","1404425021864","38.952369","-77.002721","true","false","1392825840000","","false","true",23,4,"1404417085148",2014-07-03 15:51:25,27,0.851851851851852,0.148148148148148
"312","321","Takoma Metro","31408","1404424937533","38.975219","-77.016855","true","false","1392833400000","","false","true",9,23,"1404422862822",2014-07-03 17:27:42,32,0.28125,0.71875
"313","322","Rhode Island Ave Metro","31516","1404424886937","38.920682","-76.995876","true","false","1393259520000","","false","true",1,12,"1404418338940",2014-07-03 16:12:18,13,0.0769230769230769,0.923076923076923
"314","323","Rolfe St & 9th St S","31075","1404424971536","38.866471","-77.076131","true","false","1394630640000","","false","true",23,23,"1404348497620",2014-07-02 20:48:17,46,0.5,0.5
"315","324","Shirlington Transit Center / S Quincy & Randolph St","31076","1404424940710","38.839912","-77.087083","true","false","1394637480000","","false","true",4,26,"1404417651244",2014-07-03 16:00:51,30,0.133333333333333,0.866666666666667
"316","325","Shady Grove Metro West","32045","1404425081296","39.119765","-77.166093","true","false","1397837820000","","false","true",20,7,"1404425080679",2014-07-03 18:04:40,27,0.740740740740741,0.259259259259259
"317","326","River Rd & Landy Ln","32046","1404424931830","38.964992","-77.103381","true","false","1396972380000","","false","true",23,4,"1404418581512",2014-07-03 16:16:21,27,0.851851851851852,0.148148148148148
"318","327","Rockville Metro West","32047","1404424983801","39.084379","-77.146866","true","false","1397847900000","","false","true",21,6,"1404389595942",2014-07-03 08:13:15,27,0.777777777777778,0.222222222222222
"319","328","Bethesda Metro","32048","1404425074692","38.984691","-77.094537","true","false","1398786060000","","false","true",18,31,"1404424832898",2014-07-03 18:00:32,49,0.36734693877551,0.63265306122449
"320","329","Iwo Jima Memorial/N Meade & 14th St N","31077","1404424992316","38.88992","-77.071301","true","false","1402585680000","","false","true",5,29,"1404420055563",2014-07-03 16:40:55,34,0.147058823529412,0.852941176470588
