"","id","name","terminalName","lastCommWithServer","lat","long","installed","locked","installDate","removalDate","temporary","public","nbBikes","nbEmptyDocks","latestUpdateTime","date","total","percentBikes","percentDocks"
"1","1","20th & Bell St","31000","1403046954968","38.8561","-77.0512","true","false","1316059200000","","false","true",22,27,"1403031616927",2014-06-17 15:00:16,49,0.448979591836735,0.551020408163265
"2","2","18th & Eads St.","31001","1403046974224","38.85725","-77.05332","true","false","1284989400000","","false","true",24,13,"1403046973176",2014-06-17 19:16:13,37,0.648648648648649,0.351351351351351
"3","3","20th & Crystal Dr","31002","1403047037425","38.8564","-77.0492","true","false","1284464580000","","false","true",24,29,"1403046071001",2014-06-17 19:01:11,53,0.452830188679245,0.547169811320755
"4","4","15th & Crystal Dr","31003","1403047011117","38.86017","-77.049593","true","false","1284464880000","","false","true",21,28,"1403045042685",2014-06-17 18:44:02,49,0.428571428571429,0.571428571428571
"5","5","Aurora Hills Community Ctr/18th & Hayes St","31004","1403047141542","38.857866","-77.05949","true","false","1284464880000","","false","true",24,24,"1403046416413",2014-06-17 19:06:56,48,0.5,0.5
"6","6","12th & Hayes St /  Pentagon City Metro","31005","1403047168015","38.862303","-77.059936","true","false","1284464940000","","false","true",25,4,"1403046201330",2014-06-17 19:03:21,29,0.862068965517241,0.137931034482759
"7","7","S Joyce & Army Navy Dr","31006","1403047165326","38.8637","-77.0633","true","false","1284464940000","","false","true",13,29,"1403047163511",2014-06-17 19:19:23,42,0.30952380952381,0.69047619047619
"8","8","Crystal City Metro / 18th & Bell St","31007","1403047073617","38.8573","-77.0511","true","false","1284465000000","","false","true",26,3,"1403047072027",2014-06-17 19:17:52,29,0.896551724137931,0.103448275862069
"9","9","12th & Army Navy Dr","31008","1403047057447","38.8629","-77.0528","true","false","1284465000000","","false","true",21,28,"1403046572294",2014-06-17 19:09:32,49,0.428571428571429,0.571428571428571
"10","10","27th & Crystal Dr","31009","1403047175912","38.848441","-77.051516","true","false","1284465060000","","false","true",19,9,"1403046452834",2014-06-17 19:07:32,28,0.678571428571429,0.321428571428571
"11","11","S Glebe & Potomac Ave","31010","1403046969635","38.8426","-77.0502","true","false","1284465120000","","false","true",3,2,"1403046967731",2014-06-17 19:16:07,5,0.6,0.4
"12","12","23rd & Crystal Dr","31011","1403047134190","38.8533","-77.0498","true","false","1284465120000","","false","true",23,3,"1403046650418",2014-06-17 19:10:50,26,0.884615384615385,0.115384615384615
"13","13","26th & S Clark St","31012","1403047182771","38.850688","-77.05152","true","false","1284465300000","","false","true",22,27,"1403042200301",2014-06-17 17:56:40,49,0.448979591836735,0.551020408163265
"14","14","19th St & Pennsylvania Ave NW","31100","1403047111392","38.9003","-77.0429","true","false","1284465360000","","false","true",1,7,"1403046386105",2014-06-17 19:06:26,8,0.125,0.875
"15","15","14th & V St NW","31101","1403047116811","38.9176","-77.0321","true","false","1284465420000","","false","true",18,2,"1403047114947",2014-06-17 19:18:34,20,0.9,0.1
"16","16","11th & Kenyon St NW","31102","1403046998352","38.929464","-77.027822","true","false","1286539080000","","false","true",23,14,"1403046755089",2014-06-17 19:12:35,37,0.621621621621622,0.378378378378378
"17","17","16th & Harvard St NW","31103","1403047003579","38.926088","-77.036536","true","false","1284465480000","","false","true",1,22,"1403047002338",2014-06-17 19:16:42,23,0.0434782608695652,0.956521739130435
"18","18","Adams Mill & Columbia Rd NW","31104","1403047121271","38.922925","-77.042581","true","false","1284465540000","","false","true",25,28,"1403047120705",2014-06-17 19:18:40,53,0.471698113207547,0.528301886792453
"19","19","14th & Harvard St NW","31105","1403047146410","38.9268","-77.0322","true","false","1284465540000","","false","true",26,3,"1403046663035",2014-06-17 19:11:03,29,0.896551724137931,0.103448275862069
"20","20","Calvert & Biltmore St NW","31106","1403047003023","38.923203","-77.047637","true","false","1284465600000","","false","true",21,12,"1403047001682",2014-06-17 19:16:41,33,0.636363636363636,0.363636363636364
"21","21","Lamont & Mt Pleasant NW","31107","1403047090573","38.9319","-77.0388","true","false","1284465600000","","false","true",7,24,"1403047088986",2014-06-17 19:18:08,31,0.225806451612903,0.774193548387097
"22","22","4th & M St SW","31108","1403047186648","38.8767","-77.0178","true","false","1284465660000","","false","true",9,27,"1403046013808",2014-06-17 19:00:13,36,0.25,0.75
"23","23","15th & P St NW","31201","1403047022110","38.90985","-77.034438","true","false","1284465660000","","false","true",7,20,"1403047020899",2014-06-17 19:17:00,27,0.259259259259259,0.740740740740741
"24","24","14th & R St NW","31202","1403047069473","38.912682","-77.031681","true","false","1284465720000","","false","true",4,1,"1403047067683",2014-06-17 19:17:47,5,0.8,0.2
"25","25","14th & Rhode Island Ave NW","31203","1403047019146","38.9086","-77.0323","true","false","1284465780000","","false","true",14,1,"1403046534814",2014-06-17 19:08:54,15,0.933333333333333,0.0666666666666667
"26","26","20th & E St NW","31204","1403046977561","38.8963","-77.045","true","false","1284465840000","","false","true",2,6,"1403046976479",2014-06-17 19:16:16,8,0.25,0.75
"27","27","21st & I St NW","31205","1403047092920","38.9008","-77.047","true","false","1283861040000","","false","true",5,16,"1403047091796",2014-06-17 19:18:11,21,0.238095238095238,0.761904761904762
"28","28","Georgia & New Hampshire Ave NW","31400","1403047170917","38.936043","-77.024649","true","false","1284465900000","","false","true",2,7,"1403047169608",2014-06-17 19:19:29,9,0.222222222222222,0.777777777777778
"29","29","14th St & Spring Rd NW","31401","1403047016670","38.9375","-77.0328","true","false","1284465960000","","false","true",23,26,"1403045567041",2014-06-17 18:52:47,49,0.469387755102041,0.530612244897959
"30","30","John McCormack Dr & Michigan Ave NE","31502","1403047174259","38.9346","-76.9955","true","false","1284465960000","","false","true",25,20,"1403043068256",2014-06-17 18:11:08,45,0.555555555555556,0.444444444444444
"31","31","5th & K St NW","31600","1403047162896","38.90304","-77.019027","true","false","1284466020000","","false","true",4,29,"1403047162088",2014-06-17 19:19:22,33,0.121212121212121,0.878787878787879
"32","32","19th & East Capitol St SE","31601","1403047092575","38.8896","-76.9769","true","false","1284466020000","","false","true",24,29,"1403047091108",2014-06-17 19:18:11,53,0.452830188679245,0.547169811320755
"33","33","Park Rd & Holmead Pl NW","31602","1403047154354","38.9308","-77.0315","true","false","1284466080000","","false","true",21,8,"1403046911102",2014-06-17 19:15:11,29,0.724137931034483,0.275862068965517
"34","34","Good Hope & Naylor Rd SE","31700","1403047130364","38.8601","-76.9672","true","false","1284466140000","","false","true",21,28,"1403005064127",2014-06-17 07:37:44,49,0.428571428571429,0.571428571428571
"35","35","Connecticut Ave & Newark St NW / Cleveland Park","31305","1403047168439","38.934267","-77.057979","true","false","1289241840000","","false","true",24,13,"1403047167001",2014-06-17 19:19:27,37,0.648648648648649,0.351351351351351
"36","36","Randle Circle & Minnesota Ave SE","31702","1403047175237","38.878","-76.9607","true","false","1284466200000","","false","true",22,27,"1402898108998",2014-06-16 01:55:08,49,0.448979591836735,0.551020408163265
"37","37","Minnesota Ave Metro/DOES","31703","1403046947765","38.897063","-76.947446","true","false","1284466200000","","false","true",25,20,"1403020449148",2014-06-17 11:54:09,45,0.555555555555556,0.444444444444444
"38","38","Nannie Helen Burroughs & Minnesota Ave NE","31704","1403047126782","38.901385","-76.941877","true","false","1386766320000","1298396940000","false","true",24,24,"1403045677836",2014-06-17 18:54:37,48,0.5,0.5
"39","39","Anacostia Metro","31801","1403047095735","38.862669","-76.994637","true","false","1284466260000","","false","true",25,13,"1403046370289",2014-06-17 19:06:10,38,0.657894736842105,0.342105263157895
"40","40","Good Hope Rd & MLK Ave SE","31802","1403047077206","38.867373","-76.988039","true","false","1305288720000","","false","true",21,28,"1403046110050",2014-06-17 19:01:50,49,0.428571428571429,0.571428571428571
"41","41","19th & E Street NW","31206","1403047116639","38.8952","-77.0436","true","false","1284545040000","","false","true",23,26,"1403047115546",2014-06-17 19:18:35,49,0.469387755102041,0.530612244897959
"42","42","4th St & Rhode Island Ave NE","31500","1403047171762","38.919488","-77.000624","true","false","1289970000000","","false","true",24,24,"1403046204877",2014-06-17 19:03:24,48,0.5,0.5
"43","43","10th & U St NW","31111","1403047141414","38.9172","-77.0259","true","false","1285822380000","","false","true",3,20,"1403045931677",2014-06-17 18:58:51,23,0.130434782608696,0.869565217391304
"44","44","Georgia Ave and Fairmont St NW","31207","1403047176887","38.9249","-77.0222","true","false","1285041600000","","false","true",23,26,"1403046693082",2014-06-17 19:11:33,49,0.469387755102041,0.530612244897959
"45","45","1st & N St  SE","31209","1403047041002","38.8743","-77.0057","true","false","1285041600000","","false","true",20,20,"1403047039779",2014-06-17 19:17:19,40,0.5,0.5
"46","46","20th St & Florida Ave NW","31110","1403047034833","38.9154","-77.0446","true","false","1285217520000","","false","true",5,20,"1403047033246",2014-06-17 19:17:13,25,0.2,0.8
"47","47","7th & T St NW","31109","1403047006190","38.9155","-77.0222","true","false","1285735680000","","false","true",4,24,"1403046522100",2014-06-17 19:08:42,28,0.142857142857143,0.857142857142857
"48","48","23rd & Eads St","31013","1403047186214","38.853613","-77.053535","true","false","1287562620000","","false","true",19,29,"1403044974609",2014-06-17 18:42:54,48,0.395833333333333,0.604166666666667
"49","49","M St & New Jersey Ave SE","31208","1403046983623","38.8763","-77.0037","true","false","1285041600000","","false","true",10,1,"1403046299468",2014-06-17 19:04:59,11,0.909090909090909,0.0909090909090909
"50","51","Massachusetts Ave & Dupont Circle NW","31200","1403046988899","38.9101","-77.0444","true","false","1284523200000","","false","true",19,25,"1403046746205",2014-06-17 19:12:26,44,0.431818181818182,0.568181818181818
"51","52","1st & M St NE","31603","1403047058058","38.9057","-77.0056","true","false","1287115200000","","false","true",2,7,"1403046574293",2014-06-17 19:09:34,9,0.222222222222222,0.777777777777778
"52","53","21st & M St NW","31212","1403047023952","38.90534","-77.046774","true","false","1285041600000","","false","true",1,12,"1403047022715",2014-06-17 19:17:02,13,0.0769230769230769,0.923076923076923
"53","54","17th & K St NW","31213","1403047001564","38.90276","-77.03863","true","false","1306236960000","","false","true",1,11,"1403046999964",2014-06-17 19:16:39,12,0.0833333333333333,0.916666666666667
"54","55","3rd & H St NW","31604","1403047042170","38.899408","-77.015289","true","false","1287028800000","","false","true",22,3,"1403046798919",2014-06-17 19:13:18,25,0.88,0.12
"55","56","3rd & D St SE","31605","1403047092569","38.8851","-77.0023","true","false","1287201600000","","false","true",3,2,"1403046608391",2014-06-17 19:10:08,5,0.6,0.4
"56","57","Potomac & Pennsylvania Ave SE","31606","1403047076697","38.8803","-76.9862","true","false","1287460800000","","false","true",23,30,"1403046834233",2014-06-17 19:13:54,53,0.433962264150943,0.566037735849057
"57","58","14th & D St SE","31607","1403047018277","38.884","-76.9861","true","false","1287374400000","","false","true",22,28,"1403045106811",2014-06-17 18:45:06,50,0.44,0.56
"58","59","17th & Corcoran St NW","31214","1403047186612","38.9121","-77.0387","true","false","1294078980000","","false","true",11,1,"1403047185066",2014-06-17 19:19:45,12,0.916666666666667,0.0833333333333333
"59","60","Van Ness Metro / UDC","31300","1403047185569","38.944551","-77.063896","true","false","1289624400000","","false","true",19,5,"1403046173005",2014-06-17 19:02:53,24,0.791666666666667,0.208333333333333
"60","61","Florida Ave & R St NW","31503","1403047142761","38.9126","-77.0135","true","false","1290056400000","","false","true",8,1,"1403045932860",2014-06-17 18:58:52,9,0.888888888888889,0.111111111111111
"61","62","8th & Eye St SE / Barracks Row","31608","1403047150604","38.8792","-76.9953","true","false","1287374400000","","false","true",2,30,"1403047149187",2014-06-17 19:19:09,32,0.0625,0.9375
"62","63","Ward Circle / American University","31301","1403046973466","38.938736","-77.087171","true","false","1289538000000","","false","true",13,6,"1403046730722",2014-06-17 19:12:10,19,0.684210526315789,0.315789473684211
"63","64","Idaho Ave & Newark St NW [on 2nd District patio]","31302","1403047041000","38.934751","-77.074647","true","false","1289970000000","","false","true",26,27,"1403046798204",2014-06-17 19:13:18,53,0.490566037735849,0.509433962264151
"64","65","14th St Heights / 14th & Crittenden St NW","31402","1403047179120","38.947774","-77.032818","true","false","1289970000000","","false","true",13,30,"1403046142861",2014-06-17 19:02:22,43,0.302325581395349,0.697674418604651
"65","66","Anacostia Library","31804","1403047184561","38.865784","-76.9784","true","false","1288584000000","","false","true",22,27,"1403026805150",2014-06-17 13:40:05,49,0.448979591836735,0.551020408163265
"66","67","Pennsylvania & Minnesota Ave SE","31805","1403047088233","38.873057","-76.971015","true","false","1288584000000","","false","true",26,13,"1403044222786",2014-06-17 18:30:22,39,0.666666666666667,0.333333333333333
"67","68","Eastern Market / 7th & North Carolina Ave SE","31610","1403047010292","38.886952","-76.996806","true","false","1282363200000","","false","true",1,7,"1403046590667",2014-06-17 19:09:50,8,0.125,0.875
"68","69","McPherson Square / 14th & H St NW","31216","1403047006075","38.899641","-77.032005","true","false","1284436800000","","false","true",1,12,"1403047004682",2014-06-17 19:16:44,13,0.0769230769230769,0.923076923076923
"69","70","Benning Branch Library","31705","1403047153916","38.894","-76.947974","true","false","1288584000000","","false","true",23,26,"1403019438831",2014-06-17 11:37:18,49,0.469387755102041,0.530612244897959
"70","71","USDA / 12th & Independence Ave SW","31217","1403047139856","38.887237","-77.028226","true","false","1286297580000","","false","true",23,22,"1403046123780",2014-06-17 19:02:03,45,0.511111111111111,0.488888888888889
"71","72","Georgetown Harbor / 30th St NW","31215","1403047158132","38.9022212","-77.059219","true","false","1286300580000","","false","true",13,10,"1403047156637",2014-06-17 19:19:16,23,0.565217391304348,0.434782608695652
"72","73","12th & Newton St NE","31501","1403047185487","38.933668","-76.991016","true","false","1286306220000","","false","true",19,28,"1403045494887",2014-06-17 18:51:34,47,0.404255319148936,0.595744680851064
"73","74","US Dept of State / Virginia Ave & 21st St NW","31220","1403047080922","38.894919","-77.046587","true","false","1286661900000","","false","true",25,28,"1403046350545",2014-06-17 19:05:50,53,0.471698113207547,0.528301886792453
"74","75","L'Enfant Plaza / 7th & C St SW","31218","1403047037239","38.886266","-77.022241","true","false","1286410980000","","false","true",19,4,"1403046311584",2014-06-17 19:05:11,23,0.826086956521739,0.173913043478261
"75","76","10th St & Constitution Ave NW","31219","1403047150928","38.893028","-77.026013","true","false","1286497620000","","false","true",1,21,"1403046425308",2014-06-17 19:07:05,22,0.0454545454545455,0.954545454545455
"76","77","Kennedy Center","31211","1403046971615","38.895184","-77.054845","true","false","1286325060000","","false","true",25,20,"1403046004579",2014-06-17 19:00:04,45,0.555555555555556,0.444444444444444
"77","78","Eastern Market Metro / Pennsylvania Ave & 7th St SE","31613","1403047106489","38.884","-76.995397","true","false","1286411820000","","false","true",13,7,"1403047105418",2014-06-17 19:18:25,20,0.65,0.35
"78","79","18th & M St NW","31221","1403047137411","38.904742","-77.041606","true","false","1286458140000","","false","true",1,12,"1403047136009",2014-06-17 19:18:56,13,0.0769230769230769,0.923076923076923
"79","80","Tenleytown / Wisconsin Ave & Albemarle St NW","31303","1403047127078","38.947607","-77.079382","true","false","1287150300000","","false","true",2,7,"1403046884863",2014-06-17 19:14:44,9,0.222222222222222,0.777777777777778
"80","81","13th & H St NE","31611","1403047087677","38.9003","-76.9882","true","false","1286547000000","","false","true",6,7,"1403047078039",2014-06-17 19:17:58,13,0.461538461538462,0.538461538461538
"81","82","5th & F St NW","31620","1403047034552","38.897222","-77.019347","true","false","1286492280000","","false","true",26,16,"1403046299332",2014-06-17 19:04:59,42,0.619047619047619,0.380952380952381
"82","83","New York Ave & 15th St NW","31222","1403047005635","38.8991","-77.0337","true","false","1286631960000","","false","true",1,8,"1403042968104",2014-06-17 18:09:28,9,0.111111111111111,0.888888888888889
"83","84","Convention Center / 7th & M St NW","31223","1403047099964","38.90572","-77.022264","true","false","1286631960000","","false","true",12,1,"1403047098479",2014-06-17 19:18:18,13,0.923076923076923,0.0769230769230769
"84","85","Harvard St & Adams Mill Rd NW","31112","1403046965870","38.927872","-77.043358","true","false","1294164840000","","false","true",4,24,"1403046965128",2014-06-17 19:16:05,28,0.142857142857143,0.857142857142857
"85","86","19th & L St NW","31224","1403047169254","38.903407","-77.043648","true","false","1287182880000","","false","true",1,7,"1403045773436",2014-06-17 18:56:13,8,0.125,0.875
"86","87","C & O Canal & Wisconsin Ave NW","31225","1403047076534","38.90375","-77.06269","true","false","1287460800000","","false","true",12,24,"1403046833540",2014-06-17 19:13:53,36,0.333333333333333,0.666666666666667
"87","88","6th & Water St SW / SW Waterfront","31609","1403047152956","38.87675","-77.02127","true","false","1287720000000","","false","true",22,6,"1403046669380",2014-06-17 19:11:09,28,0.785714285714286,0.214285714285714
"88","89","D St & Maryland Ave NE","31612","1403047112837","38.894758","-76.997114","true","false","1330094460000","","false","true",22,11,"1403046387224",2014-06-17 19:06:27,33,0.666666666666667,0.333333333333333
"89","90","34th St & Wisconsin Ave NW","31226","1403047071731","38.916442","-77.0682","true","false","1287182760000","","false","true",26,13,"1403047070277",2014-06-17 19:17:50,39,0.666666666666667,0.333333333333333
"90","91","13th St & New York Ave NW","31227","1403047045171","38.900283","-77.029822","true","false","1287416880000","","false","true",13,15,"1403046802555",2014-06-17 19:13:22,28,0.464285714285714,0.535714285714286
"91","92","8th & H St NW","31228","1403047172581","38.8997","-77.023086","true","false","1287115200000","","false","true",10,9,"1403047170575",2014-06-17 19:19:30,19,0.526315789473684,0.473684210526316
"92","93","10th & Monroe St NE","31504","1403047034177","38.932514","-76.992889","true","false","1287096120000","","false","true",19,28,"1403045102135",2014-06-17 18:45:02,47,0.404255319148936,0.595744680851064
"93","94","Eckington Pl & Q St NE","31505","1403047142899","38.910972","-77.00495","true","false","1287096120000","","false","true",21,27,"1403046899861",2014-06-17 19:14:59,48,0.4375,0.5625
"94","95","6th & H St NE","31615","1403047043716","38.900384","-76.99831","true","false","1323696720000","","false","true",8,29,"1403046168152",2014-06-17 19:02:48,37,0.216216216216216,0.783783783783784
"95","96","3rd & H St NE","31616","1403047155645","38.900412","-77.001949","true","false","1287096060000","","false","true",21,7,"1403047154332",2014-06-17 19:19:14,28,0.75,0.25
"96","97","Bladensburg Rd & Benning Rd NE","31617","1403047013870","38.900413","-76.982872","true","false","1288200360000","","false","true",25,28,"1403046284329",2014-06-17 19:04:44,53,0.471698113207547,0.528301886792453
"97","98","4th & East Capitol St NE","31618","1403047136378","38.889955","-77.000349","true","false","1287028800000","","false","true",24,20,"1403047134603",2014-06-17 19:18:54,44,0.545454545454545,0.454545454545455
"98","99","Lincoln Park / 13th & East Capitol St NE ","31619","1403047048594","38.890461","-76.988355","true","false","1288038900000","","false","true",6,5,"1403046805671",2014-06-17 19:13:25,11,0.545454545454545,0.454545454545455
"99","100","Branch & Pennsylvania Ave SE","31701","1403047119381","38.8692","-76.9599","true","false","1309008600000","","false","true",13,30,"1402898056665",2014-06-16 01:54:16,43,0.302325581395349,0.697674418604651
"100","101","13th & D St NE","31622","1403047141731","38.894832","-76.987633","true","false","1288114080000","","false","true",17,26,"1403046898627",2014-06-17 19:14:58,43,0.395348837209302,0.604651162790698
"101","102","New Hampshire Ave & T St NW","31229","1403047155665","38.91554","-77.03818","true","false","1287178020000","","false","true",15,13,"1403046912766",2014-06-17 19:15:12,28,0.535714285714286,0.464285714285714
"102","103","Metro Center / 12th & G St NW","31230","1403047141208","38.898364","-77.027869","true","false","1305259200000","","false","true",7,10,"1403047140305",2014-06-17 19:19:00,17,0.411764705882353,0.588235294117647
"103","104","14th & D St NW / Ronald Reagan Building","31231","1403047155956","38.894514","-77.031617","true","false","1303306260000","","false","true",1,16,"1403045574317",2014-06-17 18:52:54,17,0.0588235294117647,0.941176470588235
"104","105","7th & F St NW / National Portrait Gallery","31232","1403046956042","38.897324","-77.022322","true","false","1304108940000","","false","true",6,27,"1403046955132",2014-06-17 19:15:55,33,0.181818181818182,0.818181818181818
"105","106","17th & K St NW / Farragut Square","31233","1403047135601","38.902061","-77.038322","true","false","1304022480000","","false","true",1,19,"1403046409540",2014-06-17 19:06:49,20,0.05,0.95
"106","107","20th & O St NW / Dupont South","31234","1403047087755","38.908905","-77.04478","true","false","1328850000000","","false","true",2,11,"1403047086089",2014-06-17 19:18:06,13,0.153846153846154,0.846153846153846
"107","108","4th & D St NW / Judiciary Square","31621","1403047015972","38.895344","-77.016106","true","false","1304481600000","","false","true",21,4,"1403046532238",2014-06-17 19:08:52,25,0.84,0.16
"108","109","19th St & Constitution Ave NW","31235","1403047185322","38.8923","-77.0436","true","false","1287607080000","","false","true",8,14,"1403045890557",2014-06-17 18:58:10,22,0.363636363636364,0.636363636363636
"109","110","37th & O St NW / Georgetown University","31236","1403047064771","38.90774","-77.071652","true","false","1288037580000","","false","true",26,6,"1403045857265",2014-06-17 18:57:37,32,0.8125,0.1875
"110","111","11th & H St NE","31614","1403047158402","38.899983","-76.991383","true","false","1323666000000","","false","true",4,27,"1403047136140",2014-06-17 19:18:56,31,0.129032258064516,0.870967741935484
"111","112","25th St & Pennsylvania Ave NW","31237","1403047159774","38.903827","-77.053485","true","false","1288551000000","","false","true",22,3,"1403047157601",2014-06-17 19:19:17,25,0.88,0.12
"112","113","Columbus Circle / Union Station","31623","1403046989340","38.89696","-77.00493","true","false","1285905600000","","false","true",1,23,"1403046987652",2014-06-17 19:16:27,24,0.0416666666666667,0.958333333333333
"113","114","North Capitol St & F St NW","31624","1403047120680","38.897446","-77.009888","true","false","1288122720000","","false","true",19,14,"1403047119686",2014-06-17 19:18:39,33,0.575757575757576,0.424242424242424
"114","115","11th & M St NW","31266","1403046984567","38.905607","-77.027137","true","false","1364995680000","","false","true",11,2,"1403046982986",2014-06-17 19:16:22,13,0.846153846153846,0.153846153846154
"115","116","36th & Calvert St NW / Glover Park","31304","1403047083165","38.922581","-77.070334","true","false","1289236620000","","false","true",19,4,"1403042402825",2014-06-17 18:00:02,23,0.826086956521739,0.173913043478261
"116","117","14th & G St NW","31238","1403047162910","38.898069","-77.031823","true","false","1289237340000","","false","true",2,14,"1403047161191",2014-06-17 19:19:21,16,0.125,0.875
"117","118","Potomac Ave & 35th St S","31052","1403047035536","38.844015","-77.050537","true","false","1351092960000","","false","true",25,7,"1403044986751",2014-06-17 18:43:06,32,0.78125,0.21875
"118","124","Ohio Dr & West Basin Dr SW / MLK & FDR Memorials","31240","1403047015665","38.88412","-77.04657","true","false","1331904960000","","false","true",16,2,"1403044255719",2014-06-17 18:30:55,18,0.888888888888889,0.111111111111111
"119","125","11th & F St NW","31262","1403047158878","38.897857","-77.026975","true","false","1359981840000","","false","true",21,3,"1403046674790",2014-06-17 19:11:14,24,0.875,0.125
"120","126","23rd & E St NW ","31260","1403047042843","38.896104","-77.049882","true","false","1359652440000","","false","true",2,11,"1403046800251",2014-06-17 19:13:20,13,0.153846153846154,0.846153846153846
"121","127","Lynn & 19th St North","31014","1403047129295","38.897315","-77.070993","true","false","1302957060000","","false","true",23,6,"1403047127909",2014-06-17 19:18:47,29,0.793103448275862,0.206896551724138
"122","128","Rosslyn Metro / Wilson Blvd & Ft Myer Dr","31015","1403047036620","38.8946","-77.072305","true","false","1302957120000","","false","true",6,13,"1403045828559",2014-06-17 18:57:08,19,0.315789473684211,0.684210526315789
"123","129","Clarendon Blvd & Pierce St","31016","1403047111264","38.893648","-77.076701","true","false","1302957960000","","false","true",23,26,"1403045661048",2014-06-17 18:54:21,49,0.469387755102041,0.530612244897959
"124","130","Court House Metro / Wilson Blvd & N Uhle St","31017","1403047141980","38.891696","-77.0846","true","false","1320933600000","","false","true",13,6,"1403046899245",2014-06-17 19:14:59,19,0.684210526315789,0.315789473684211
"125","131","N Rhodes & 16th St N","31018","1403047126097","38.892164","-77.079375","true","false","1302963480000","","false","true",13,30,"1403042254417",2014-06-17 17:57:34,43,0.302325581395349,0.697674418604651
"126","132","Fairfax Village","31706","1403046996089","38.86559","-76.952103","true","false","1311771600000","","false","true",23,30,"1403006833777",2014-06-17 08:07:13,53,0.433962264150943,0.566037735849057
"127","133","21st St & Constitution Ave NW","31261","1403046972938","38.892459","-77.046567","true","false","1359639120000","","false","true",2,7,"1403046971882",2014-06-17 19:16:11,9,0.222222222222222,0.777777777777778
"128","134","Wilson Blvd & N Edgewood St","31019","1403047014697","38.889","-77.0925","true","false","1321015980000","","false","true",2,7,"1403045213008",2014-06-17 18:46:53,9,0.222222222222222,0.777777777777778
"129","135","Columbia Rd & Belmont St NW","31113","1403046951823","38.920669","-77.04368","true","false","1321625100000","","false","true",25,4,"1403046709324",2014-06-17 19:11:49,29,0.862068965517241,0.137931034482759
"130","136","17th & Rhode Island Ave NW","31239","1403046954179","38.906602","-77.038785","true","false","1321639800000","","false","true",1,17,"1403046470507",2014-06-17 19:07:50,18,0.0555555555555556,0.944444444444444
"131","137","Thomas Circle","31241","1403047168719","38.9059","-77.0325","true","false","1321714320000","","false","true",1,21,"1403046926660",2014-06-17 19:15:26,22,0.0454545454545455,0.954545454545455
"132","138","Wilson Blvd & Franklin Rd","31020","1403047003104","38.8904","-77.0889","true","false","1322715600000","","false","true",1,3,"1403045634304",2014-06-17 18:53:54,4,0.25,0.75
"133","139","Clarendon Blvd & N Fillmore St","31021","1403046969144","38.8881","-77.09308","true","false","1321981080000","","false","true",1,8,"1403046725891",2014-06-17 19:12:05,9,0.111111111111111,0.888888888888889
"134","140","Clarendon Metro / Wilson Blvd & N Highland St","31022","1403047017673","38.88786","-77.094875","true","false","1321983480000","","false","true",25,29,"1403047016322",2014-06-17 19:16:56,54,0.462962962962963,0.537037037037037
"135","141","18th St & Pennsylvania Ave NW","31242","1403046951957","38.89968","-77.041539","true","false","1322571600000","","false","true",1,8,"1403044943223",2014-06-17 18:42:23,9,0.111111111111111,0.888888888888889
"136","142","Maryland & Independence Ave SW","31243","1403047104035","38.887299","-77.018939","true","false","1327669020000","","false","true",9,16,"1403046620173",2014-06-17 19:10:20,25,0.36,0.64
"137","143","4th & E St SW","31244","1403047120456","38.88412","-77.017445","true","false","1322756880000","","false","true",2,11,"1403047118679",2014-06-17 19:18:38,13,0.153846153846154,0.846153846153846
"138","144","3rd & G St SE","31625","1403047146304","38.881185","-77.001828","true","false","1322661660000","","false","true",3,29,"1403047145068",2014-06-17 19:19:05,32,0.09375,0.90625
"139","145","7th & R St NW / Shaw Library","31245","1403046945880","38.912719","-77.022155","true","false","1322583120000","","false","true",19,4,"1403046944732",2014-06-17 19:15:44,23,0.826086956521739,0.173913043478261
"140","146","9th & Upshur St NW","31404","1403047072483","38.9418","-77.0251","true","false","1323194880000","","false","true",24,29,"1403046829744",2014-06-17 19:13:49,53,0.452830188679245,0.547169811320755
"141","147","1st & Rhode Island Ave NW","31506","1403047144895","38.915417","-77.012289","true","false","1323178380000","","false","true",25,28,"1403047142597",2014-06-17 19:19:02,53,0.471698113207547,0.528301886792453
"142","148","Columbia Rd & Georgia Ave NW","31115","1403047091894","38.928156","-77.02344","true","false","1323234000000","","false","true",4,28,"1403046848521",2014-06-17 19:14:08,32,0.125,0.875
"143","149","California St & Florida Ave NW","31116","1403047024588","38.917761","-77.04062","true","false","1323752400000","","false","true",8,24,"1403047022907",2014-06-17 19:17:02,32,0.25,0.75
"144","150","Benning Rd & East Capitol St NE / Benning Rd Metro","31707","1403047084380","38.889935","-76.93723","true","false","1324404360000","","false","true",26,3,"1403045089906",2014-06-17 18:44:49,29,0.896551724137931,0.103448275862069
"145","151","3000 Connecticut Ave NW / National Zoo","31307","1403047003881","38.930282","-77.055599","true","false","1324496640000","","false","true",3,26,"1403047002620",2014-06-17 19:16:42,29,0.103448275862069,0.896551724137931
"146","152","Anacostia Ave & Benning Rd NE / River Terrace ","31708","1403047150361","38.896544","-76.96012","true","false","1324402320000","","false","true",24,29,"1403043477207",2014-06-17 18:17:57,53,0.452830188679245,0.547169811320755
"147","153","M St & Pennsylvania Ave NW","31246","1403047066670","38.905126","-77.056887","true","false","1324485480000","","false","true",3,29,"1403047065492",2014-06-17 19:17:45,32,0.09375,0.90625
"148","154","15th St & Massachusetts Ave SE","31626","1403047082712","38.88732","-76.983569","true","false","1324565040000","","false","true",4,20,"1403047081064",2014-06-17 19:18:01,24,0.166666666666667,0.833333333333333
"149","155","Congress Heights Metro","31806","1403046982351","38.844711","-76.987823","true","false","1324581180000","","false","true",22,30,"1403036300117",2014-06-17 16:18:20,52,0.423076923076923,0.576923076923077
"150","156","N Quincy St & Glebe Rd","31035","1403047063202","38.876393","-77.107735","true","false","1335552600000","","false","true",21,28,"1403045784329",2014-06-17 18:56:24,49,0.428571428571429,0.571428571428571
"151","157","Wilson Blvd & N Oakland St","31033","1403047039841","38.8815","-77.10396","true","false","1335387720000","","false","true",23,24,"1403044625072",2014-06-17 18:37:05,47,0.48936170212766,0.51063829787234
"152","158","N Veitch  & 20th St N","31029","1403047114019","38.896923","-77.086502","true","false","1335213360000","","false","true",24,29,"1403046147059",2014-06-17 19:02:27,53,0.452830188679245,0.547169811320755
"153","159","11th & K St NW","31263","1403046964404","38.90268","-77.02674","true","false","1360936140000","","false","true",21,7,"1403046721792",2014-06-17 19:12:01,28,0.75,0.25
"154","160","Fairfax Dr & Wilson Blvd","31023","1403047142640","38.885801","-77.097745","true","false","1335545880000","","false","true",23,26,"1403046658713",2014-06-17 19:10:58,49,0.469387755102041,0.530612244897959
"155","161","Key Blvd & N Quinn St","31027","1403047097566","38.896015","-77.078107","true","false","1335195480000","","false","true",21,28,"1403046613018",2014-06-17 19:10:13,49,0.428571428571429,0.571428571428571
"156","162","1st & K St SE","31628","1403046998024","38.87861","-77.006004","true","false","1328717220000","","false","true",8,1,"1403045467007",2014-06-17 18:51:07,9,0.888888888888889,0.111111111111111
"157","163","39th & Calvert St NW / Stoddert","31306","1403047049607","38.922649","-77.077271","true","false","1328898300000","","false","true",21,6,"1403046806585",2014-06-17 19:13:26,27,0.777777777777778,0.222222222222222
"158","164","1st & Washington Hospital Center NW","31507","1403047070398","38.928743","-77.012457","true","false","1329153540000","","false","true",26,27,"1403046586487",2014-06-17 19:09:46,53,0.490566037735849,0.509433962264151
"159","165","Virginia Square Metro / N Monroe St & 9th St N","31024","1403046975719","38.882788","-77.103148","true","false","1329508980000","","false","true",1,12,"1403046491820",2014-06-17 19:08:11,13,0.0769230769230769,0.923076923076923
"160","166","Central Library / N Quincy St & 10th St N","31025","1403047010054","38.88397","-77.10783","true","false","1329493920000","","false","true",13,30,"1403045264830",2014-06-17 18:47:44,43,0.302325581395349,0.697674418604651
"161","167","Washington Blvd & 10th St N","31026","1403047112456","38.884734","-77.093485","true","false","1329944340000","","false","true",19,5,"1403046627718",2014-06-17 19:10:27,24,0.791666666666667,0.208333333333333
"162","168","Jefferson Dr & 14th St SW","31247","1403047007795","38.888553","-77.032429","true","false","1331911860000","","false","true",3,5,"1403047006762",2014-06-17 19:16:46,8,0.375,0.625
"163","169","Smithsonian / Jefferson Dr & 12th St SW","31248","1403047100008","38.888767","-77.02858","true","false","1333369620000","","false","true",12,20,"1403047063065",2014-06-17 19:17:43,32,0.375,0.625
"164","170","George Mason Dr & Wilson Blvd","31036","1403046970544","38.87887","-77.1207","true","false","1335805380000","","false","true",25,28,"1403044708999",2014-06-17 18:38:28,53,0.471698113207547,0.528301886792453
"165","171","6th St & Indiana Ave NW","31264","1403047021812","38.894573","-77.01994","true","false","1364990040000","","false","true",5,26,"1403046779285",2014-06-17 19:12:59,31,0.161290322580645,0.838709677419355
"166","172","N Veitch & Key Blvd","31028","1403047150122","38.893241","-77.086045","true","false","1335202980000","","false","true",1,3,"1403043196246",2014-06-17 18:13:16,4,0.25,0.75
"167","173","N Adams St & Lee Hwy","31030","1403047135894","38.89593","-77.089006","true","false","1335369060000","","false","true",4,24,"1403046892667",2014-06-17 19:14:52,28,0.142857142857143,0.857142857142857
"168","174","15th & N Scott St","31031","1403047185948","38.89054","-77.08095","true","false","1335362100000","","false","true",19,29,"1403046702139",2014-06-17 19:11:42,48,0.395833333333333,0.604166666666667
"169","175","Washington Blvd & 7th St N","31032","1403047045173","38.880834","-77.091129","true","false","1335794400000","","false","true",13,30,"1403047044027",2014-06-17 19:17:24,43,0.302325581395349,0.697674418604651
"170","176","Ballston Metro / N Stuart & 9th St N","31037","1403047120852","38.881044","-77.111768","true","false","1335817440000","","false","true",19,9,"1403046154033",2014-06-17 19:02:34,28,0.678571428571429,0.321428571428571
"171","177","N Randolph St & Fairfax Dr","31034","1403047116185","38.882629","-77.109366","true","false","1335542580000","","false","true",25,20,"1403046632490",2014-06-17 19:10:32,45,0.555555555555556,0.444444444444444
"172","178","Jefferson Memorial","31249","1403047144700","38.879819","-77.037413","true","false","1335969180000","","false","true",19,14,"1403047143317",2014-06-17 19:19:03,33,0.575757575757576,0.424242424242424
"173","179","Good Hope Rd & 14th St SE","31803","1403047091362","38.866611","-76.985238","true","false","1335981060000","","false","true",4,24,"1403044652277",2014-06-17 18:37:32,28,0.142857142857143,0.857142857142857
"174","180","Glebe Rd & 11th St N","31038","1403047034056","38.883921","-77.116817","true","false","1337269200000","","false","true",21,28,"1403043591680",2014-06-17 18:19:51,49,0.428571428571429,0.571428571428571
"175","181","N Quincy St & Wilson Blvd","31039","1403047167024","38.880151","-77.107673","true","false","1338301620000","","false","true",24,24,"1403046934688",2014-06-17 19:15:34,48,0.5,0.5
"176","182","Fairfax Dr & Kenmore St","31040","1403046948308","38.884616","-77.10108","true","false","1366814880000","","false","true",13,30,"1403046463882",2014-06-17 19:07:43,43,0.302325581395349,0.697674418604651
"177","183","Gallaudet / 8th St & Florida Ave NE","31508","1403047060739","38.90509","-76.9941","true","false","1342033620000","","false","true",22,6,"1403046334839",2014-06-17 19:05:34,28,0.785714285714286,0.214285714285714
"178","185","20th & L St NW","31250","1403047091771","38.903584","-77.044789","true","false","1340632500000","","false","true",1,12,"1403044220476",2014-06-17 18:30:20,13,0.0769230769230769,0.923076923076923
"179","186","12th & L St NW","31251","1403047112760","38.903819","-77.0284","true","false","1340639640000","","false","true",2,11,"1403046870301",2014-06-17 19:14:30,13,0.153846153846154,0.846153846153846
"180","187","21st St & Pennsylvania Ave NW","31252","1403046967774","38.901539","-77.046564","true","false","1340811180000","","false","true",1,12,"1403045371305",2014-06-17 18:49:31,13,0.0769230769230769,0.923076923076923
"181","188","19th & K St NW","31253","1403047186693","38.902204","-77.04337","true","false","1340801880000","","false","true",1,15,"1403046978500",2014-06-17 19:16:18,16,0.0625,0.9375
"182","189","Prince St & Union St","31041","1403047155599","38.803124","-77.040363","true","false","1346070420000","","false","true",25,4,"1403047154433",2014-06-17 19:19:14,29,0.862068965517241,0.137931034482759
"183","190","Market Square / King St & Royal St","31042","1403047086861","38.804718","-77.043363","true","false","1346077680000","","false","true",26,27,"1403045154732",2014-06-17 18:45:54,53,0.490566037735849,0.509433962264151
"184","191","Saint Asaph St & Pendleton  St","31043","1403047176477","38.810743","-77.044664","true","false","1346084880000","","false","true",22,3,"1403046451302",2014-06-17 19:07:31,25,0.88,0.12
"185","192","King St & Patrick St","31044","1403047095334","38.805317","-77.049883","true","false","1346442900000","","false","true",24,29,"1403047093436",2014-06-17 19:18:13,53,0.452830188679245,0.547169811320755
"186","193","15th & K St NW","31254","1403047131833","38.902","-77.03353","true","false","1341232920000","","false","true",1,12,"1403046647920",2014-06-17 19:10:47,13,0.0769230769230769,0.923076923076923
"187","194","Commerce St & Fayette St","31045","1403046973797","38.805648","-77.05293","true","false","1346442960000","","false","true",26,27,"1403044845130",2014-06-17 18:40:45,53,0.490566037735849,0.509433962264151
"188","195","Henry St & Pendleton St","31046","1403046965955","38.811456","-77.050276","true","false","1346442960000","","false","true",26,29,"1403038906241",2014-06-17 17:01:46,55,0.472727272727273,0.527272727272727
"189","196","Braddock Rd Metro","31047","1403046984674","38.814577","-77.052808","true","false","1346442960000","","false","true",8,24,"1403046742327",2014-06-17 19:12:22,32,0.25,0.75
"190","197","King St Metro","31048","1403047017094","38.805767","-77.06072","true","false","1346443020000","","false","true",21,8,"1403044544479",2014-06-17 18:35:44,29,0.724137931034483,0.275862068965517
"191","198","24th & N St NW","31255","1403047006032","38.9066","-77.05152","true","false","1341575340000","","false","true",13,6,"1403046280191",2014-06-17 19:04:40,19,0.684210526315789,0.315789473684211
"192","199","10th & E St NW","31256","1403047114627","38.895914","-77.026064","true","false","1342109700000","","false","true",1,7,"1403045376429",2014-06-17 18:49:36,8,0.125,0.875
"193","200","22nd & I St NW / Foggy Bottom","31257","1403047049200","38.90088","-77.048911","true","false","1342442220000","","false","true",22,3,"1403047048077",2014-06-17 19:17:28,25,0.88,0.12
"194","201","Utah St & 11th St N ","31049","1403046987139","38.883669","-77.113905","true","false","1342539420000","","false","true",2,3,"1403040851622",2014-06-17 17:34:11,5,0.4,0.6
"195","202","Barton St & 10th St N","31050","1403046963380","38.884961","-77.08777","true","false","1346771820000","","false","true",22,27,"1403043885868",2014-06-17 18:24:45,49,0.448979591836735,0.551020408163265
"196","203","Arlington Blvd & N Queen St","31051","1403047096600","38.889365","-77.077294","true","false","1346776740000","","false","true",21,28,"1403046130184",2014-06-17 19:02:10,49,0.428571428571429,0.571428571428571
"197","204","Lincoln Memorial","31258","1403047109976","38.888251","-77.049426","true","false","1349268360000","","false","true",24,11,"1403047108613",2014-06-17 19:18:28,35,0.685714285714286,0.314285714285714
"198","206","20th St & Virginia Ave NW","31259","1403047072041","38.894722","-77.045128","true","false","1359646980000","","false","true",24,29,"1403045889063",2014-06-17 18:58:09,53,0.452830188679245,0.547169811320755
"199","207","5th St & Massachusetts Ave NW","31265","1403046983921","38.90093","-77.018677","true","false","1367842440000","","false","true",5,28,"1403046982163",2014-06-17 19:16:22,33,0.151515151515152,0.848484848484849
"200","208","39th & Veazey St NW","31308","1403047176847","38.943837","-77.077078","true","false","1360598160000","","false","true",24,29,"1403047175862",2014-06-17 19:19:35,53,0.452830188679245,0.547169811320755
"201","209","Fessenden St & Wisconsin Ave NW","31309","1403047130258","38.954812","-77.082426","true","false","1360588560000","","false","true",22,3,"1403044990088",2014-06-17 18:43:10,25,0.88,0.12
"202","210","M St & Delaware Ave NE","31627","1403047134864","38.905707","-77.003041","true","false","1360929900000","","false","true",3,4,"1403046658991",2014-06-17 19:10:58,7,0.428571428571429,0.571428571428571
"203","211","Columbia Pike & S Courthouse Rd","31053","1403047133379","38.863833","-77.080319","true","false","1364482620000","","false","true",25,28,"1403046890266",2014-06-17 19:14:50,53,0.471698113207547,0.528301886792453
"204","212","Walter Reed Community Center / Walter Reed Dr & 16th St S","31054","1403047046997","38.857803","-77.086733","true","false","1364466180000","","false","true",24,24,"1403043596245",2014-06-17 18:19:56,48,0.5,0.5
"205","213","28th St S & S Meade St","31055","1403047082890","38.846222","-77.069275","true","false","1364476320000","","false","true",25,28,"1403046595980",2014-06-17 19:09:55,53,0.471698113207547,0.528301886792453
"206","214","18th St & Wyoming Ave NW","31114","1403047021342","38.918809","-77.041571","true","false","1365003300000","","false","true",16,2,"1403046536882",2014-06-17 19:08:56,18,0.888888888888889,0.111111111111111
"207","215","5th & Kennedy St NW","31403","1403047152168","38.956595","-77.019815","true","false","1365777420000","","false","true",22,3,"1403040193156",2014-06-17 17:23:13,25,0.88,0.12
"208","216","Georgia Ave & Emerson St NW","31405","1403046981040","38.949662","-77.027333","true","false","1365783540000","","false","true",7,26,"1403045531031",2014-06-17 18:52:11,33,0.212121212121212,0.787878787878788
"209","217","14th & Upshur St NW","31406","1403047068138","38.942016","-77.032652","true","false","1365794820000","","false","true",21,8,"1403042216327",2014-06-17 17:56:56,29,0.724137931034483,0.275862068965517
"210","218","14th St & Colorado Ave NW","31407","1403046980468","38.956432","-77.032947","true","false","1365798900000","","false","true",7,26,"1403039133175",2014-06-17 17:05:33,33,0.212121212121212,0.787878787878788
"211","219","S Troy St & 26th St S","31056","1403047062260","38.847977","-77.075104","true","false","1366725840000","","false","true",22,27,"1403036386873",2014-06-17 16:19:46,49,0.448979591836735,0.551020408163265
"212","220","S Four Mile Run Dr & S Shirlington Rd","31057","1403047087441","38.8444","-77.085931","true","false","1366729200000","","false","true",24,24,"1403045395970",2014-06-17 18:49:55,48,0.5,0.5
"213","221","S Oakland St & Columbia Pike","31058","1403046978648","38.860789","-77.09586","true","false","1366735380000","","false","true",23,26,"1403014149826",2014-06-17 10:09:09,49,0.469387755102041,0.530612244897959
"214","222","S Abingdon St & 36th St S","31059","1403047140492","38.835213","-77.094295","true","false","1366739700000","","false","true",22,26,"1402971985487",2014-06-16 22:26:25,48,0.458333333333333,0.541666666666667
"215","223","S Arlington Mill Dr & Campbell Ave","31060","1403046958587","38.84232","-77.089555","true","false","1366802400000","","false","true",3,26,"1403043093111",2014-06-17 18:11:33,29,0.103448275862069,0.896551724137931
"216","224","S Kenmore & 24th St S","31061","1403047127940","38.848454","-77.084918","true","false","1366825140000","","false","true",24,24,"1403045436904",2014-06-17 18:50:36,48,0.5,0.5
"217","225","13th St & Eastern Ave","32006","1403046973943","38.987","-77.029417","true","false","1380292680000","","false","true",24,29,"1403046730999",2014-06-17 19:12:10,53,0.452830188679245,0.547169811320755
"218","226","Wisconsin Ave & O St NW","31312","1403047142239","38.90849","-77.063586","true","false","1366910820000","","false","true",5,28,"1403046899238",2014-06-17 19:14:59,33,0.151515151515152,0.848484848484849
"219","227","S George Mason Dr & 13th St S","31062","1403046968990","38.854691","-77.100555","true","false","1372694040000","","false","true",19,29,"1403021116826",2014-06-17 12:05:16,48,0.395833333333333,0.604166666666667
"220","228","Connecticut & Nebraska Ave NW","31310","1403047116468","38.955016","-77.069956","true","false","1366894140000","","false","true",10,27,"1403046874026",2014-06-17 19:14:34,37,0.27027027027027,0.72972972972973
"221","229","17th St & Massachusetts Ave NW","31267","1403047128654","38.908142","-77.038359","true","false","1367851920000","","false","true",1,12,"1403047127621",2014-06-17 19:18:47,13,0.0769230769230769,0.923076923076923
"222","230","15th & Euclid St  NW","31117","1403047006020","38.92333","-77.0352","true","false","1367856780000","","false","true",13,6,"1403046521751",2014-06-17 19:08:41,19,0.684210526315789,0.315789473684211
"223","231","8th & East Capitol St NE","31629","1403046998500","38.889988","-76.995193","true","false","1368545580000","","false","true",24,20,"1403046997450",2014-06-17 19:16:37,44,0.545454545454545,0.454545454545455
"224","232","New Jersey Ave & R St NW","31509","1403047009079","38.912659","-77.017669","true","false","1368532680000","","false","true",3,26,"1403047008215",2014-06-17 19:16:48,29,0.103448275862069,0.896551724137931
"225","233","15th & East Capitol St NE","31630","1403047086536","38.889908","-76.983326","true","false","1368541260000","","false","true",19,29,"1403046109248",2014-06-17 19:01:49,48,0.395833333333333,0.604166666666667
"226","234","8th & F St NE","31631","1403047161096","38.897274","-76.994749","true","false","1368552540000","","false","true",7,2,"1403046918812",2014-06-17 19:15:18,9,0.777777777777778,0.222222222222222
"227","235","18th St & Rhode Island Ave NE","31510","1403046947719","38.927095","-76.978924","true","false","1369915500000","","false","true",23,30,"1403046945507",2014-06-17 19:15:45,53,0.433962264150943,0.566037735849057
"228","236","15th & F St NE","31632","1403047086026","38.897195","-76.983575","true","false","1369928820000","","false","true",4,29,"1403046843456",2014-06-17 19:14:03,33,0.121212121212121,0.878787878787879
"229","237","12th & Irving St NE","31511","1403047102279","38.928644","-76.990955","true","false","1369923120000","","false","true",4,24,"1403045651938",2014-06-17 18:54:11,28,0.142857142857143,0.857142857142857
"230","238","34th St & Minnesota Ave SE","31709","1403047122676","38.884085","-76.957461","true","false","1370358840000","","false","true",13,30,"1403008041032",2014-06-17 08:27:21,43,0.302325581395349,0.697674418604651
"231","239","Alabama & MLK Ave SE","31800","1403047028794","38.843222","-76.999388","true","false","1370345160000","","false","true",13,30,"1403035972497",2014-06-17 16:12:52,43,0.302325581395349,0.697674418604651
"232","240","Pleasant St & MLK Ave SE","31807","1403047063888","38.863897","-76.990037","true","false","1370351820000","","false","true",23,26,"1403018606330",2014-06-17 11:23:26,49,0.469387755102041,0.530612244897959
"233","241","Neal St & Trinidad Ave NE","31512","1403046985234","38.903732","-76.987211","true","false","1371221640000","","false","true",7,2,"1403046983462",2014-06-17 19:16:23,9,0.777777777777778,0.222222222222222
"234","242","13th & U St NW","31268","1403047048413","38.916794","-77.029779","true","false","1371231240000","","false","true",3,6,"1403046805106",2014-06-17 19:13:25,9,0.333333333333333,0.666666666666667
"235","243","S George Mason Dr & Four Mile Run","31063","1403047009366","38.852248","-77.105022","true","false","1372690500000","","false","true",21,28,"1403043639707",2014-06-17 18:20:39,49,0.428571428571429,0.571428571428571
"236","244","S Stafford & 34th St S","31064","1403046953746","38.834108","-77.087323","true","false","1372701360000","","false","true",25,27,"1402928318840",2014-06-16 10:18:38,52,0.480769230769231,0.519230769230769
"237","245","N Pershing Dr & Wayne St","31065","1403047090948","38.880705","-77.08596","true","false","1372680300000","","false","true",23,26,"1403043345134",2014-06-17 18:15:45,49,0.469387755102041,0.530612244897959
"238","246","Columbia Pike & S Orme St","31066","1403047040327","38.867262","-77.072315","true","false","1372684620000","","false","true",19,29,"1403045349080",2014-06-17 18:49:09,48,0.395833333333333,0.604166666666667
"239","247","3rd St & Pennsylvania Ave SE","31269","1403046965408","38.887378","-77.001955","true","false","1374598740000","","false","true",3,24,"1403046963797",2014-06-17 19:16:03,27,0.111111111111111,0.888888888888889
"240","248","8th & D St NW","31270","1403047120027","38.894851","-77.02324","true","false","1374581640000","","false","true",22,3,"1403046877064",2014-06-17 19:14:37,25,0.88,0.12
"241","249","3rd & Elm St NW","31118","1403047150592","38.917622","-77.01597","true","false","1374589740000","","false","true",21,30,"1403046666944",2014-06-17 19:11:06,51,0.411764705882353,0.588235294117647
"242","250","Rhode Island Ave & V St NE","31513","1403047157563","38.918155","-77.004746","true","false","1375196700000","","false","true",19,9,"1403043127349",2014-06-17 18:12:07,28,0.678571428571429,0.321428571428571
"243","251","Constitution Ave & 2nd St NW/DOL","31271","1403047169255","38.892275","-77.013917","true","false","1375190280000","","false","true",10,29,"1403047168141",2014-06-17 19:19:28,39,0.256410256410256,0.743589743589744
"244","252","Washington & Independence Ave SW/HHS","31272","1403047079828","38.88731","-77.01397","true","false","1375445040000","","false","true",2,18,"1403046112723",2014-06-17 19:01:52,20,0.1,0.9
"245","253","Independence Ave & L'Enfant Plaza SW/DOE","31633","1403047118218","38.887397","-77.026154","true","false","1375789680000","","false","true",22,3,"1403046340667",2014-06-17 19:05:40,25,0.88,0.12
"246","254","Hamlin & 7th St NE","31514","1403047102890","38.927497","-76.997194","true","false","1376653440000","","false","true",25,28,"1403044438119",2014-06-17 18:33:58,53,0.471698113207547,0.528301886792453
"247","255","Columbia Pike & S Walter Reed Dr","31067","1403046993342","38.862478","-77.086599","true","false","1377605340000","","false","true",13,3,"1403044322647",2014-06-17 18:32:02,16,0.8125,0.1875
"248","256","Columbia Pike & S Dinwiddie St / Arlington Mill Community Center","31068","1403047054749","38.856319","-77.11153","true","false","1377776460000","","false","true",24,29,"1402964280181",2014-06-16 20:18:00,53,0.452830188679245,0.547169811320755
"249","257","Pershing & N George Mason Dr","31069","1403047110848","38.871822","-77.107906","true","false","1377792000000","","false","true",21,28,"1403046143545",2014-06-17 19:02:23,49,0.428571428571429,0.571428571428571
"250","258","Fenton St & New York Ave ","32001","1403046956159","38.985404","-77.023082","true","false","1380292620000","","false","true",22,30,"1403042651017",2014-06-17 18:04:11,52,0.423076923076923,0.576923076923077
"251","259","Bethesda Ave & Arlington Blvd","32002","1403047052400","38.981103","-77.097426","true","false","1380292620000","","false","true",4,29,"1403044168597",2014-06-17 18:29:28,33,0.121212121212121,0.878787878787879
"252","260","Montgomery Ave & Waverly St ","32003","1403047155566","38.983838","-77.09221","true","false","1382208480000","","false","true",23,26,"1403027820547",2014-06-17 13:57:00,49,0.469387755102041,0.530612244897959
"253","261","Fallsgrove Blvd & Fallsgrove Dr","32004","1403047184053","39.096312","-77.192672","true","false","1380292620000","","false","true",24,5,"1403046700232",2014-06-17 19:11:40,29,0.827586206896552,0.172413793103448
"254","262","Traville Gateway Dr & Gudelsky Dr","32005","1403046961797","39.093783","-77.202501","true","false","1380292680000","","false","true",23,6,"1402898117175",2014-06-16 01:55:17,29,0.793103448275862,0.206896551724138
"255","263","Norfolk Ave & Fairmont St","32000","1403047015784","38.988562","-77.096539","true","false","1380292560000","","false","true",22,27,"1403046772733",2014-06-17 19:12:52,49,0.448979591836735,0.551020408163265
"256","264","E Montgomery Ave & Maryland Ave","32007","1403047095205","39.084125","-77.151291","true","false","1380292560000","","false","true",4,24,"1403043196069",2014-06-17 18:13:16,28,0.142857142857143,0.857142857142857
"257","265","Cordell & Norfolk Ave","32008","1403047072902","38.98954","-77.098029","true","false","1380292740000","","false","true",24,24,"1403046347716",2014-06-17 19:05:47,48,0.5,0.5
"258","266","Frederick Ave & Horners Ln","32009","1403047001784","39.094772","-77.145213","true","false","1380292740000","","false","true",22,27,"1403045025708",2014-06-17 18:43:45,49,0.448979591836735,0.551020408163265
"259","267","Philadelphia & Maple Ave","32010","1403047063030","38.98128","-77.011336","true","false","1380292740000","","false","true",21,4,"1403047061628",2014-06-17 19:17:41,25,0.84,0.16
"260","268","Maple & Ritchie Ave","32011","1403046972935","38.983627","-77.006311","true","false","1380292800000","","false","true",21,8,"1403046488430",2014-06-17 19:08:08,29,0.724137931034483,0.275862068965517
"261","269","Silver Spring Metro/Colesville Rd & Wayne Ave","32012","1403046982792","38.99521","-77.02918","true","false","1380292800000","","false","true",24,4,"1403040888133",2014-06-17 17:34:48,28,0.857142857142857,0.142857142857143
"262","270","Montgomery & East Ln","32013","1403047047583","38.983525","-77.095367","true","false","1380292800000","","false","true",21,28,"1403047044808",2014-06-17 19:17:24,49,0.428571428571429,0.571428571428571
"263","271","Friendship Hts Metro/Wisconsin Ave & Wisconsin Cir","32014","1403047003701","38.961763","-77.085998","true","false","1380292860000","","false","true",24,5,"1403047002817",2014-06-17 19:16:42,29,0.827586206896552,0.172413793103448
"264","272","14th & Belmont St NW","31119","1403047181716","38.921074","-77.031887","true","false","1380719160000","","false","true",25,28,"1403046455866",2014-06-17 19:07:35,53,0.471698113207547,0.528301886792453
"265","273","3rd & Tingey St SE","31634","1403046953957","38.87501","-77.0024","true","false","1380722700000","","false","true",19,9,"1403046470288",2014-06-17 19:07:50,28,0.678571428571429,0.321428571428571
"266","274","10th & Florida Ave NW","31120","1403047002751","38.920387","-77.025672","true","false","1381320720000","","false","true",22,6,"1403045315561",2014-06-17 18:48:35,28,0.785714285714286,0.214285714285714
"267","275","Potomac Ave & 8th St SE","31635","1403046962378","38.876737","-76.994468","true","false","1381333800000","","false","true",1,8,"1403042719492",2014-06-17 18:05:19,9,0.111111111111111,0.888888888888889
"268","276","Crabbs Branch Way & Redland Rd","32015","1403046989871","39.120045","-77.156985","true","false","1382100480000","","false","true",23,30,"1403029466042",2014-06-17 14:24:26,53,0.433962264150943,0.566037735849057
"269","277","Fallsgrove Dr & W Montgomery Ave","32016","1403046971696","39.099376","-77.188014","true","false","1382120580000","","false","true",25,28,"1402898060077",2014-06-16 01:54:20,53,0.471698113207547,0.528301886792453
"270","278","Monroe St & Monroe Pl","32017","1403047184926","39.083705","-77.149443","true","false","1383309240000","","false","true",24,29,"1403045217177",2014-06-17 18:46:57,53,0.452830188679245,0.547169811320755
"271","279","Needwood Rd & Eagles Head Ct","32018","1403047043597","39.123513","-77.15741","true","false","1382107020000","","false","true",23,30,"1403029082857",2014-06-17 14:18:02,53,0.433962264150943,0.566037735849057
"272","280","East West Hwy & Blair Mill Rd","32019","1403047052679","38.990249","-77.02935","true","false","1383148920000","","false","true",25,28,"1403041283430",2014-06-17 17:41:23,53,0.471698113207547,0.528301886792453
"273","281","Crabbs Branch Way & Calhoun Pl","32020","1403046990375","39.107709","-77.152072","true","false","1382111460000","","false","true",23,30,"1403041055408",2014-06-17 17:37:35,53,0.433962264150943,0.566037735849057
"274","282","47th & Elm St","32021","1403047109185","38.982456","-77.091991","true","false","1382208540000","","false","true",26,27,"1403044840549",2014-06-17 18:40:40,53,0.490566037735849,0.509433962264151
"275","283","Garland Ave & Walden Rd","32022","1403047020144","39.000578","-77.00149","true","false","1383059580000","","false","true",22,3,"1403043227224",2014-06-17 18:13:47,25,0.88,0.12
"276","284","Montgomery College/W Campus Dr & Mannakee St","32023","1403047184124","39.095661","-77.159048","true","false","1382199120000","","false","true",25,6,"1403044648861",2014-06-17 18:37:28,31,0.806451612903226,0.193548387096774
"277","285","Fenton St & Gist Ave","32024","1403047008780","38.989724","-77.023854","true","false","1383054960000","","false","true",22,27,"1403044063452",2014-06-17 18:27:43,49,0.448979591836735,0.551020408163265
"278","286","Carroll & Westmoreland Ave","32025","1403047182984","38.975","-77.01121","true","false","1383065460000","","false","true",23,30,"1403042370423",2014-06-17 17:59:30,53,0.433962264150943,0.566037735849057
"279","287","Carroll & Ethan Allen Ave","32026","1403046948846","38.977933","-77.006472","true","false","1383070440000","","false","true",3,26,"1403045445915",2014-06-17 18:50:45,29,0.103448275862069,0.896551724137931
"280","288","Battery Ln & Trolley Trail","32027","1403047042648","38.992375","-77.100104","true","false","1382712300000","","false","true",5,20,"1403043686480",2014-06-17 18:21:26,25,0.2,0.8
"281","289","Norfolk & Rugby Ave","32028","1403046989312","38.990639","-77.100239","true","false","1382715180000","","false","true",21,28,"1403041300660",2014-06-17 17:41:40,49,0.428571428571429,0.571428571428571
"282","290","Offutt Ln & Chevy Chase Dr","32029","1403047091040","38.977093","-77.094589","true","false","1382722080000","","false","true",22,27,"1403039888398",2014-06-17 17:18:08,49,0.448979591836735,0.551020408163265
"283","291","Broschart & Blackwell Rd","32030","1403046958296","39.102099","-77.200322","true","false","1382798640000","","false","true",23,30,"1402898065291",2014-06-16 01:54:25,53,0.433962264150943,0.566037735849057
"284","292","Taft St & E Gude Dr","32031","1403046996026","39.094103","-77.132954","true","false","1382804520000","","false","true",23,30,"1403032325359",2014-06-17 15:12:05,53,0.433962264150943,0.566037735849057
"285","293","Fleet St & Ritchie Pkwy","32032","1403046945969","39.076331","-77.141378","true","false","1382809500000","","false","true",3,24,"1403042276856",2014-06-17 17:57:56,27,0.111111111111111,0.888888888888889
"286","294","Piccard & W Gude Dr","32033","1403046959535","39.102212","-77.177091","true","false","1382795700000","","false","true",24,5,"1403044472942",2014-06-17 18:34:32,29,0.827586206896552,0.172413793103448
"287","295","Ripley & Bonifant St","32034","1403046952856","38.992679","-77.029457","true","false","1383141360000","","false","true",25,28,"1403046160493",2014-06-17 19:02:40,53,0.471698113207547,0.528301886792453
"288","296","Georgia Ave & Spring St","32035","1403047077844","38.999388","-77.031555","true","false","1383146520000","","false","true",21,28,"1403042879221",2014-06-17 18:07:59,49,0.428571428571429,0.571428571428571
"289","297","Fenton St & Ellsworth Dr ","32036","1403047117683","38.997033","-77.025608","true","false","1383135960000","","false","true",26,27,"1403045838238",2014-06-17 18:57:18,53,0.490566037735849,0.509433962264151
"290","298","King Farm Blvd & Pleasant Dr","32037","1403046973671","39.114688","-77.171487","true","false","1383323580000","","false","true",3,29,"1403043450297",2014-06-17 18:17:30,32,0.09375,0.90625
"291","299","King Farm Blvd & Piccard Dr","32038","1403046953932","39.110314","-77.182669","true","false","1383318120000","","false","true",24,29,"1403039268626",2014-06-17 17:07:48,53,0.452830188679245,0.547169811320755
"292","301","Calvert St & Woodley Pl NW","31121","1403047118555","38.923583","-77.050046","true","false","1383657120000","","false","true",1,11,"1403046392482",2014-06-17 19:06:32,12,0.0833333333333333,0.916666666666667
"293","302","New Jersey Ave & N St NW/Dunbar HS","31636","1403046975316","38.90706","-77.015231","true","false","1383662880000","","false","true",5,28,"1403046732294",2014-06-17 19:12:12,33,0.151515151515152,0.848484848484849
"294","303","Nannie Helen Burroughs Ave & 49th St NE","31710","1403047109518","38.898536","-76.931862","true","false","1383923280000","","false","true",23,26,"1402915008614",2014-06-16 06:36:48,49,0.469387755102041,0.530612244897959
"295","304","Deanwood Rec Center","31711","1403047114294","38.908473","-76.933099","true","false","1383923280000","","false","true",22,3,"1402999003960",2014-06-17 05:56:43,25,0.88,0.12
"296","305","Hains Point/Buckeye & Ohio Dr SW","31273","1403046971062","38.878433","-77.03023","true","false","1383929160000","","false","true",24,3,"1403046244580",2014-06-17 19:04:04,27,0.888888888888889,0.111111111111111
"297","306","Arlington Blvd & Fillmore St","31070","1403047028399","38.873755","-77.089233","true","false","1384527780000","","false","true",22,27,"1403045096035",2014-06-17 18:44:56,49,0.448979591836735,0.551020408163265
"298","307","Long Bridge Park/Long Bridge Dr & 6th St S","31071","1403046952253","38.86646","-77.04826","true","false","1384520760000","","false","true",23,30,"1403046709480",2014-06-17 19:11:49,53,0.433962264150943,0.566037735849057
"299","308","Old Georgetown Rd & Southwick St","32039","1403046998379","38.999634","-77.109647","true","false","1384367940000","","false","true",26,3,"1403045929720",2014-06-17 18:58:49,29,0.896551724137931,0.103448275862069
"300","309","Friendship Blvd & Willard Ave","32040","1403046959338","38.96115","-77.088659","true","false","1384355760000","","false","true",21,7,"1403042691651",2014-06-17 18:04:51,28,0.75,0.25
"301","310","North Capitol St & G Pl NE","31637","1403047023912","38.899703","-77.008911","true","false","1386954360000","","false","true",1,11,"1403046539427",2014-06-17 19:08:59,12,0.0833333333333333,0.916666666666667
"302","311","31st & Woodrow St S","31072","1403046996863","38.837666","-77.09482","true","false","1387298640000","","false","true",22,27,"1403037557937",2014-06-17 16:39:17,49,0.448979591836735,0.551020408163265
"303","312","Washington Blvd & Walter Reed Dr ","31073","1403047052310","38.873219","-77.082104","true","false","1387287180000","","false","true",23,30,"1403044199089",2014-06-17 18:29:59,53,0.433962264150943,0.566037735849057
"304","313","Thomas Jefferson Cmty Ctr / 2nd St S & Ivy","31074","1403047067126","38.869675","-77.093586","true","false","1386774900000","","false","true",22,26,"1403045134821",2014-06-17 18:45:34,48,0.458333333333333,0.541666666666667
"305","314","Connecticut Ave & Tilden St NW","31313","1403046952109","38.941154","-77.062036","true","false","1386954480000","","false","true",13,5,"1403042402659",2014-06-17 18:00:02,18,0.722222222222222,0.277777777777778
"306","315","Medical Center Dr & Key West Ave","32041","1403046975563","39.103091","-77.196442","true","false","1389273960000","","false","true",25,28,"1403037527414",2014-06-17 16:38:47,53,0.471698113207547,0.528301886792453
"307","316","Shady Grove Hospital","32042","1403047001727","39.097636","-77.196636","true","false","1389287040000","","false","true",25,4,"1402898174164",2014-06-16 01:56:14,29,0.862068965517241,0.137931034482759
"308","317","Veterans Pl & Pershing Dr ","32043","1403047091576","38.997445","-77.023894","true","false","1391876460000","","false","true",23,26,"1402945388929",2014-06-16 15:03:08,49,0.469387755102041,0.530612244897959
"309","318","Rockville Metro East","32044","1403046947271","39.085394","-77.145803","true","false","1393000800000","","false","true",22,29,"1403044609219",2014-06-17 18:36:49,51,0.431372549019608,0.568627450980392
"310","319","1st & H St NW","31638","1403047181743","38.900358","-77.012108","true","false","1392727500000","","false","true",25,27,"1403046077436",2014-06-17 19:01:17,52,0.480769230769231,0.519230769230769
"311","320","Fort Totten Metro","31515","1403046984665","38.952369","-77.002721","true","false","1392825840000","","false","true",21,8,"1403046499809",2014-06-17 19:08:19,29,0.724137931034483,0.275862068965517
"312","321","Takoma Metro","31408","1403047186708","38.975219","-77.016855","true","false","1392833400000","","false","true",25,3,"1403047184799",2014-06-17 19:19:44,28,0.892857142857143,0.107142857142857
"313","322","Rhode Island Ave Metro","31516","1403047077335","38.920682","-76.995876","true","false","1393259520000","","false","true",22,7,"1403046352088",2014-06-17 19:05:52,29,0.758620689655172,0.241379310344828
"314","323","Rolfe St & 9th St S","31075","1403047184797","38.866471","-77.076131","true","false","1394630640000","","false","true",21,27,"1403044384162",2014-06-17 18:33:04,48,0.4375,0.5625
"315","324","Shirlington Transit Center / S Quincy & Randolph St","31076","1403047184620","38.839912","-77.087083","true","false","1394637480000","","false","true",24,29,"1403037257198",2014-06-17 16:34:17,53,0.452830188679245,0.547169811320755
"316","325","Shady Grove Metro West","32045","1403047135364","39.119765","-77.166093","true","false","1397837820000","","false","true",26,3,"1403043246092",2014-06-17 18:14:06,29,0.896551724137931,0.103448275862069
"317","326","River Rd & Landy Ln","32046","1403047102698","38.964992","-77.103381","true","false","1396972380000","","false","true",4,29,"1403015422008",2014-06-17 10:30:22,33,0.121212121212121,0.878787878787879
"318","327","Rockville Metro West","32047","1403047070722","39.084379","-77.146866","true","false","1397847900000","","false","true",26,3,"1403043470999",2014-06-17 18:17:50,29,0.896551724137931,0.103448275862069
"319","328","Bethesda Metro","32048","1403047080640","38.984691","-77.094537","true","false","1398786060000","","false","true",1,4,"1403044220600",2014-06-17 18:30:20,5,0.2,0.8
"320","329","Iwo Jima Memorial/N Meade & 14th St N","31077","1403047178777","38.88992","-77.071301","true","false","1402585680000","","false","true",26,29,"1403046211609",2014-06-17 19:03:31,55,0.472727272727273,0.527272727272727
