"","id","name","terminalName","lastCommWithServer","lat","long","installed","locked","installDate","removalDate","temporary","public","nbBikes","nbEmptyDocks","latestUpdateTime","date","total","percentBikes","percentDocks"
"1","1","20th & Bell St","31000","1403379122309","38.8561","-77.0512","true","false","1316059200000","","false","true",19,28,"1403378396506",2014-06-21 15:19:56,47,0.404255319148936,0.595744680851064
"2","2","18th & Eads St.","31001","1403379282464","38.85725","-77.05332","true","false","1284989400000","","false","true",21,21,"1403373915079",2014-06-21 14:05:15,42,0.5,0.5
"3","3","20th & Crystal Dr","31002","1403379185220","38.8564","-77.0492","true","false","1284464580000","","false","true",3,28,"1403379184265",2014-06-21 15:33:04,31,0.0967741935483871,0.903225806451613
"4","4","15th & Crystal Dr","31003","1403379247511","38.86017","-77.049593","true","false","1284464880000","","false","true",17,30,"1403374420473",2014-06-21 14:13:40,47,0.361702127659574,0.638297872340426
"5","5","Aurora Hills Community Ctr/18th & Hayes St","31004","1403379140263","38.857866","-77.05949","true","false","1284464880000","","false","true",19,28,"1403371532147",2014-06-21 13:25:32,47,0.404255319148936,0.595744680851064
"6","6","12th & Hayes St /  Pentagon City Metro","31005","1403379197303","38.862303","-77.059936","true","false","1284464940000","","false","true",8,27,"1403378230778",2014-06-21 15:17:10,35,0.228571428571429,0.771428571428571
"7","7","S Joyce & Army Navy Dr","31006","1403379122807","38.8637","-77.0633","true","false","1284464940000","","false","true",16,31,"1403376532112",2014-06-21 14:48:52,47,0.340425531914894,0.659574468085106
"8","8","Crystal City Metro / 18th & Bell St","31007","1403379264579","38.8573","-77.0511","true","false","1284465000000","","false","true",9,21,"1403378056276",2014-06-21 15:14:16,30,0.3,0.7
"9","9","12th & Army Navy Dr","31008","1403379112331","38.8629","-77.0528","true","false","1284465000000","","false","true",16,31,"1403378055768",2014-06-21 15:14:15,47,0.340425531914894,0.659574468085106
"10","10","27th & Crystal Dr","31009","1403379271415","38.848441","-77.051516","true","false","1284465060000","","false","true",18,7,"1403377066487",2014-06-21 14:57:46,25,0.72,0.28
"11","11","S Glebe & Potomac Ave","31010","1403379133474","38.8426","-77.0502","true","false","1284465120000","","false","true",12,32,"1403375580387",2014-06-21 14:33:00,44,0.272727272727273,0.727272727272727
"12","12","23rd & Crystal Dr","31011","1403379261474","38.8533","-77.0498","true","false","1284465120000","","false","true",2,9,"1403379018779",2014-06-21 15:30:18,11,0.181818181818182,0.818181818181818
"13","13","26th & S Clark St","31012","1403379116739","38.850688","-77.05152","true","false","1284465300000","","false","true",18,29,"1403373654080",2014-06-21 14:00:54,47,0.382978723404255,0.617021276595745
"14","14","19th St & Pennsylvania Ave NW","31100","1403379280878","38.9003","-77.0429","true","false","1284465360000","","false","true",16,5,"1403378869420",2014-06-21 15:27:49,21,0.761904761904762,0.238095238095238
"15","15","14th & V St NW","31101","1403379145051","38.9176","-77.0321","true","false","1284465420000","","false","true",11,31,"1403379144100",2014-06-21 15:32:24,42,0.261904761904762,0.738095238095238
"16","16","11th & Kenyon St NW","31102","1403379259347","38.929464","-77.027822","true","false","1286539080000","","false","true",2,18,"1403379258047",2014-06-21 15:34:18,20,0.1,0.9
"17","17","16th & Harvard St NW","31103","1403379094479","38.926088","-77.036536","true","false","1284465480000","","false","true",1,24,"1403378368840",2014-06-21 15:19:28,25,0.04,0.96
"18","18","Adams Mill & Columbia Rd NW","31104","1403379286977","38.922925","-77.042581","true","false","1284465540000","","false","true",20,30,"1403379285928",2014-06-21 15:34:45,50,0.4,0.6
"19","19","14th & Harvard St NW","31105","1403379236713","38.9268","-77.0322","true","false","1284465540000","","false","true",1,12,"1403379236039",2014-06-21 15:33:56,13,0.0769230769230769,0.923076923076923
"20","20","Calvert & Biltmore St NW","31106","1403379289286","38.923203","-77.047637","true","false","1284465600000","","false","true",1,17,"1403376418896",2014-06-21 14:46:58,18,0.0555555555555556,0.944444444444444
"21","21","Lamont & Mt Pleasant NW","31107","1403379276449","38.9319","-77.0388","true","false","1284465600000","","false","true",7,28,"1403378792220",2014-06-21 15:26:32,35,0.2,0.8
"22","22","4th & M St SW","31108","1403379159253","38.8767","-77.0178","true","false","1284465660000","","false","true",9,29,"1403379048512",2014-06-21 15:30:48,38,0.236842105263158,0.763157894736842
"23","23","15th & P St NW","31201","1403379248033","38.90985","-77.034438","true","false","1284465660000","","false","true",22,30,"1403379246616",2014-06-21 15:34:06,52,0.423076923076923,0.576923076923077
"24","24","14th & R St NW","31202","1403379107215","38.912682","-77.031681","true","false","1284465720000","","false","true",16,4,"1403378958601",2014-06-21 15:29:18,20,0.8,0.2
"25","25","14th & Rhode Island Ave NW","31203","1403379234163","38.9086","-77.0323","true","false","1284465780000","","false","true",21,7,"1403378894707",2014-06-21 15:28:14,28,0.75,0.25
"26","26","20th & E St NW","31204","1403379166103","38.8963","-77.045","true","false","1284465840000","","false","true",17,3,"1403379165182",2014-06-21 15:32:45,20,0.85,0.15
"27","27","21st & I St NW","31205","1403379202739","38.9008","-77.047","true","false","1283861040000","","false","true",1,25,"1403375486785",2014-06-21 14:31:26,26,0.0384615384615385,0.961538461538462
"28","28","Georgia & New Hampshire Ave NW","31400","1403379175483","38.936043","-77.024649","true","false","1284465900000","","false","true",16,5,"1403378690577",2014-06-21 15:24:50,21,0.761904761904762,0.238095238095238
"29","29","14th St & Spring Rd NW","31401","1403379171909","38.9375","-77.0328","true","false","1284465960000","","false","true",2,3,"1403377090301",2014-06-21 14:58:10,5,0.4,0.6
"30","30","John McCormack Dr & Michigan Ave NE","31502","1403379148998","38.9346","-76.9955","true","false","1284465960000","","false","true",22,13,"1403373330937",2014-06-21 13:55:30,35,0.628571428571429,0.371428571428571
"31","31","5th & K St NW","31600","1403379169941","38.90304","-77.019027","true","false","1284466020000","","false","true",18,7,"1403378926939",2014-06-21 15:28:46,25,0.72,0.28
"32","32","19th & East Capitol St SE","31601","1403379208458","38.8896","-76.9769","true","false","1284466020000","","false","true",20,31,"1403377517601",2014-06-21 15:05:17,51,0.392156862745098,0.607843137254902
"33","33","Park Rd & Holmead Pl NW","31602","1403379293218","38.9308","-77.0315","true","false","1284466080000","","false","true",1,12,"1403378900425",2014-06-21 15:28:20,13,0.0769230769230769,0.923076923076923
"34","34","Good Hope & Naylor Rd SE","31700","1403379085143","38.8601","-76.9672","true","false","1284466140000","","false","true",17,30,"1403265677761",2014-06-20 08:01:17,47,0.361702127659574,0.638297872340426
"35","35","Connecticut Ave & Newark St NW / Cleveland Park","31305","1403379170726","38.934267","-77.057979","true","false","1289241840000","","false","true",20,27,"1403378276461",2014-06-21 15:17:56,47,0.425531914893617,0.574468085106383
"36","36","Randle Circle & Minnesota Ave SE","31702","1403379182583","38.878","-76.9607","true","false","1284466200000","","false","true",17,30,"1403368060012",2014-06-21 12:27:40,47,0.361702127659574,0.638297872340426
"37","37","Minnesota Ave Metro/DOES","31703","1403379192202","38.897063","-76.947446","true","false","1284466200000","","false","true",18,29,"1403376064669",2014-06-21 14:41:04,47,0.382978723404255,0.617021276595745
"38","38","Nannie Helen Burroughs & Minnesota Ave NE","31704","1403379222918","38.901385","-76.941877","true","false","1386766320000","1298396940000","false","true",19,28,"1403346630445",2014-06-21 06:30:30,47,0.404255319148936,0.595744680851064
"39","39","Anacostia Metro","31801","1403379102085","38.862669","-76.994637","true","false","1284466260000","","false","true",21,21,"1403377652568",2014-06-21 15:07:32,42,0.5,0.5
"40","40","Good Hope Rd & MLK Ave SE","31802","1403379067466","38.867373","-76.988039","true","false","1305288720000","","false","true",17,30,"1403356588806",2014-06-21 09:16:28,47,0.361702127659574,0.638297872340426
"41","41","19th & E Street NW","31206","1403379297256","38.8952","-77.0436","true","false","1284545040000","","false","true",16,31,"1403373535988",2014-06-21 13:58:55,47,0.340425531914894,0.659574468085106
"42","42","4th St & Rhode Island Ave NE","31500","1403379252310","38.919488","-77.000624","true","false","1289970000000","","false","true",20,27,"1403375891645",2014-06-21 14:38:11,47,0.425531914893617,0.574468085106383
"43","43","10th & U St NW","31111","1403379286110","38.9172","-77.0259","true","false","1285822380000","","false","true",5,13,"1403379043527",2014-06-21 15:30:43,18,0.277777777777778,0.722222222222222
"44","44","Georgia Ave and Fairmont St NW","31207","1403379197924","38.9249","-77.0222","true","false","1285041600000","","false","true",3,2,"1403378558844",2014-06-21 15:22:38,5,0.6,0.4
"45","45","1st & N St  SE","31209","1403379262549","38.8743","-77.0057","true","false","1285041600000","","false","true",16,26,"1403379262270",2014-06-21 15:34:22,42,0.380952380952381,0.619047619047619
"46","46","20th St & Florida Ave NW","31110","1403379252854","38.9154","-77.0446","true","false","1285217520000","","false","true",12,6,"1403379009988",2014-06-21 15:30:09,18,0.666666666666667,0.333333333333333
"47","47","7th & T St NW","31109","1403379207827","38.9155","-77.0222","true","false","1285735680000","","false","true",7,1,"1403377634430",2014-06-21 15:07:14,8,0.875,0.125
"48","48","23rd & Eads St","31013","1403379277616","38.853613","-77.053535","true","false","1287562620000","","false","true",1,4,"1403375143732",2014-06-21 14:25:43,5,0.2,0.8
"49","49","M St & New Jersey Ave SE","31208","1403379306089","38.8763","-77.0037","true","false","1285041600000","","false","true",19,4,"1403378242749",2014-06-21 15:17:22,23,0.826086956521739,0.173913043478261
"50","51","Massachusetts Ave & Dupont Circle NW","31200","1403379301283","38.9101","-77.0444","true","false","1284523200000","","false","true",8,20,"1403379300540",2014-06-21 15:35:00,28,0.285714285714286,0.714285714285714
"51","52","1st & M St NE","31603","1403379105479","38.9057","-77.0056","true","false","1287115200000","","false","true",20,31,"1403378621029",2014-06-21 15:23:41,51,0.392156862745098,0.607843137254902
"52","53","21st & M St NW","31212","1403379175662","38.90534","-77.046774","true","false","1285041600000","","false","true",2,11,"1403378933398",2014-06-21 15:28:53,13,0.153846153846154,0.846153846153846
"53","54","17th & K St NW","31213","1403379141856","38.90276","-77.03863","true","false","1306236960000","","false","true",21,4,"1403379141562",2014-06-21 15:32:21,25,0.84,0.16
"54","55","3rd & H St NW","31604","1403379276655","38.899408","-77.015289","true","false","1287028800000","","false","true",19,32,"1403376076246",2014-06-21 14:41:16,51,0.372549019607843,0.627450980392157
"55","56","3rd & D St SE","31605","1403379293793","38.8851","-77.0023","true","false","1287201600000","","false","true",18,29,"1403379292504",2014-06-21 15:34:52,47,0.382978723404255,0.617021276595745
"56","57","Potomac & Pennsylvania Ave SE","31606","1403379229379","38.8803","-76.9862","true","false","1287460800000","","false","true",19,31,"1403378987357",2014-06-21 15:29:47,50,0.38,0.62
"57","58","14th & D St SE","31607","1403379244820","38.884","-76.9861","true","false","1287374400000","","false","true",21,29,"1403378210068",2014-06-21 15:16:50,50,0.42,0.58
"58","59","17th & Corcoran St NW","31214","1403379297350","38.9121","-77.0387","true","false","1294078980000","","false","true",12,10,"1403378453403",2014-06-21 15:20:53,22,0.545454545454545,0.454545454545455
"59","60","Van Ness Metro / UDC","31300","1403379226551","38.944551","-77.063896","true","false","1289624400000","","false","true",21,30,"1403378094716",2014-06-21 15:14:54,51,0.411764705882353,0.588235294117647
"60","61","Florida Ave & R St NW","31503","1403379097523","38.9126","-77.0135","true","false","1290056400000","","false","true",3,28,"1403378850037",2014-06-21 15:27:30,31,0.0967741935483871,0.903225806451613
"61","62","8th & Eye St SE / Barracks Row","31608","1403379126768","38.8792","-76.9953","true","false","1287374400000","","false","true",20,27,"1403378884041",2014-06-21 15:28:04,47,0.425531914893617,0.574468085106383
"62","63","Ward Circle / American University","31301","1403379160429","38.938736","-77.087171","true","false","1289538000000","","false","true",1,8,"1403378435233",2014-06-21 15:20:35,9,0.111111111111111,0.888888888888889
"63","64","Idaho Ave & Newark St NW [on 2nd District patio]","31302","1403379201381","38.934751","-77.074647","true","false","1289970000000","","false","true",18,3,"1403378144461",2014-06-21 15:15:44,21,0.857142857142857,0.142857142857143
"64","65","14th St Heights / 14th & Crittenden St NW","31402","1403379071063","38.947774","-77.032818","true","false","1289970000000","","false","true",20,27,"1403377637921",2014-06-21 15:07:17,47,0.425531914893617,0.574468085106383
"65","66","Anacostia Library","31804","1403379209732","38.865784","-76.9784","true","false","1288584000000","","false","true",19,28,"1403370210797",2014-06-21 13:03:30,47,0.404255319148936,0.595744680851064
"66","67","Pennsylvania & Minnesota Ave SE","31805","1403379080582","38.873057","-76.971015","true","false","1288584000000","","false","true",19,28,"1403377356346",2014-06-21 15:02:36,47,0.404255319148936,0.595744680851064
"67","68","Eastern Market / 7th & North Carolina Ave SE","31610","1403379192216","38.886952","-76.996806","true","false","1282363200000","","false","true",16,32,"1403378949039",2014-06-21 15:29:09,48,0.333333333333333,0.666666666666667
"68","69","McPherson Square / 14th & H St NW","31216","1403379286274","38.899641","-77.032005","true","false","1284436800000","","false","true",12,10,"1403374802037",2014-06-21 14:20:02,22,0.545454545454545,0.454545454545455
"69","70","Benning Branch Library","31705","1403379148084","38.894","-76.947974","true","false","1288584000000","","false","true",18,29,"1403371267371",2014-06-21 13:21:07,47,0.382978723404255,0.617021276595745
"70","71","USDA / 12th & Independence Ave SW","31217","1403379276728","38.887237","-77.028226","true","false","1286297580000","","false","true",13,12,"1403379274970",2014-06-21 15:34:34,25,0.52,0.48
"71","72","Georgetown Harbor / 30th St NW","31215","1403379275111","38.9022212","-77.059219","true","false","1286300580000","","false","true",19,6,"1403379274428",2014-06-21 15:34:34,25,0.76,0.24
"72","73","12th & Newton St NE","31501","1403379205040","38.933668","-76.991016","true","false","1286306220000","","false","true",21,21,"1403374506548",2014-06-21 14:15:06,42,0.5,0.5
"73","74","US Dept of State / Virginia Ave & 21st St NW","31220","1403379204145","38.894919","-77.046587","true","false","1286661900000","","false","true",1,8,"1403376715661",2014-06-21 14:51:55,9,0.111111111111111,0.888888888888889
"74","75","L'Enfant Plaza / 7th & C St SW","31218","1403379264802","38.886266","-77.022241","true","false","1286410980000","","false","true",17,3,"1403376030038",2014-06-21 14:40:30,20,0.85,0.15
"75","76","10th St & Constitution Ave NW","31219","1403379203669","38.893028","-77.026013","true","false","1286497620000","","false","true",15,28,"1403378958880",2014-06-21 15:29:18,43,0.348837209302326,0.651162790697674
"76","77","Kennedy Center","31211","1403379274338","38.895184","-77.054845","true","false","1286325060000","","false","true",12,31,"1403376539360",2014-06-21 14:48:59,43,0.27906976744186,0.720930232558139
"77","78","Eastern Market Metro / Pennsylvania Ave & 7th St SE","31613","1403379305454","38.884","-76.995397","true","false","1286411820000","","false","true",17,7,"1403379267977",2014-06-21 15:34:27,24,0.708333333333333,0.291666666666667
"78","79","18th & M St NW","31221","1403379254779","38.904742","-77.041606","true","false","1286458140000","","false","true",5,30,"1403379253325",2014-06-21 15:34:13,35,0.142857142857143,0.857142857142857
"79","80","Tenleytown / Wisconsin Ave & Albemarle St NW","31303","1403379083999","38.947607","-77.079382","true","false","1287150300000","","false","true",18,3,"1403378600369",2014-06-21 15:23:20,21,0.857142857142857,0.142857142857143
"80","81","13th & H St NE","31611","1403379234112","38.9003","-76.9882","true","false","1286547000000","","false","true",11,31,"1403378026332",2014-06-21 15:13:46,42,0.261904761904762,0.738095238095238
"81","82","5th & F St NW","31620","1403379089313","38.897222","-77.019347","true","false","1286492280000","","false","true",4,14,"1403379088805",2014-06-21 15:31:28,18,0.222222222222222,0.777777777777778
"82","83","New York Ave & 15th St NW","31222","1403379170521","38.8991","-77.0337","true","false","1286631960000","","false","true",19,32,"1403379170981",2014-06-21 15:32:50,51,0.372549019607843,0.627450980392157
"83","84","Convention Center / 7th & M St NW","31223","1403379303664","38.90572","-77.022264","true","false","1286631960000","","false","true",18,5,"1403379061592",2014-06-21 15:31:01,23,0.782608695652174,0.217391304347826
"84","85","Harvard St & Adams Mill Rd NW","31112","1403379084292","38.927872","-77.043358","true","false","1294164840000","","false","true",18,3,"1403379081026",2014-06-21 15:31:21,21,0.857142857142857,0.142857142857143
"85","86","19th & L St NW","31224","1403379078660","38.903407","-77.043648","true","false","1287182880000","","false","true",12,6,"1403377871259",2014-06-21 15:11:11,18,0.666666666666667,0.333333333333333
"86","87","C & O Canal & Wisconsin Ave NW","31225","1403379156076","38.90375","-77.06269","true","false","1287460800000","","false","true",8,31,"1403378671911",2014-06-21 15:24:31,39,0.205128205128205,0.794871794871795
"87","88","6th & Water St SW / SW Waterfront","31609","1403379264081","38.87675","-77.02127","true","false","1287720000000","","false","true",2,11,"1403377473994",2014-06-21 15:04:33,13,0.153846153846154,0.846153846153846
"88","89","D St & Maryland Ave NE","31612","1403379293695","38.894758","-76.997114","true","false","1330094460000","","false","true",21,8,"1403378560988",2014-06-21 15:22:40,29,0.724137931034483,0.275862068965517
"89","90","34th St & Wisconsin Ave NW","31226","1403379277328","38.916442","-77.0682","true","false","1287182760000","","false","true",17,29,"1403378551907",2014-06-21 15:22:31,46,0.369565217391304,0.630434782608696
"90","91","13th St & New York Ave NW","31227","1403379086411","38.900283","-77.029822","true","false","1287416880000","","false","true",16,14,"1403379085488",2014-06-21 15:31:25,30,0.533333333333333,0.466666666666667
"91","92","8th & H St NW","31228","1403379179500","38.8997","-77.023086","true","false","1287115200000","","false","true",11,7,"1403378936648",2014-06-21 15:28:56,18,0.611111111111111,0.388888888888889
"92","93","10th & Monroe St NE","31504","1403379140617","38.932514","-76.992889","true","false","1287096120000","","false","true",19,28,"1403377215945",2014-06-21 15:00:15,47,0.404255319148936,0.595744680851064
"93","94","Eckington Pl & Q St NE","31505","1403379226757","38.910972","-77.00495","true","false","1287096120000","","false","true",16,31,"1403377247698",2014-06-21 15:00:47,47,0.340425531914894,0.659574468085106
"94","95","6th & H St NE","31615","1403379116815","38.900384","-76.99831","true","false","1323696720000","","false","true",22,6,"1403379115005",2014-06-21 15:31:55,28,0.785714285714286,0.214285714285714
"95","96","3rd & H St NE","31616","1403379245585","38.900412","-77.001949","true","false","1287096060000","","false","true",19,6,"1403379002643",2014-06-21 15:30:02,25,0.76,0.24
"96","97","Bladensburg Rd & Benning Rd NE","31617","1403379250351","38.900413","-76.982872","true","false","1288200360000","","false","true",8,1,"1403379249619",2014-06-21 15:34:09,9,0.888888888888889,0.111111111111111
"97","98","4th & East Capitol St NE","31618","1403379297523","38.889955","-77.000349","true","false","1287028800000","","false","true",20,21,"1403378659284",2014-06-21 15:24:19,41,0.48780487804878,0.51219512195122
"98","99","Lincoln Park / 13th & East Capitol St NE ","31619","1403379106279","38.890461","-76.988355","true","false","1288038900000","","false","true",21,10,"1403378455993",2014-06-21 15:20:55,31,0.67741935483871,0.32258064516129
"99","100","Branch & Pennsylvania Ave SE","31701","1403379107661","38.8692","-76.9599","true","false","1309008600000","","false","true",17,30,"1403360973762",2014-06-21 10:29:33,47,0.361702127659574,0.638297872340426
"100","101","13th & D St NE","31622","1403379163174","38.894832","-76.987633","true","false","1288114080000","","false","true",14,31,"1403376989850",2014-06-21 14:56:29,45,0.311111111111111,0.688888888888889
"101","102","New Hampshire Ave & T St NW","31229","1403379094314","38.91554","-77.03818","true","false","1287178020000","","false","true",1,14,"1403378368645",2014-06-21 15:19:28,15,0.0666666666666667,0.933333333333333
"102","103","Metro Center / 12th & G St NW","31230","1403379068747","38.898364","-77.027869","true","false","1305259200000","","false","true",18,18,"1403379067962",2014-06-21 15:31:07,36,0.5,0.5
"103","104","14th & D St NW / Ronald Reagan Building","31231","1403379101079","38.894514","-77.031617","true","false","1303306260000","","false","true",22,9,"1403378902440",2014-06-21 15:28:22,31,0.709677419354839,0.290322580645161
"104","105","7th & F St NW / National Portrait Gallery","31232","1403379297265","38.897324","-77.022322","true","false","1304108940000","","false","true",11,1,"1403378899503",2014-06-21 15:28:19,12,0.916666666666667,0.0833333333333333
"105","106","17th & K St NW / Farragut Square","31233","1403379299056","38.902061","-77.038322","true","false","1304022480000","","false","true",19,14,"1403379271373",2014-06-21 15:34:31,33,0.575757575757576,0.424242424242424
"106","107","20th & O St NW / Dupont South","31234","1403379270461","38.908905","-77.04478","true","false","1328850000000","","false","true",12,10,"1403379027391",2014-06-21 15:30:27,22,0.545454545454545,0.454545454545455
"107","108","4th & D St NW / Judiciary Square","31621","1403379231134","38.895344","-77.016106","true","false","1304481600000","","false","true",18,3,"1403379229741",2014-06-21 15:33:49,21,0.857142857142857,0.142857142857143
"108","109","19th St & Constitution Ave NW","31235","1403379115146","38.8923","-77.0436","true","false","1287607080000","","false","true",12,23,"1403379048774",2014-06-21 15:30:48,35,0.342857142857143,0.657142857142857
"109","110","37th & O St NW / Georgetown University","31236","1403379263724","38.90774","-77.071652","true","false","1288037580000","","false","true",20,9,"1403379020992",2014-06-21 15:30:20,29,0.689655172413793,0.310344827586207
"110","111","11th & H St NE","31614","1403379261019","38.899983","-76.991383","true","false","1323666000000","","false","true",7,28,"1403377569827",2014-06-21 15:06:09,35,0.2,0.8
"111","112","25th St & Pennsylvania Ave NW","31237","1403379297776","38.903827","-77.053485","true","false","1288551000000","","false","true",16,5,"1403379296343",2014-06-21 15:34:56,21,0.761904761904762,0.238095238095238
"112","113","Columbus Circle / Union Station","31623","1403379280505","38.89696","-77.00493","true","false","1285905600000","","false","true",22,19,"1403379278747",2014-06-21 15:34:38,41,0.536585365853659,0.463414634146341
"113","114","North Capitol St & F St NW","31624","1403379092914","38.897446","-77.009888","true","false","1288122720000","","false","true",8,31,"1403378608557",2014-06-21 15:23:28,39,0.205128205128205,0.794871794871795
"114","115","11th & M St NW","31266","1403379214800","38.905607","-77.027137","true","false","1364995680000","","false","true",16,8,"1403379213242",2014-06-21 15:33:33,24,0.666666666666667,0.333333333333333
"115","116","36th & Calvert St NW / Glover Park","31304","1403379277665","38.922581","-77.070334","true","false","1289236620000","","false","true",17,3,"1403379276871",2014-06-21 15:34:36,20,0.85,0.15
"116","117","14th & G St NW","31238","1403379137377","38.898069","-77.031823","true","false","1289237340000","","false","true",5,4,"1403378895385",2014-06-21 15:28:15,9,0.555555555555556,0.444444444444444
"117","118","Potomac Ave & 35th St S","31052","1403379242195","38.844015","-77.050537","true","false","1351092960000","","false","true",22,7,"1403376701411",2014-06-21 14:51:41,29,0.758620689655172,0.241379310344828
"118","124","Ohio Dr & West Basin Dr SW / MLK & FDR Memorials","31240","1403379116973","38.88412","-77.04657","true","false","1331904960000","","false","true",12,15,"1403378391512",2014-06-21 15:19:51,27,0.444444444444444,0.555555555555556
"119","125","11th & F St NW","31262","1403379240350","38.897857","-77.026975","true","false","1359981840000","","false","true",18,32,"1403379239021",2014-06-21 15:33:59,50,0.36,0.64
"120","126","23rd & E St NW ","31260","1403379120266","38.896104","-77.049882","true","false","1359652440000","","false","true",2,11,"1403378649051",2014-06-21 15:24:09,13,0.153846153846154,0.846153846153846
"121","127","Lynn & 19th St North","31014","1403379272735","38.897315","-77.070993","true","false","1302957060000","","false","true",5,29,"1403377611409",2014-06-21 15:06:51,34,0.147058823529412,0.852941176470588
"122","128","Rosslyn Metro / Wilson Blvd & Ft Myer Dr","31015","1403379101381","38.8946","-77.072305","true","false","1302957120000","","false","true",18,3,"1403378135229",2014-06-21 15:15:35,21,0.857142857142857,0.142857142857143
"123","129","Clarendon Blvd & Pierce St","31016","1403379098050","38.893648","-77.076701","true","false","1302957960000","","false","true",2,3,"1403378105556",2014-06-21 15:15:05,5,0.4,0.6
"124","130","Court House Metro / Wilson Blvd & N Uhle St","31017","1403379087287","38.891696","-77.0846","true","false","1320933600000","","false","true",17,4,"1403377442156",2014-06-21 15:04:02,21,0.80952380952381,0.19047619047619
"125","131","N Rhodes & 16th St N","31018","1403379182575","38.892164","-77.079375","true","false","1302963480000","","false","true",19,28,"1403371407315",2014-06-21 13:23:27,47,0.404255319148936,0.595744680851064
"126","132","Fairfax Village","31706","1403379092289","38.86559","-76.952103","true","false","1311771600000","","false","true",18,3,"1403302656030",2014-06-20 18:17:36,21,0.857142857142857,0.142857142857143
"127","133","21st St & Constitution Ave NW","31261","1403379109284","38.892459","-77.046567","true","false","1359639120000","","false","true",12,4,"1403378624655",2014-06-21 15:23:44,16,0.75,0.25
"128","134","Wilson Blvd & N Edgewood St","31019","1403379285033","38.889","-77.0925","true","false","1321015980000","","false","true",19,32,"1403376189979",2014-06-21 14:43:09,51,0.372549019607843,0.627450980392157
"129","135","Columbia Rd & Belmont St NW","31113","1403379172035","38.920669","-77.04368","true","false","1321625100000","","false","true",3,32,"1403379170997",2014-06-21 15:32:50,35,0.0857142857142857,0.914285714285714
"130","136","17th & Rhode Island Ave NW","31239","1403379127212","38.906602","-77.038785","true","false","1321639800000","","false","true",1,17,"1403378839308",2014-06-21 15:27:19,18,0.0555555555555556,0.944444444444444
"131","137","Thomas Circle","31241","1403379291180","38.9059","-77.0325","true","false","1321714320000","","false","true",16,22,"1403379290195",2014-06-21 15:34:50,38,0.421052631578947,0.578947368421053
"132","138","Wilson Blvd & Franklin Rd","31020","1403379207625","38.8904","-77.0889","true","false","1322715600000","","false","true",21,21,"1403378507298",2014-06-21 15:21:47,42,0.5,0.5
"133","139","Clarendon Blvd & N Fillmore St","31021","1403379140826","38.8881","-77.09308","true","false","1321981080000","","false","true",16,4,"1403369816766",2014-06-21 12:56:56,20,0.8,0.2
"134","140","Clarendon Metro / Wilson Blvd & N Highland St","31022","1403379301963","38.88786","-77.094875","true","false","1321983480000","","false","true",18,5,"1403377611945",2014-06-21 15:06:51,23,0.782608695652174,0.217391304347826
"135","141","18th St & Pennsylvania Ave NW","31242","1403379162660","38.89968","-77.041539","true","false","1322571600000","","false","true",17,32,"1403379161564",2014-06-21 15:32:41,49,0.346938775510204,0.653061224489796
"136","142","Maryland & Independence Ave SW","31243","1403379162481","38.887299","-77.018939","true","false","1327669020000","","false","true",5,18,"1403379161224",2014-06-21 15:32:41,23,0.217391304347826,0.782608695652174
"137","143","4th & E St SW","31244","1403379086640","38.88412","-77.017445","true","false","1322756880000","","false","true",1,10,"1403378769298",2014-06-21 15:26:09,11,0.0909090909090909,0.909090909090909
"138","144","3rd & G St SE","31625","1403379207806","38.881185","-77.001828","true","false","1322661660000","","false","true",5,30,"1403378965204",2014-06-21 15:29:25,35,0.142857142857143,0.857142857142857
"139","145","7th & R St NW / Shaw Library","31245","1403379253284","38.912719","-77.022155","true","false","1322583120000","","false","true",8,1,"1403378769348",2014-06-21 15:26:09,9,0.888888888888889,0.111111111111111
"140","146","9th & Upshur St NW","31404","1403379237619","38.9418","-77.0251","true","false","1323194880000","","false","true",21,30,"1403377987281",2014-06-21 15:13:07,51,0.411764705882353,0.588235294117647
"141","147","1st & Rhode Island Ave NW","31506","1403379203377","38.915417","-77.012289","true","false","1323178380000","","false","true",12,6,"1403378960670",2014-06-21 15:29:20,18,0.666666666666667,0.333333333333333
"142","148","Columbia Rd & Georgia Ave NW","31115","1403379072411","38.928156","-77.02344","true","false","1323234000000","","false","true",19,6,"1403377962272",2014-06-21 15:12:42,25,0.76,0.24
"143","149","California St & Florida Ave NW","31116","1403379171029","38.917761","-77.04062","true","false","1323752400000","","false","true",12,10,"1403379169093",2014-06-21 15:32:49,22,0.545454545454545,0.454545454545455
"144","150","Benning Rd & East Capitol St NE / Benning Rd Metro","31707","1403379294692","38.889935","-76.93723","true","false","1324404360000","","false","true",4,31,"1403375751911",2014-06-21 14:35:51,35,0.114285714285714,0.885714285714286
"145","151","3000 Connecticut Ave NW / National Zoo","31307","1403379226047","38.930282","-77.055599","true","false","1324496640000","","false","true",18,3,"1403378398507",2014-06-21 15:19:58,21,0.857142857142857,0.142857142857143
"146","152","Anacostia Ave & Benning Rd NE / River Terrace ","31708","1403379177810","38.896544","-76.96012","true","false","1324402320000","","false","true",18,32,"1403366546238",2014-06-21 12:02:26,50,0.36,0.64
"147","153","M St & Pennsylvania Ave NW","31246","1403379135909","38.905126","-77.056887","true","false","1324485480000","","false","true",17,7,"1403379135220",2014-06-21 15:32:15,24,0.708333333333333,0.291666666666667
"148","154","15th St & Massachusetts Ave SE","31626","1403379226294","38.88732","-76.983569","true","false","1324565040000","","false","true",21,30,"1403379224955",2014-06-21 15:33:44,51,0.411764705882353,0.588235294117647
"149","155","Congress Heights Metro","31806","1403379251695","38.844711","-76.987823","true","false","1324581180000","","false","true",17,3,"1403329876852",2014-06-21 01:51:16,20,0.85,0.15
"150","156","N Quincy St & Glebe Rd","31035","1403379108770","38.876393","-77.107735","true","false","1335552600000","","false","true",21,21,"1403376344145",2014-06-21 14:45:44,42,0.5,0.5
"151","157","Wilson Blvd & N Oakland St","31033","1403379164671","38.8815","-77.10396","true","false","1335387720000","","false","true",16,31,"1403360612378",2014-06-21 10:23:32,47,0.340425531914894,0.659574468085106
"152","158","N Veitch  & 20th St N","31029","1403379194644","38.896923","-77.086502","true","false","1335213360000","","false","true",17,4,"1403375430592",2014-06-21 14:30:30,21,0.80952380952381,0.19047619047619
"153","159","11th & K St NW","31263","1403379209479","38.90268","-77.02674","true","false","1360936140000","","false","true",16,9,"1403377364387",2014-06-21 15:02:44,25,0.64,0.36
"154","160","Fairfax Dr & Wilson Blvd","31023","1403379268137","38.885801","-77.097745","true","false","1335545880000","","false","true",1,3,"1403377451010",2014-06-21 15:04:11,4,0.25,0.75
"155","161","Key Blvd & N Quinn St","31027","1403379204522","38.896015","-77.078107","true","false","1335195480000","","false","true",17,29,"1403377995757",2014-06-21 15:13:15,46,0.369565217391304,0.630434782608696
"156","162","1st & K St SE","31628","1403379206208","38.87861","-77.006004","true","false","1328717220000","","false","true",1,7,"1403379202475",2014-06-21 15:33:22,8,0.125,0.875
"157","163","39th & Calvert St NW / Stoddert","31306","1403379193917","38.922649","-77.077271","true","false","1328898300000","","false","true",1,11,"1403374308598",2014-06-21 14:11:48,12,0.0833333333333333,0.916666666666667
"158","164","1st & Washington Hospital Center NW","31507","1403379166794","38.928743","-77.012457","true","false","1329153540000","","false","true",3,28,"1403379152413",2014-06-21 15:32:32,31,0.0967741935483871,0.903225806451613
"159","165","Virginia Square Metro / N Monroe St & 9th St N","31024","1403379101696","38.882788","-77.103148","true","false","1329508980000","","false","true",16,9,"1403375058423",2014-06-21 14:24:18,25,0.64,0.36
"160","166","Central Library / N Quincy St & 10th St N","31025","1403379232484","38.88397","-77.10783","true","false","1329493920000","","false","true",12,31,"1403377418087",2014-06-21 15:03:38,43,0.27906976744186,0.720930232558139
"161","167","Washington Blvd & 10th St N","31026","1403379269526","38.884734","-77.093485","true","false","1329944340000","","false","true",3,28,"1403378785277",2014-06-21 15:26:25,31,0.0967741935483871,0.903225806451613
"162","168","Jefferson Dr & 14th St SW","31247","1403379283180","38.888553","-77.032429","true","false","1331911860000","","false","true",7,30,"1403379282082",2014-06-21 15:34:42,37,0.189189189189189,0.810810810810811
"163","169","Smithsonian / Jefferson Dr & 12th St SW","31248","1403379277378","38.888767","-77.02858","true","false","1333369620000","","false","true",21,7,"1403379235579",2014-06-21 15:33:55,28,0.75,0.25
"164","170","George Mason Dr & Wilson Blvd","31036","1403379301451","38.87887","-77.1207","true","false","1335805380000","","false","true",22,29,"1403362693512",2014-06-21 10:58:13,51,0.431372549019608,0.568627450980392
"165","171","6th St & Indiana Ave NW","31264","1403379296469","38.894573","-77.01994","true","false","1364990040000","","false","true",21,4,"1403379182541",2014-06-21 15:33:02,25,0.84,0.16
"166","172","N Veitch & Key Blvd","31028","1403379075650","38.893241","-77.086045","true","false","1335202980000","","false","true",17,30,"1403377143406",2014-06-21 14:59:03,47,0.361702127659574,0.638297872340426
"167","173","N Adams St & Lee Hwy","31030","1403379162422","38.89593","-77.089006","true","false","1335369060000","","false","true",22,29,"1403376121031",2014-06-21 14:42:01,51,0.431372549019608,0.568627450980392
"168","174","15th & N Scott St","31031","1403379176748","38.89054","-77.08095","true","false","1335362100000","","false","true",12,32,"1403375822089",2014-06-21 14:37:02,44,0.272727272727273,0.727272727272727
"169","175","Washington Blvd & 7th St N","31032","1403379072319","38.880834","-77.091129","true","false","1335794400000","","false","true",18,29,"1403365883819",2014-06-21 11:51:23,47,0.382978723404255,0.617021276595745
"170","176","Ballston Metro / N Stuart & 9th St N","31037","1403379266208","38.881044","-77.111768","true","false","1335817440000","","false","true",17,8,"1403377003191",2014-06-21 14:56:43,25,0.68,0.32
"171","177","N Randolph St & Fairfax Dr","31034","1403379241507","38.882629","-77.109366","true","false","1335542580000","","false","true",17,30,"1403377886917",2014-06-21 15:11:26,47,0.361702127659574,0.638297872340426
"172","178","Jefferson Memorial","31249","1403379296643","38.879819","-77.037413","true","false","1335969180000","","false","true",11,27,"1403379295941",2014-06-21 15:34:55,38,0.289473684210526,0.710526315789474
"173","179","Good Hope Rd & 14th St SE","31803","1403379117606","38.866611","-76.985238","true","false","1335981060000","","false","true",22,29,"1403299333976",2014-06-20 17:22:13,51,0.431372549019608,0.568627450980392
"174","180","Glebe Rd & 11th St N","31038","1403379282964","38.883921","-77.116817","true","false","1337269200000","","false","true",18,29,"1403374581537",2014-06-21 14:16:21,47,0.382978723404255,0.617021276595745
"175","181","N Quincy St & Wilson Blvd","31039","1403379209584","38.880151","-77.107673","true","false","1338301620000","","false","true",18,29,"1403378967247",2014-06-21 15:29:27,47,0.382978723404255,0.617021276595745
"176","182","Fairfax Dr & Kenmore St","31040","1403379291281","38.884616","-77.10108","true","false","1366814880000","","false","true",16,31,"1403373433822",2014-06-21 13:57:13,47,0.340425531914894,0.659574468085106
"177","183","Gallaudet / 8th St & Florida Ave NE","31508","1403379192374","38.90509","-76.9941","true","false","1342033620000","","false","true",7,28,"1403377431025",2014-06-21 15:03:51,35,0.2,0.8
"178","185","20th & L St NW","31250","1403379135603","38.903584","-77.044789","true","false","1340632500000","","false","true",1,10,"1403376207715",2014-06-21 14:43:27,11,0.0909090909090909,0.909090909090909
"179","186","12th & L St NW","31251","1403379261483","38.903819","-77.0284","true","false","1340639640000","","false","true",17,8,"1403379021461",2014-06-21 15:30:21,25,0.68,0.32
"180","187","21st St & Pennsylvania Ave NW","31252","1403379281838","38.901539","-77.046564","true","false","1340811180000","","false","true",1,12,"1403378709416",2014-06-21 15:25:09,13,0.0769230769230769,0.923076923076923
"181","188","19th & K St NW","31253","1403379243079","38.902204","-77.04337","true","false","1340801880000","","false","true",1,16,"1403377835162",2014-06-21 15:10:35,17,0.0588235294117647,0.941176470588235
"182","189","Prince St & Union St","31041","1403379143887","38.803124","-77.040363","true","false","1346070420000","","false","true",22,3,"1403373983221",2014-06-21 14:06:23,25,0.88,0.12
"183","190","Market Square / King St & Royal St","31042","1403379285788","38.804718","-77.043363","true","false","1346077680000","","false","true",4,21,"1403379270616",2014-06-21 15:34:30,25,0.16,0.84
"184","191","Saint Asaph St & Pendleton  St","31043","1403379239658","38.810743","-77.044664","true","false","1346084880000","","false","true",19,32,"1403378030903",2014-06-21 15:13:50,51,0.372549019607843,0.627450980392157
"185","192","King St & Patrick St","31044","1403379067520","38.805317","-77.049883","true","false","1346442900000","","false","true",20,31,"1403348874029",2014-06-21 07:07:54,51,0.392156862745098,0.607843137254902
"186","193","15th & K St NW","31254","1403379258032","38.902","-77.03353","true","false","1341232920000","","false","true",5,29,"1403377939630",2014-06-21 15:12:19,34,0.147058823529412,0.852941176470588
"187","194","Commerce St & Fayette St","31045","1403379224380","38.805648","-77.05293","true","false","1346442960000","","false","true",20,31,"1403376299178",2014-06-21 14:44:59,51,0.392156862745098,0.607843137254902
"188","195","Henry St & Pendleton St","31046","1403379213393","38.811456","-77.050276","true","false","1346442960000","","false","true",20,3,"1403378728733",2014-06-21 15:25:28,23,0.869565217391304,0.130434782608696
"189","196","Braddock Rd Metro","31047","1403379232156","38.814577","-77.052808","true","false","1346442960000","","false","true",3,32,"1403376769497",2014-06-21 14:52:49,35,0.0857142857142857,0.914285714285714
"190","197","King St Metro","31048","1403379285152","38.805767","-77.06072","true","false","1346443020000","","false","true",22,3,"1403374347971",2014-06-21 14:12:27,25,0.88,0.12
"191","198","24th & N St NW","31255","1403379072668","38.9066","-77.05152","true","false","1341575340000","","false","true",17,3,"1403379070999",2014-06-21 15:31:10,20,0.85,0.15
"192","199","10th & E St NW","31256","1403379157587","38.895914","-77.026064","true","false","1342109700000","","false","true",7,2,"1403378815976",2014-06-21 15:26:55,9,0.777777777777778,0.222222222222222
"193","200","22nd & I St NW / Foggy Bottom","31257","1403379164799","38.90088","-77.048911","true","false","1342442220000","","false","true",16,4,"1403379163638",2014-06-21 15:32:43,20,0.8,0.2
"194","201","Utah St & 11th St N ","31049","1403379170282","38.883669","-77.113905","true","false","1342539420000","","false","true",17,30,"1403378927632",2014-06-21 15:28:47,47,0.361702127659574,0.638297872340426
"195","202","Barton St & 10th St N","31050","1403379199170","38.884961","-77.08777","true","false","1346771820000","","false","true",3,2,"1403376662646",2014-06-21 14:51:02,5,0.6,0.4
"196","203","Arlington Blvd & N Queen St","31051","1403379286114","38.889365","-77.077294","true","false","1346776740000","","false","true",1,4,"1403374936122",2014-06-21 14:22:16,5,0.2,0.8
"197","204","Lincoln Memorial","31258","1403379255862","38.888251","-77.049426","true","false","1349268360000","","false","true",12,14,"1403379254623",2014-06-21 15:34:14,26,0.461538461538462,0.538461538461538
"198","206","20th St & Virginia Ave NW","31259","1403379100565","38.894722","-77.045128","true","false","1359646980000","","false","true",12,6,"1403377083106",2014-06-21 14:58:03,18,0.666666666666667,0.333333333333333
"199","207","5th St & Massachusetts Ave NW","31265","1403379185281","38.90093","-77.018677","true","false","1367842440000","","false","true",22,3,"1403378907856",2014-06-21 15:28:27,25,0.88,0.12
"200","208","39th & Veazey St NW","31308","1403379114367","38.943837","-77.077078","true","false","1360598160000","","false","true",17,3,"1403378148095",2014-06-21 15:15:48,20,0.85,0.15
"201","209","Fessenden St & Wisconsin Ave NW","31309","1403379184421","38.954812","-77.082426","true","false","1360588560000","","false","true",4,27,"1403377010639",2014-06-21 14:56:50,31,0.129032258064516,0.870967741935484
"202","210","M St & Delaware Ave NE","31627","1403379215883","38.905707","-77.003041","true","false","1360929900000","","false","true",12,15,"1403376559089",2014-06-21 14:49:19,27,0.444444444444444,0.555555555555556
"203","211","Columbia Pike & S Courthouse Rd","31053","1403379187781","38.863833","-77.080319","true","false","1364482620000","","false","true",21,30,"1403371743534",2014-06-21 13:29:03,51,0.411764705882353,0.588235294117647
"204","212","Walter Reed Community Center / Walter Reed Dr & 16th St S","31054","1403379087362","38.857803","-77.086733","true","false","1364466180000","","false","true",20,27,"1403323511895",2014-06-21 00:05:11,47,0.425531914893617,0.574468085106383
"205","213","28th St S & S Meade St","31055","1403379244573","38.846222","-77.069275","true","false","1364476320000","","false","true",20,31,"1403379243252",2014-06-21 15:34:03,51,0.392156862745098,0.607843137254902
"206","214","18th St & Wyoming Ave NW","31114","1403379167534","38.918809","-77.041571","true","false","1365003300000","","false","true",19,8,"1403378865943",2014-06-21 15:27:45,27,0.703703703703704,0.296296296296296
"207","215","5th & Kennedy St NW","31403","1403379277747","38.956595","-77.019815","true","false","1365777420000","","false","true",3,28,"1403375895928",2014-06-21 14:38:15,31,0.0967741935483871,0.903225806451613
"208","216","Georgia Ave & Emerson St NW","31405","1403379187991","38.949662","-77.027333","true","false","1365783540000","","false","true",4,31,"1403375420138",2014-06-21 14:30:20,35,0.114285714285714,0.885714285714286
"209","217","14th & Upshur St NW","31406","1403379181326","38.942016","-77.032652","true","false","1365794820000","","false","true",7,28,"1403377580825",2014-06-21 15:06:20,35,0.2,0.8
"210","218","14th St & Colorado Ave NW","31407","1403379114195","38.956432","-77.032947","true","false","1365798900000","","false","true",7,28,"1403378871933",2014-06-21 15:27:51,35,0.2,0.8
"211","219","S Troy St & 26th St S","31056","1403379199521","38.847977","-77.075104","true","false","1366725840000","","false","true",16,31,"1403366612059",2014-06-21 12:03:32,47,0.340425531914894,0.659574468085106
"212","220","S Four Mile Run Dr & S Shirlington Rd","31057","1403379165580","38.8444","-77.085931","true","false","1366729200000","","false","true",20,27,"1403361733969",2014-06-21 10:42:13,47,0.425531914893617,0.574468085106383
"213","221","S Oakland St & Columbia Pike","31058","1403379231292","38.860789","-77.09586","true","false","1366735380000","","false","true",21,21,"1403373490165",2014-06-21 13:58:10,42,0.5,0.5
"214","222","S Abingdon St & 36th St S","31059","1403379190608","38.835213","-77.094295","true","false","1366739700000","","false","true",16,30,"1403307027430",2014-06-20 19:30:27,46,0.347826086956522,0.652173913043478
"215","223","S Arlington Mill Dr & Campbell Ave","31060","1403379181967","38.84232","-77.089555","true","false","1366802400000","","false","true",21,30,"1403367907534",2014-06-21 12:25:07,51,0.411764705882353,0.588235294117647
"216","224","S Kenmore & 24th St S","31061","1403379246881","38.848454","-77.084918","true","false","1366825140000","","false","true",17,30,"1403369493860",2014-06-21 12:51:33,47,0.361702127659574,0.638297872340426
"217","225","13th St & Eastern Ave","32006","1403379242971","38.987","-77.029417","true","false","1380292680000","","false","true",20,31,"1403365691462",2014-06-21 11:48:11,51,0.392156862745098,0.607843137254902
"218","226","Wisconsin Ave & O St NW","31312","1403379249136","38.90849","-77.063586","true","false","1366910820000","","false","true",8,21,"1403376509524",2014-06-21 14:48:29,29,0.275862068965517,0.724137931034483
"219","227","S George Mason Dr & 13th St S","31062","1403379177230","38.854691","-77.100555","true","false","1372694040000","","false","true",18,29,"1403359668848",2014-06-21 10:07:48,47,0.382978723404255,0.617021276595745
"220","228","Connecticut & Nebraska Ave NW","31310","1403379185869","38.955016","-77.069956","true","false","1366894140000","","false","true",10,29,"1403378943288",2014-06-21 15:29:03,39,0.256410256410256,0.743589743589744
"221","229","17th St & Massachusetts Ave NW","31267","1403379133273","38.908142","-77.038359","true","false","1367851920000","","false","true",1,12,"1403378890763",2014-06-21 15:28:10,13,0.0769230769230769,0.923076923076923
"222","230","15th & Euclid St  NW","31117","1403379277823","38.92333","-77.0352","true","false","1367856780000","","false","true",1,8,"1403377782910",2014-06-21 15:09:42,9,0.111111111111111,0.888888888888889
"223","231","8th & East Capitol St NE","31629","1403379186759","38.889988","-76.995193","true","false","1368545580000","","false","true",3,2,"1403378481806",2014-06-21 15:21:21,5,0.6,0.4
"224","232","New Jersey Ave & R St NW","31509","1403379194424","38.912659","-77.017669","true","false","1368532680000","","false","true",18,3,"1403378951807",2014-06-21 15:29:11,21,0.857142857142857,0.142857142857143
"225","233","15th & East Capitol St NE","31630","1403379208096","38.889908","-76.983326","true","false","1368541260000","","false","true",2,3,"1403377276112",2014-06-21 15:01:16,5,0.4,0.6
"226","234","8th & F St NE","31631","1403379206595","38.897274","-76.994749","true","false","1368552540000","","false","true",2,6,"1403378721880",2014-06-21 15:25:21,8,0.25,0.75
"227","235","18th St & Rhode Island Ave NE","31510","1403379115546","38.927095","-76.978924","true","false","1369915500000","","false","true",3,28,"1403371482061",2014-06-21 13:24:42,31,0.0967741935483871,0.903225806451613
"228","236","15th & F St NE","31632","1403379244811","38.897195","-76.983575","true","false","1369928820000","","false","true",20,5,"1403378963727",2014-06-21 15:29:23,25,0.8,0.2
"229","237","12th & Irving St NE","31511","1403379238832","38.928644","-76.990955","true","false","1369923120000","","false","true",18,3,"1403377457417",2014-06-21 15:04:17,21,0.857142857142857,0.142857142857143
"230","238","34th St & Minnesota Ave SE","31709","1403379130317","38.884085","-76.957461","true","false","1370358840000","","false","true",19,28,"1403376676709",2014-06-21 14:51:16,47,0.404255319148936,0.595744680851064
"231","239","Alabama & MLK Ave SE","31800","1403379066631","38.843222","-76.999388","true","false","1370345160000","","false","true",18,29,"1403376903507",2014-06-21 14:55:03,47,0.382978723404255,0.617021276595745
"232","240","Pleasant St & MLK Ave SE","31807","1403379291105","38.863897","-76.990037","true","false","1370351820000","","false","true",19,28,"1403261852726",2014-06-20 06:57:32,47,0.404255319148936,0.595744680851064
"233","241","Neal St & Trinidad Ave NE","31512","1403379208490","38.903732","-76.987211","true","false","1371221640000","","false","true",4,27,"1403376025784",2014-06-21 14:40:25,31,0.129032258064516,0.870967741935484
"234","242","13th & U St NW","31268","1403379117716","38.916794","-77.029779","true","false","1371231240000","","false","true",10,29,"1403377326679",2014-06-21 15:02:06,39,0.256410256410256,0.743589743589744
"235","243","S George Mason Dr & Four Mile Run","31063","1403379267268","38.852248","-77.105022","true","false","1372690500000","","false","true",18,29,"1403305257366",2014-06-20 19:00:57,47,0.382978723404255,0.617021276595745
"236","244","S Stafford & 34th St S","31064","1403379107906","38.834108","-77.087323","true","false","1372701360000","","false","true",20,30,"1403378140681",2014-06-21 15:15:40,50,0.4,0.6
"237","245","N Pershing Dr & Wayne St","31065","1403379129510","38.880705","-77.08596","true","false","1372680300000","","false","true",20,27,"1403369066874",2014-06-21 12:44:26,47,0.425531914893617,0.574468085106383
"238","246","Columbia Pike & S Orme St","31066","1403379250015","38.867262","-77.072315","true","false","1372684620000","","false","true",3,2,"1403376685480",2014-06-21 14:51:25,5,0.6,0.4
"239","247","3rd St & Pennsylvania Ave SE","31269","1403379283192","38.887378","-77.001955","true","false","1374598740000","","false","true",1,8,"1403379281646",2014-06-21 15:34:41,9,0.111111111111111,0.888888888888889
"240","248","8th & D St NW","31270","1403379260247","38.894851","-77.02324","true","false","1374581640000","","false","true",8,1,"1403379017428",2014-06-21 15:30:17,9,0.888888888888889,0.111111111111111
"241","249","3rd & Elm St NW","31118","1403379067924","38.917622","-77.01597","true","false","1374589740000","","false","true",22,28,"1403378584395",2014-06-21 15:23:04,50,0.44,0.56
"242","250","Rhode Island Ave & V St NE","31513","1403379126865","38.918155","-77.004746","true","false","1375196700000","","false","true",3,32,"1403375850286",2014-06-21 14:37:30,35,0.0857142857142857,0.914285714285714
"243","251","Constitution Ave & 2nd St NW/DOL","31271","1403379271278","38.892275","-77.013917","true","false","1375190280000","","false","true",21,11,"1403379028532",2014-06-21 15:30:28,32,0.65625,0.34375
"244","252","Washington & Independence Ave SW/HHS","31272","1403379117379","38.88731","-77.01397","true","false","1375445040000","","false","true",4,6,"1403379116448",2014-06-21 15:31:56,10,0.4,0.6
"245","253","Independence Ave & L'Enfant Plaza SW/DOE","31633","1403379240743","38.887397","-77.026154","true","false","1375789680000","","false","true",21,30,"1403377550146",2014-06-21 15:05:50,51,0.411764705882353,0.588235294117647
"246","254","Hamlin & 7th St NE","31514","1403379207756","38.927497","-76.997194","true","false","1376653440000","","false","true",4,27,"1403376120112",2014-06-21 14:42:00,31,0.129032258064516,0.870967741935484
"247","255","Columbia Pike & S Walter Reed Dr","31067","1403379267218","38.862478","-77.086599","true","false","1377605340000","","false","true",17,31,"1403376079744",2014-06-21 14:41:19,48,0.354166666666667,0.645833333333333
"248","256","Columbia Pike & S Dinwiddie St / Arlington Mill Community Center","31068","1403379125795","38.856319","-77.11153","true","false","1377776460000","","false","true",19,32,"1403355829622",2014-06-21 09:03:49,51,0.372549019607843,0.627450980392157
"249","257","Pershing & N George Mason Dr","31069","1403379071639","38.871822","-77.107906","true","false","1377792000000","","false","true",19,28,"1403376545877",2014-06-21 14:49:05,47,0.404255319148936,0.595744680851064
"250","258","Fenton St & New York Ave ","32001","1403379227945","38.985404","-77.023082","true","false","1380292620000","","false","true",20,31,"1403319933036",2014-06-20 23:05:33,51,0.392156862745098,0.607843137254902
"251","259","Bethesda Ave & Arlington Blvd","32002","1403379096624","38.981103","-77.097426","true","false","1380292620000","","false","true",6,29,"1403377888827",2014-06-21 15:11:28,35,0.171428571428571,0.828571428571429
"252","260","Montgomery Ave & Waverly St ","32003","1403379173863","38.983838","-77.09221","true","false","1382208480000","","false","true",17,30,"1403336047864",2014-06-21 03:34:07,47,0.361702127659574,0.638297872340426
"253","261","Fallsgrove Blvd & Fallsgrove Dr","32004","1403379219163","39.096312","-77.192672","true","false","1380292620000","","false","true",21,4,"1403357558249",2014-06-21 09:32:38,25,0.84,0.16
"254","262","Traville Gateway Dr & Gudelsky Dr","32005","1403379226139","39.093783","-77.202501","true","false","1380292680000","","false","true",18,7,"1403237031618",2014-06-20 00:03:51,25,0.72,0.28
"255","263","Norfolk Ave & Fairmont St","32000","1403379212102","38.988562","-77.096539","true","false","1380292560000","","false","true",16,31,"1403366784451",2014-06-21 12:06:24,47,0.340425531914894,0.659574468085106
"256","264","E Montgomery Ave & Maryland Ave","32007","1403379253747","39.084125","-77.151291","true","false","1380292560000","","false","true",22,29,"1403345228941",2014-06-21 06:07:08,51,0.431372549019608,0.568627450980392
"257","265","Cordell & Norfolk Ave","32008","1403379208154","38.98954","-77.098029","true","false","1380292740000","","false","true",20,27,"1403368375770",2014-06-21 12:32:55,47,0.425531914893617,0.574468085106383
"258","266","Frederick Ave & Horners Ln","32009","1403379265210","39.094772","-77.145213","true","false","1380292740000","","false","true",20,27,"1403296456686",2014-06-20 16:34:16,47,0.425531914893617,0.574468085106383
"259","267","Philadelphia & Maple Ave","32010","1403379212085","38.98128","-77.011336","true","false","1380292740000","","false","true",4,27,"1403360241778",2014-06-21 10:17:21,31,0.129032258064516,0.870967741935484
"260","268","Maple & Ritchie Ave","32011","1403379197811","38.983627","-77.006311","true","false","1380292800000","","false","true",6,29,"1403370998787",2014-06-21 13:16:38,35,0.171428571428571,0.828571428571429
"261","269","Silver Spring Metro/Colesville Rd & Wayne Ave","32012","1403379236427","38.99521","-77.02918","true","false","1380292800000","","false","true",18,7,"1403378118896",2014-06-21 15:15:18,25,0.72,0.28
"262","270","Montgomery & East Ln","32013","1403379201105","38.983525","-77.095367","true","false","1380292800000","","false","true",19,28,"1403378958777",2014-06-21 15:29:18,47,0.404255319148936,0.595744680851064
"263","271","Friendship Hts Metro/Wisconsin Ave & Wisconsin Cir","32014","1403379265068","38.961763","-77.085998","true","false","1380292860000","","false","true",3,32,"1403377264826",2014-06-21 15:01:04,35,0.0857142857142857,0.914285714285714
"264","272","14th & Belmont St NW","31119","1403379197240","38.921074","-77.031887","true","false","1380719160000","","false","true",1,7,"1403377975360",2014-06-21 15:12:55,8,0.125,0.875
"265","273","3rd & Tingey St SE","31634","1403379178847","38.87501","-77.0024","true","false","1380722700000","","false","true",5,30,"1403378695010",2014-06-21 15:24:55,35,0.142857142857143,0.857142857142857
"266","274","10th & Florida Ave NW","31120","1403379257349","38.920387","-77.025672","true","false","1381320720000","","false","true",8,21,"1403378116069",2014-06-21 15:15:16,29,0.275862068965517,0.724137931034483
"267","275","Potomac Ave & 8th St SE","31635","1403379260377","38.876737","-76.994468","true","false","1381333800000","","false","true",19,32,"1403377470929",2014-06-21 15:04:30,51,0.372549019607843,0.627450980392157
"268","276","Crabbs Branch Way & Redland Rd","32015","1403379167647","39.120045","-77.156985","true","false","1382100480000","","false","true",19,32,"1403237038669",2014-06-20 00:03:58,51,0.372549019607843,0.627450980392157
"269","277","Fallsgrove Dr & W Montgomery Ave","32016","1403379239156","39.099376","-77.188014","true","false","1382120580000","","false","true",21,30,"1403237017249",2014-06-20 00:03:37,51,0.411764705882353,0.588235294117647
"270","278","Monroe St & Monroe Pl","32017","1403379200331","39.083705","-77.149443","true","false","1383309240000","","false","true",17,4,"1403356215579",2014-06-21 09:10:15,21,0.80952380952381,0.19047619047619
"271","279","Needwood Rd & Eagles Head Ct","32018","1403379173198","39.123513","-77.15741","true","false","1382107020000","","false","true",19,32,"1403293999156",2014-06-20 15:53:19,51,0.372549019607843,0.627450980392157
"272","280","East West Hwy & Blair Mill Rd","32019","1403379118920","38.990249","-77.02935","true","false","1383148920000","","false","true",20,31,"1403378875917",2014-06-21 15:27:55,51,0.392156862745098,0.607843137254902
"273","281","Crabbs Branch Way & Calhoun Pl","32020","1403379248090","39.107709","-77.152072","true","false","1382111460000","","false","true",3,28,"1403298947768",2014-06-20 17:15:47,31,0.0967741935483871,0.903225806451613
"274","282","47th & Elm St","32021","1403379219282","38.982456","-77.091991","true","false","1382208540000","","false","true",20,31,"1403314958671",2014-06-20 21:42:38,51,0.392156862745098,0.607843137254902
"275","283","Garland Ave & Walden Rd","32022","1403379291501","39.000578","-77.00149","true","false","1383059580000","","false","true",19,32,"1403237015281",2014-06-20 00:03:35,51,0.372549019607843,0.627450980392157
"276","284","Montgomery College/W Campus Dr & Mannakee St","32023","1403379199056","39.095661","-77.159048","true","false","1382199120000","","false","true",20,7,"1403325515048",2014-06-21 00:38:35,27,0.740740740740741,0.259259259259259
"277","285","Fenton St & Gist Ave","32024","1403379245688","38.989724","-77.023854","true","false","1383054960000","","false","true",20,27,"1403308027935",2014-06-20 19:47:07,47,0.425531914893617,0.574468085106383
"278","286","Carroll & Westmoreland Ave","32025","1403379188313","38.975","-77.01121","true","false","1383065460000","","false","true",20,31,"1403366523152",2014-06-21 12:02:03,51,0.392156862745098,0.607843137254902
"279","287","Carroll & Ethan Allen Ave","32026","1403379209607","38.977933","-77.006472","true","false","1383070440000","","false","true",22,29,"1403366475859",2014-06-21 12:01:15,51,0.431372549019608,0.568627450980392
"280","288","Battery Ln & Trolley Trail","32027","1403379080693","38.992375","-77.100104","true","false","1382712300000","","false","true",19,32,"1403325815708",2014-06-21 00:43:35,51,0.372549019607843,0.627450980392157
"281","289","Norfolk & Rugby Ave","32028","1403379126134","38.990639","-77.100239","true","false","1382715180000","","false","true",20,27,"1403378159279",2014-06-21 15:15:59,47,0.425531914893617,0.574468085106383
"282","290","Offutt Ln & Chevy Chase Dr","32029","1403379130502","38.977093","-77.094589","true","false","1382722080000","","false","true",18,29,"1403372036869",2014-06-21 13:33:56,47,0.382978723404255,0.617021276595745
"283","291","Broschart & Blackwell Rd","32030","1403379236410","39.102099","-77.200322","true","false","1382798640000","","false","true",19,32,"1403237024185",2014-06-20 00:03:44,51,0.372549019607843,0.627450980392157
"284","292","Taft St & E Gude Dr","32031","1403379242714","39.094103","-77.132954","true","false","1382804520000","","false","true",19,32,"1403237017109",2014-06-20 00:03:37,51,0.372549019607843,0.627450980392157
"285","293","Fleet St & Ritchie Pkwy","32032","1403379190591","39.076331","-77.141378","true","false","1382809500000","","false","true",4,27,"1403368569090",2014-06-21 12:36:09,31,0.129032258064516,0.870967741935484
"286","294","Piccard & W Gude Dr","32033","1403379253216","39.102212","-77.177091","true","false","1382795700000","","false","true",4,31,"1403300260730",2014-06-20 17:37:40,35,0.114285714285714,0.885714285714286
"287","295","Ripley & Bonifant St","32034","1403379243195","38.992679","-77.029457","true","false","1383141360000","","false","true",20,31,"1403308378353",2014-06-20 19:52:58,51,0.392156862745098,0.607843137254902
"288","296","Georgia Ave & Spring St","32035","1403379172383","38.999388","-77.031555","true","false","1383146520000","","false","true",17,30,"1403378446320",2014-06-21 15:20:46,47,0.361702127659574,0.638297872340426
"289","297","Fenton St & Ellsworth Dr ","32036","1403379149043","38.997033","-77.025608","true","false","1383135960000","","false","true",4,27,"1403370627805",2014-06-21 13:10:27,31,0.129032258064516,0.870967741935484
"290","298","King Farm Blvd & Pleasant Dr","32037","1403379240233","39.114688","-77.171487","true","false","1383323580000","","false","true",5,29,"1403367104198",2014-06-21 12:11:44,34,0.147058823529412,0.852941176470588
"291","299","King Farm Blvd & Piccard Dr","32038","1403379217832","39.110314","-77.182669","true","false","1383318120000","","false","true",18,3,"1403360115341",2014-06-21 10:15:15,21,0.857142857142857,0.142857142857143
"292","301","Calvert St & Woodley Pl NW","31121","1403379250462","38.923583","-77.050046","true","false","1383657120000","","false","true",2,11,"1403379248941",2014-06-21 15:34:08,13,0.153846153846154,0.846153846153846
"293","302","New Jersey Ave & N St NW/Dunbar HS","31636","1403379293697","38.90706","-77.015231","true","false","1383662880000","","false","true",5,29,"1403379155058",2014-06-21 15:32:35,34,0.147058823529412,0.852941176470588
"294","303","Nannie Helen Burroughs Ave & 49th St NE","31710","1403379130015","38.898536","-76.931862","true","false","1383923280000","","false","true",17,30,"1403237023715",2014-06-20 00:03:43,47,0.361702127659574,0.638297872340426
"295","304","Deanwood Rec Center","31711","1403379121682","38.908473","-76.933099","true","false","1383923280000","","false","true",19,32,"1403316486038",2014-06-20 22:08:06,51,0.372549019607843,0.627450980392157
"296","305","Hains Point/Buckeye & Ohio Dr SW","31273","1403379100483","38.878433","-77.03023","true","false","1383929160000","","false","true",16,7,"1403376899655",2014-06-21 14:54:59,23,0.695652173913043,0.304347826086957
"297","306","Arlington Blvd & Fillmore St","31070","1403379305922","38.873755","-77.089233","true","false","1384527780000","","false","true",21,21,"1403372457195",2014-06-21 13:40:57,42,0.5,0.5
"298","307","Long Bridge Park/Long Bridge Dr & 6th St S","31071","1403379259159","38.86646","-77.04826","true","false","1384520760000","","false","true",20,31,"1403368552305",2014-06-21 12:35:52,51,0.392156862745098,0.607843137254902
"299","308","Old Georgetown Rd & Southwick St","32039","1403379202258","38.999634","-77.109647","true","false","1384367940000","","false","true",20,5,"1403341051343",2014-06-21 04:57:31,25,0.8,0.2
"300","309","Friendship Blvd & Willard Ave","32040","1403379234588","38.96115","-77.088659","true","false","1384355760000","","false","true",20,5,"1403370226564",2014-06-21 13:03:46,25,0.8,0.2
"301","310","North Capitol St & G Pl NE","31637","1403379303793","38.899703","-77.008911","true","false","1386954360000","","false","true",7,28,"1403373506369",2014-06-21 13:58:26,35,0.2,0.8
"302","311","31st & Woodrow St S","31072","1403379087566","38.837666","-77.09482","true","false","1387298640000","","false","true",20,27,"1403320870528",2014-06-20 23:21:10,47,0.425531914893617,0.574468085106383
"303","312","Washington Blvd & Walter Reed Dr ","31073","1403379282579","38.873219","-77.082104","true","false","1387287180000","","false","true",20,31,"1403368601624",2014-06-21 12:36:41,51,0.392156862745098,0.607843137254902
"304","313","Thomas Jefferson Cmty Ctr / 2nd St S & Ivy","31074","1403379226387","38.869675","-77.093586","true","false","1386774900000","","false","true",18,29,"1403314645162",2014-06-20 21:37:25,47,0.382978723404255,0.617021276595745
"305","314","Connecticut Ave & Tilden St NW","31313","1403379254190","38.941154","-77.062036","true","false","1386954480000","","false","true",4,27,"1403378008084",2014-06-21 15:13:28,31,0.129032258064516,0.870967741935484
"306","315","Medical Center Dr & Key West Ave","32041","1403379255404","39.103091","-77.196442","true","false","1389273960000","","false","true",21,30,"1403280412570",2014-06-20 12:06:52,51,0.411764705882353,0.588235294117647
"307","316","Shady Grove Hospital","32042","1403379256079","39.097636","-77.196636","true","false","1389287040000","","false","true",22,3,"1403237038956",2014-06-20 00:03:58,25,0.88,0.12
"308","317","Veterans Pl & Pershing Dr ","32043","1403379185302","38.997445","-77.023894","true","false","1391876460000","","false","true",17,30,"1403299721920",2014-06-20 17:28:41,47,0.361702127659574,0.638297872340426
"309","318","Rockville Metro East","32044","1403379225491","39.085394","-77.145803","true","false","1393000800000","","false","true",18,31,"1403299604507",2014-06-20 17:26:44,49,0.36734693877551,0.63265306122449
"310","319","1st & H St NW","31638","1403379137877","38.900358","-77.012108","true","false","1392727500000","","false","true",21,27,"1403377929846",2014-06-21 15:12:09,48,0.4375,0.5625
"311","320","Fort Totten Metro","31515","1403379200826","38.952369","-77.002721","true","false","1392825840000","","false","true",16,9,"1403362722306",2014-06-21 10:58:42,25,0.64,0.36
"312","321","Takoma Metro","31408","1403379268112","38.975219","-77.016855","true","false","1392833400000","","false","true",17,8,"1403374289267",2014-06-21 14:11:29,25,0.68,0.32
"313","322","Rhode Island Ave Metro","31516","1403379128838","38.920682","-76.995876","true","false","1393259520000","","false","true",12,10,"1403376446056",2014-06-21 14:47:26,22,0.545454545454545,0.454545454545455
"314","323","Rolfe St & 9th St S","31075","1403379147658","38.866471","-77.076131","true","false","1394630640000","","false","true",20,27,"1403368013302",2014-06-21 12:26:53,47,0.425531914893617,0.574468085106383
"315","324","Shirlington Transit Center / S Quincy & Randolph St","31076","1403379226660","38.839912","-77.087083","true","false","1394637480000","","false","true",21,30,"1403377245195",2014-06-21 15:00:45,51,0.411764705882353,0.588235294117647
"316","325","Shady Grove Metro West","32045","1403379192027","39.119765","-77.166093","true","false","1397837820000","","false","true",21,4,"1403359695209",2014-06-21 10:08:15,25,0.84,0.16
"317","326","River Rd & Landy Ln","32046","1403379118662","38.964992","-77.103381","true","false","1396972380000","","false","true",3,32,"1403376478443",2014-06-21 14:47:58,35,0.0857142857142857,0.914285714285714
"318","327","Rockville Metro West","32047","1403379156088","39.084379","-77.146866","true","false","1397847900000","","false","true",4,31,"1403323515435",2014-06-21 00:05:15,35,0.114285714285714,0.885714285714286
"319","328","Bethesda Metro","32048","1403379067783","38.984691","-77.094537","true","false","1398786060000","","false","true",12,3,"1403377886340",2014-06-21 15:11:26,15,0.8,0.2
"320","329","Iwo Jima Memorial/N Meade & 14th St N","31077","1403379290954","38.88992","-77.071301","true","false","1402585680000","","false","true",12,10,"1403379048288",2014-06-21 15:30:48,22,0.545454545454545,0.454545454545455
