"","id","name","terminalName","lastCommWithServer","lat","long","installed","locked","installDate","removalDate","temporary","public","nbBikes","nbEmptyDocks","latestUpdateTime","date","total","percentBikes","percentDocks"
"1","1","20th & Bell St","31000","1403276411369","38.8561","-77.0512","true","false","1316059200000","","false","true",24,24,"1403271559157",2014-06-20 09:39:19,48,0.5,0.5
"2","2","18th & Eads St.","31001","1403276290026","38.85725","-77.05332","true","false","1284989400000","","false","true",12,29,"1403274598750",2014-06-20 10:29:58,41,0.292682926829268,0.707317073170732
"3","3","20th & Crystal Dr","31002","1403276229206","38.8564","-77.0492","true","false","1284464580000","","false","true",5,20,"1403274538198",2014-06-20 10:28:58,25,0.2,0.8
"4","4","15th & Crystal Dr","31003","1403276326154","38.86017","-77.049593","true","false","1284464880000","","false","true",26,20,"1403274876437",2014-06-20 10:34:36,46,0.565217391304348,0.434782608695652
"5","5","Aurora Hills Community Ctr/18th & Hayes St","31004","1403276350784","38.857866","-77.05949","true","false","1284464880000","","false","true",24,26,"1403271526796",2014-06-20 09:38:46,50,0.48,0.52
"6","6","12th & Hayes St /  Pentagon City Metro","31005","1403276302520","38.862303","-77.059936","true","false","1284464940000","","false","true",6,26,"1403276301183",2014-06-20 10:58:21,32,0.1875,0.8125
"7","7","S Joyce & Army Navy Dr","31006","1403276278550","38.8637","-77.0633","true","false","1284464940000","","false","true",24,26,"1403274829028",2014-06-20 10:33:49,50,0.48,0.52
"8","8","Crystal City Metro / 18th & Bell St","31007","1403276395740","38.8573","-77.0511","true","false","1284465000000","","false","true",4,27,"1403275357623",2014-06-20 10:42:37,31,0.129032258064516,0.870967741935484
"9","9","12th & Army Navy Dr","31008","1403276316231","38.8629","-77.0528","true","false","1284465000000","","false","true",28,13,"1403272913938",2014-06-20 10:01:53,41,0.682926829268293,0.317073170731707
"10","10","27th & Crystal Dr","31009","1403276258775","38.848441","-77.051516","true","false","1284465060000","","false","true",28,3,"1403274964122",2014-06-20 10:36:04,31,0.903225806451613,0.0967741935483871
"11","11","S Glebe & Potomac Ave","31010","1403276333774","38.8426","-77.0502","true","false","1284465120000","","false","true",25,25,"1403272860852",2014-06-20 10:01:00,50,0.5,0.5
"12","12","23rd & Crystal Dr","31011","1403276231256","38.8533","-77.0498","true","false","1284465120000","","false","true",26,29,"1403275988966",2014-06-20 10:53:08,55,0.472727272727273,0.527272727272727
"13","13","26th & S Clark St","31012","1403276264074","38.850688","-77.05152","true","false","1284465300000","","false","true",2,3,"1403274573935",2014-06-20 10:29:33,5,0.4,0.6
"14","14","19th St & Pennsylvania Ave NW","31100","1403276386678","38.9003","-77.0429","true","false","1284465360000","","false","true",6,1,"1403271189026",2014-06-20 09:33:09,7,0.857142857142857,0.142857142857143
"15","15","14th & V St NW","31101","1403276263857","38.9176","-77.0321","true","false","1284465420000","","false","true",1,18,"1403271659318",2014-06-20 09:40:59,19,0.0526315789473684,0.947368421052632
"16","16","11th & Kenyon St NW","31102","1403276302118","38.929464","-77.027822","true","false","1286539080000","","false","true",1,18,"1403272782049",2014-06-20 09:59:42,19,0.0526315789473684,0.947368421052632
"17","17","16th & Harvard St NW","31103","1403276285991","38.926088","-77.036536","true","false","1284465480000","","false","true",1,22,"1403274397346",2014-06-20 10:26:37,23,0.0434782608695652,0.956521739130435
"18","18","Adams Mill & Columbia Rd NW","31104","1403276274957","38.922925","-77.042581","true","false","1284465540000","","false","true",2,7,"1403276274344",2014-06-20 10:57:54,9,0.222222222222222,0.777777777777778
"19","19","14th & Harvard St NW","31105","1403276215638","38.9268","-77.0322","true","false","1284465540000","","false","true",28,3,"1403276214285",2014-06-20 10:56:54,31,0.903225806451613,0.0967741935483871
"20","20","Calvert & Biltmore St NW","31106","1403276186695","38.923203","-77.047637","true","false","1284465600000","","false","true",1,17,"1403270632136",2014-06-20 09:23:52,18,0.0555555555555556,0.944444444444444
"21","21","Lamont & Mt Pleasant NW","31107","1403276270450","38.9319","-77.0388","true","false","1284465600000","","false","true",2,11,"1403275358087",2014-06-20 10:42:38,13,0.153846153846154,0.846153846153846
"22","22","4th & M St SW","31108","1403276418891","38.8767","-77.0178","true","false","1284465660000","","false","true",15,2,"1403275309509",2014-06-20 10:41:49,17,0.882352941176471,0.117647058823529
"23","23","15th & P St NW","31201","1403276410654","38.90985","-77.034438","true","false","1284465660000","","false","true",12,9,"1403276136273",2014-06-20 10:55:36,21,0.571428571428571,0.428571428571429
"24","24","14th & R St NW","31202","1403276356858","38.912682","-77.031681","true","false","1284465720000","","false","true",2,7,"1403276355018",2014-06-20 10:59:15,9,0.222222222222222,0.777777777777778
"25","25","14th & Rhode Island Ave NW","31203","1403276312225","38.9086","-77.0323","true","false","1284465780000","","false","true",1,16,"1403276069238",2014-06-20 10:54:29,17,0.0588235294117647,0.941176470588235
"26","26","20th & E St NW","31204","1403276366663","38.8963","-77.045","true","false","1284465840000","","false","true",7,2,"1403275882436",2014-06-20 10:51:22,9,0.777777777777778,0.222222222222222
"27","27","21st & I St NW","31205","1403276397955","38.9008","-77.047","true","false","1283861040000","","false","true",21,1,"1403273245899",2014-06-20 10:07:25,22,0.954545454545455,0.0454545454545455
"28","28","Georgia & New Hampshire Ave NW","31400","1403276298662","38.936043","-77.024649","true","false","1284465900000","","false","true",28,26,"1403274848828",2014-06-20 10:34:08,54,0.518518518518518,0.481481481481481
"29","29","14th St & Spring Rd NW","31401","1403276424843","38.9375","-77.0328","true","false","1284465960000","","false","true",1,4,"1403273527599",2014-06-20 10:12:07,5,0.2,0.8
"30","30","John McCormack Dr & Michigan Ave NE","31502","1403276401139","38.9346","-76.9955","true","false","1284465960000","","false","true",27,20,"1403265438268",2014-06-20 07:57:18,47,0.574468085106383,0.425531914893617
"31","31","5th & K St NW","31600","1403276199700","38.90304","-77.019027","true","false","1284466020000","","false","true",1,12,"1403274508552",2014-06-20 10:28:28,13,0.0769230769230769,0.923076923076923
"32","32","19th & East Capitol St SE","31601","1403276215338","38.8896","-76.9769","true","false","1284466020000","","false","true",4,20,"1403274524197",2014-06-20 10:28:44,24,0.166666666666667,0.833333333333333
"33","33","Park Rd & Holmead Pl NW","31602","1403276388659","38.9308","-77.0315","true","false","1284466080000","","false","true",2,11,"1403274456324",2014-06-20 10:27:36,13,0.153846153846154,0.846153846153846
"34","34","Good Hope & Naylor Rd SE","31700","1403276316266","38.8601","-76.9672","true","false","1284466140000","","false","true",23,27,"1403265677761",2014-06-20 08:01:17,50,0.46,0.54
"35","35","Connecticut Ave & Newark St NW / Cleveland Park","31305","1403276329291","38.934267","-77.057979","true","false","1289241840000","","false","true",2,3,"1403276086344",2014-06-20 10:54:46,5,0.4,0.6
"36","36","Randle Circle & Minnesota Ave SE","31702","1403276394747","38.878","-76.9607","true","false","1284466200000","","false","true",24,26,"1403237026314",2014-06-20 00:03:46,50,0.48,0.52
"37","37","Minnesota Ave Metro/DOES","31703","1403276407303","38.897063","-76.947446","true","false","1284466200000","","false","true",27,20,"1403263195958",2014-06-20 07:19:55,47,0.574468085106383,0.425531914893617
"38","38","Nannie Helen Burroughs & Minnesota Ave NE","31704","1403276414944","38.901385","-76.941877","true","false","1386766320000","1298396940000","false","true",25,25,"1403260466581",2014-06-20 06:34:26,50,0.5,0.5
"39","39","Anacostia Metro","31801","1403276242030","38.862669","-76.994637","true","false","1284466260000","","false","true",23,26,"1403268164483",2014-06-20 08:42:44,49,0.469387755102041,0.530612244897959
"40","40","Good Hope Rd & MLK Ave SE","31802","1403276280155","38.867373","-76.988039","true","false","1305288720000","","false","true",24,26,"1403274879559",2014-06-20 10:34:39,50,0.48,0.52
"41","41","19th & E Street NW","31206","1403276271555","38.8952","-77.0436","true","false","1284545040000","","false","true",4,1,"1403273259252",2014-06-20 10:07:39,5,0.8,0.2
"42","42","4th St & Rhode Island Ave NE","31500","1403276285932","38.919488","-77.000624","true","false","1289970000000","","false","true",25,25,"1403274111858",2014-06-20 10:21:51,50,0.5,0.5
"43","43","10th & U St NW","31111","1403276190691","38.9172","-77.0259","true","false","1285822380000","","false","true",1,8,"1403269001504",2014-06-20 08:56:41,9,0.111111111111111,0.888888888888889
"44","44","Georgia Ave and Fairmont St NW","31207","1403276378784","38.9249","-77.0222","true","false","1285041600000","","false","true",26,24,"1403275412722",2014-06-20 10:43:32,50,0.52,0.48
"45","45","1st & N St  SE","31209","1403276292284","38.8743","-77.0057","true","false","1285041600000","","false","true",20,23,"1403274120005",2014-06-20 10:22:00,43,0.465116279069767,0.534883720930233
"46","46","20th St & Florida Ave NW","31110","1403276235855","38.9154","-77.0446","true","false","1285217520000","","false","true",2,7,"1403275027337",2014-06-20 10:37:07,9,0.222222222222222,0.777777777777778
"47","47","7th & T St NW","31109","1403276363509","38.9155","-77.0222","true","false","1285735680000","","false","true",2,7,"1403276362465",2014-06-20 10:59:22,9,0.222222222222222,0.777777777777778
"48","48","23rd & Eads St","31013","1403276250177","38.853613","-77.053535","true","false","1287562620000","","false","true",24,26,"1403265616157",2014-06-20 08:00:16,50,0.48,0.52
"49","49","M St & New Jersey Ave SE","31208","1403276193250","38.8763","-77.0037","true","false","1285041600000","","false","true",28,28,"1403273483229",2014-06-20 10:11:23,56,0.5,0.5
"50","51","Massachusetts Ave & Dupont Circle NW","31200","1403276326918","38.9101","-77.0444","true","false","1284523200000","","false","true",17,15,"1403276326115",2014-06-20 10:58:46,32,0.53125,0.46875
"51","52","1st & M St NE","31603","1403276313860","38.9057","-77.0056","true","false","1287115200000","","false","true",4,13,"1403276312139",2014-06-20 10:58:32,17,0.235294117647059,0.764705882352941
"52","53","21st & M St NW","31212","1403276271177","38.90534","-77.046774","true","false","1285041600000","","false","true",8,20,"1403275787401",2014-06-20 10:49:47,28,0.285714285714286,0.714285714285714
"53","54","17th & K St NW","31213","1403276404217","38.90276","-77.03863","true","false","1306236960000","","false","true",8,2,"1403276403043",2014-06-20 11:00:03,10,0.8,0.2
"54","55","3rd & H St NW","31604","1403276223109","38.899408","-77.015289","true","false","1287028800000","","false","true",1,8,"1403274773300",2014-06-20 10:32:53,9,0.111111111111111,0.888888888888889
"55","56","3rd & D St SE","31605","1403276326950","38.8851","-77.0023","true","false","1287201600000","","false","true",20,28,"1403273336303",2014-06-20 10:08:56,48,0.416666666666667,0.583333333333333
"56","57","Potomac & Pennsylvania Ave SE","31606","1403276395420","38.8803","-76.9862","true","false","1287460800000","","false","true",27,25,"1403275669745",2014-06-20 10:47:49,52,0.519230769230769,0.480769230769231
"57","58","14th & D St SE","31607","1403276336127","38.884","-76.9861","true","false","1287374400000","","false","true",23,4,"1403274644899",2014-06-20 10:30:44,27,0.851851851851852,0.148148148148148
"58","59","17th & Corcoran St NW","31214","1403276347313","38.9121","-77.0387","true","false","1294078980000","","false","true",12,9,"1403276104629",2014-06-20 10:55:04,21,0.571428571428571,0.428571428571429
"59","60","Van Ness Metro / UDC","31300","1403276382012","38.944551","-77.063896","true","false","1289624400000","","false","true",28,26,"1403274932386",2014-06-20 10:35:32,54,0.518518518518518,0.481481481481481
"60","61","Florida Ave & R St NW","31503","1403276422020","38.9126","-77.0135","true","false","1290056400000","","false","true",1,7,"1403275634123",2014-06-20 10:47:14,8,0.125,0.875
"61","62","8th & Eye St SE / Barracks Row","31608","1403276192088","38.8792","-76.9953","true","false","1287374400000","","false","true",1,4,"1403276191222",2014-06-20 10:56:31,5,0.2,0.8
"62","63","Ward Circle / American University","31301","1403276269907","38.938736","-77.087171","true","false","1289538000000","","false","true",27,27,"1403273368522",2014-06-20 10:09:28,54,0.5,0.5
"63","64","Idaho Ave & Newark St NW [on 2nd District patio]","31302","1403276374082","38.934751","-77.074647","true","false","1289970000000","","false","true",23,4,"1403276373825",2014-06-20 10:59:33,27,0.851851851851852,0.148148148148148
"64","65","14th St Heights / 14th & Crittenden St NW","31402","1403276352283","38.947774","-77.032818","true","false","1289970000000","","false","true",26,24,"1403276110011",2014-06-20 10:55:10,50,0.52,0.48
"65","66","Anacostia Library","31804","1403276215508","38.865784","-76.9784","true","false","1288584000000","","false","true",25,25,"1403268146497",2014-06-20 08:42:26,50,0.5,0.5
"66","67","Pennsylvania & Minnesota Ave SE","31805","1403276299016","38.873057","-76.971015","true","false","1288584000000","","false","true",20,28,"1403275453617",2014-06-20 10:44:13,48,0.416666666666667,0.583333333333333
"67","68","Eastern Market / 7th & North Carolina Ave SE","31610","1403276352102","38.886952","-76.996806","true","false","1282363200000","","false","true",23,4,"1403276350572",2014-06-20 10:59:10,27,0.851851851851852,0.148148148148148
"68","69","McPherson Square / 14th & H St NW","31216","1403276378817","38.899641","-77.032005","true","false","1284436800000","","false","true",7,25,"1403275965587",2014-06-20 10:52:45,32,0.21875,0.78125
"69","70","Benning Branch Library","31705","1403276301284","38.894","-76.947974","true","false","1288584000000","","false","true",26,24,"1403275072549",2014-06-20 10:37:52,50,0.52,0.48
"70","71","USDA / 12th & Independence Ave SW","31217","1403276375303","38.887237","-77.028226","true","false","1286297580000","","false","true",13,12,"1403276374175",2014-06-20 10:59:34,25,0.52,0.48
"71","72","Georgetown Harbor / 30th St NW","31215","1403276382375","38.9022212","-77.059219","true","false","1286300580000","","false","true",26,29,"1403276381340",2014-06-20 10:59:41,55,0.472727272727273,0.527272727272727
"72","73","12th & Newton St NE","31501","1403276390160","38.933668","-76.991016","true","false","1286306220000","","false","true",20,28,"1403274940428",2014-06-20 10:35:40,48,0.416666666666667,0.583333333333333
"73","74","US Dept of State / Virginia Ave & 21st St NW","31220","1403276352560","38.894919","-77.046587","true","false","1286661900000","","false","true",23,3,"1403274406332",2014-06-20 10:26:46,26,0.884615384615385,0.115384615384615
"74","75","L'Enfant Plaza / 7th & C St SW","31218","1403276225580","38.886266","-77.022241","true","false","1286410980000","","false","true",5,13,"1403273391169",2014-06-20 10:09:51,18,0.277777777777778,0.722222222222222
"75","76","10th St & Constitution Ave NW","31219","1403276364071","38.893028","-77.026013","true","false","1286497620000","","false","true",19,13,"1403276362915",2014-06-20 10:59:22,32,0.59375,0.40625
"76","77","Kennedy Center","31211","1403276357121","38.895184","-77.054845","true","false","1286325060000","","false","true",4,1,"1403274907749",2014-06-20 10:35:07,5,0.8,0.2
"77","78","Eastern Market Metro / Pennsylvania Ave & 7th St SE","31613","1403276351998","38.884","-76.995397","true","false","1286411820000","","false","true",27,28,"1403276350678",2014-06-20 10:59:10,55,0.490909090909091,0.509090909090909
"78","79","18th & M St NW","31221","1403276379997","38.904742","-77.041606","true","false","1286458140000","","false","true",26,5,"1403276378626",2014-06-20 10:59:38,31,0.838709677419355,0.161290322580645
"79","80","Tenleytown / Wisconsin Ave & Albemarle St NW","31303","1403276330557","38.947607","-77.079382","true","false","1287150300000","","false","true",24,3,"1403275605387",2014-06-20 10:46:45,27,0.888888888888889,0.111111111111111
"80","81","13th & H St NE","31611","1403276287253","38.9003","-76.9882","true","false","1286547000000","","false","true",25,12,"1403275803260",2014-06-20 10:50:03,37,0.675675675675676,0.324324324324324
"81","82","5th & F St NW","31620","1403276320094","38.897222","-77.019347","true","false","1286492280000","","false","true",15,28,"1403276319537",2014-06-20 10:58:39,43,0.348837209302326,0.651162790697674
"82","83","New York Ave & 15th St NW","31222","1403276273023","38.8991","-77.0337","true","false","1286631960000","","false","true",8,1,"1403273887319",2014-06-20 10:18:07,9,0.888888888888889,0.111111111111111
"83","84","Convention Center / 7th & M St NW","31223","1403276252044","38.90572","-77.022264","true","false","1286631960000","","false","true",1,11,"1403276009722",2014-06-20 10:53:29,12,0.0833333333333333,0.916666666666667
"84","85","Harvard St & Adams Mill Rd NW","31112","1403276382374","38.927872","-77.043358","true","false","1294164840000","","false","true",20,5,"1403275174212",2014-06-20 10:39:34,25,0.8,0.2
"85","86","19th & L St NW","31224","1403276372698","38.903407","-77.043648","true","false","1287182880000","","false","true",7,2,"1403275888886",2014-06-20 10:51:28,9,0.777777777777778,0.222222222222222
"86","87","C & O Canal & Wisconsin Ave NW","31225","1403276191058","38.90375","-77.06269","true","false","1287460800000","","false","true",16,1,"1403275287081",2014-06-20 10:41:27,17,0.941176470588235,0.0588235294117647
"87","88","6th & Water St SW / SW Waterfront","31609","1403276313780","38.87675","-77.02127","true","false","1287720000000","","false","true",25,6,"1403275588189",2014-06-20 10:46:28,31,0.806451612903226,0.193548387096774
"88","89","D St & Maryland Ave NE","31612","1403276405037","38.894758","-76.997114","true","false","1330094460000","","false","true",1,17,"1403275920581",2014-06-20 10:52:00,18,0.0555555555555556,0.944444444444444
"89","90","34th St & Wisconsin Ave NW","31226","1403276295944","38.916442","-77.0682","true","false","1287182760000","","false","true",24,26,"1403276294565",2014-06-20 10:58:14,50,0.48,0.52
"90","91","13th St & New York Ave NW","31227","1403276211831","38.900283","-77.029822","true","false","1287416880000","","false","true",5,4,"1403276210299",2014-06-20 10:56:50,9,0.555555555555556,0.444444444444444
"91","92","8th & H St NW","31228","1403276409906","38.8997","-77.023086","true","false","1287115200000","","false","true",14,3,"1403276166548",2014-06-20 10:56:06,17,0.823529411764706,0.176470588235294
"92","93","10th & Monroe St NE","31504","1403276325502","38.932514","-76.992889","true","false","1287096120000","","false","true",28,13,"1403271435022",2014-06-20 09:37:15,41,0.682926829268293,0.317073170731707
"93","94","Eckington Pl & Q St NE","31505","1403276317256","38.910972","-77.00495","true","false","1287096120000","","false","true",27,20,"1403274868028",2014-06-20 10:34:28,47,0.574468085106383,0.425531914893617
"94","95","6th & H St NE","31615","1403276212537","38.900384","-76.99831","true","false","1323696720000","","false","true",2,16,"1403275004295",2014-06-20 10:36:44,18,0.111111111111111,0.888888888888889
"95","96","3rd & H St NE","31616","1403276286364","38.900412","-77.001949","true","false","1287096060000","","false","true",2,10,"1403275802050",2014-06-20 10:50:02,12,0.166666666666667,0.833333333333333
"96","97","Bladensburg Rd & Benning Rd NE","31617","1403276241655","38.900413","-76.982872","true","false","1288200360000","","false","true",2,7,"1403274551410",2014-06-20 10:29:11,9,0.222222222222222,0.777777777777778
"97","98","4th & East Capitol St NE","31618","1403276369222","38.889955","-77.000349","true","false","1287028800000","","false","true",2,27,"1403276367597",2014-06-20 10:59:27,29,0.0689655172413793,0.931034482758621
"98","99","Lincoln Park / 13th & East Capitol St NE ","31619","1403276229297","38.890461","-76.988355","true","false","1288038900000","","false","true",3,7,"1403276228347",2014-06-20 10:57:08,10,0.3,0.7
"99","100","Branch & Pennsylvania Ave SE","31701","1403276327467","38.8692","-76.9599","true","false","1309008600000","","false","true",24,26,"1403263848119",2014-06-20 07:30:48,50,0.48,0.52
"100","101","13th & D St NE","31622","1403276368834","38.894832","-76.987633","true","false","1288114080000","","false","true",2,19,"1403275884775",2014-06-20 10:51:24,21,0.0952380952380952,0.904761904761905
"101","102","New Hampshire Ave & T St NW","31229","1403276382963","38.91554","-77.03818","true","false","1287178020000","","false","true",4,4,"1403276382250",2014-06-20 10:59:42,8,0.5,0.5
"102","103","Metro Center / 12th & G St NW","31230","1403276354949","38.898364","-77.027869","true","false","1305259200000","","false","true",18,13,"1403276354051",2014-06-20 10:59:14,31,0.580645161290323,0.419354838709677
"103","104","14th & D St NW / Ronald Reagan Building","31231","1403276337219","38.894514","-77.031617","true","false","1303306260000","","false","true",26,11,"1403276336308",2014-06-20 10:58:56,37,0.702702702702703,0.297297297297297
"104","105","7th & F St NW / National Portrait Gallery","31232","1403276234007","38.897324","-77.022322","true","false","1304108940000","","false","true",7,24,"1403276232828",2014-06-20 10:57:12,31,0.225806451612903,0.774193548387097
"105","106","17th & K St NW / Farragut Square","31233","1403276191376","38.902061","-77.038322","true","false","1304022480000","","false","true",17,13,"1403275949049",2014-06-20 10:52:29,30,0.566666666666667,0.433333333333333
"106","107","20th & O St NW / Dupont South","31234","1403276326099","38.908905","-77.04478","true","false","1328850000000","","false","true",4,28,"1403276083009",2014-06-20 10:54:43,32,0.125,0.875
"107","108","4th & D St NW / Judiciary Square","31621","1403276229629","38.895344","-77.016106","true","false","1304481600000","","false","true",5,13,"1403275021458",2014-06-20 10:37:01,18,0.277777777777778,0.722222222222222
"108","109","19th St & Constitution Ave NW","31235","1403276381979","38.8923","-77.0436","true","false","1287607080000","","false","true",22,1,"1403272630708",2014-06-20 09:57:10,23,0.956521739130435,0.0434782608695652
"109","110","37th & O St NW / Georgetown University","31236","1403276381865","38.90774","-77.071652","true","false","1288037580000","","false","true",24,11,"1403276139245",2014-06-20 10:55:39,35,0.685714285714286,0.314285714285714
"110","111","11th & H St NE","31614","1403276333960","38.899983","-76.991383","true","false","1323666000000","","false","true",1,12,"1403272703311",2014-06-20 09:58:23,13,0.0769230769230769,0.923076923076923
"111","112","25th St & Pennsylvania Ave NW","31237","1403276415702","38.903827","-77.053485","true","false","1288551000000","","false","true",2,7,"1403276173423",2014-06-20 10:56:13,9,0.222222222222222,0.777777777777778
"112","113","Columbus Circle / Union Station","31623","1403276191205","38.89696","-77.00493","true","false","1285905600000","","false","true",15,10,"1403276189683",2014-06-20 10:56:29,25,0.6,0.4
"113","114","North Capitol St & F St NW","31624","1403276295159","38.897446","-77.009888","true","false","1288122720000","","false","true",14,2,"1403275810469",2014-06-20 10:50:10,16,0.875,0.125
"114","115","11th & M St NW","31266","1403276373287","38.905607","-77.027137","true","false","1364995680000","","false","true",1,11,"1403275165110",2014-06-20 10:39:25,12,0.0833333333333333,0.916666666666667
"115","116","36th & Calvert St NW / Glover Park","31304","1403276328043","38.922581","-77.070334","true","false","1289236620000","","false","true",26,28,"1403275119029",2014-06-20 10:38:39,54,0.481481481481481,0.518518518518518
"116","117","14th & G St NW","31238","1403276215113","38.898069","-77.031823","true","false","1289237340000","","false","true",15,1,"1403276213656",2014-06-20 10:56:53,16,0.9375,0.0625
"117","118","Potomac Ave & 35th St S","31052","1403276427155","38.844015","-77.050537","true","false","1351092960000","","false","true",28,5,"1403275701159",2014-06-20 10:48:21,33,0.848484848484849,0.151515151515152
"118","124","Ohio Dr & West Basin Dr SW / MLK & FDR Memorials","31240","1403276363351","38.88412","-77.04657","true","false","1331904960000","","false","true",20,12,"1403275879366",2014-06-20 10:51:19,32,0.625,0.375
"119","125","11th & F St NW","31262","1403276349053","38.897857","-77.026975","true","false","1359981840000","","false","true",8,1,"1403270490458",2014-06-20 09:21:30,9,0.888888888888889,0.111111111111111
"120","126","23rd & E St NW ","31260","1403276380883","38.896104","-77.049882","true","false","1359652440000","","false","true",4,27,"1403275655630",2014-06-20 10:47:35,31,0.129032258064516,0.870967741935484
"121","127","Lynn & 19th St North","31014","1403276243042","38.897315","-77.070993","true","false","1302957060000","","false","true",26,5,"1403272696398",2014-06-20 09:58:16,31,0.838709677419355,0.161290322580645
"122","128","Rosslyn Metro / Wilson Blvd & Ft Myer Dr","31015","1403276411543","38.8946","-77.072305","true","false","1302957120000","","false","true",27,27,"1403274962839",2014-06-20 10:36:02,54,0.5,0.5
"123","129","Clarendon Blvd & Pierce St","31016","1403276273752","38.893648","-77.076701","true","false","1302957960000","","false","true",20,28,"1403274824017",2014-06-20 10:33:44,48,0.416666666666667,0.583333333333333
"124","130","Court House Metro / Wilson Blvd & N Uhle St","31017","1403276277711","38.891696","-77.0846","true","false","1320933600000","","false","true",7,2,"1403272577318",2014-06-20 09:56:17,9,0.777777777777778,0.222222222222222
"125","131","N Rhodes & 16th St N","31018","1403276378813","38.892164","-77.079375","true","false","1302963480000","","false","true",1,4,"1403272348557",2014-06-20 09:52:28,5,0.2,0.8
"126","132","Fairfax Village","31706","1403276273172","38.86559","-76.952103","true","false","1311771600000","","false","true",25,29,"1403237021431",2014-06-20 00:03:41,54,0.462962962962963,0.537037037037037
"127","133","21st St & Constitution Ave NW","31261","1403276279105","38.892459","-77.046567","true","false","1359639120000","","false","true",12,5,"1403274963305",2014-06-20 10:36:03,17,0.705882352941177,0.294117647058824
"128","134","Wilson Blvd & N Edgewood St","31019","1403276249321","38.889","-77.0925","true","false","1321015980000","","false","true",2,7,"1403268775682",2014-06-20 08:52:55,9,0.222222222222222,0.777777777777778
"129","135","Columbia Rd & Belmont St NW","31113","1403276254037","38.920669","-77.04368","true","false","1321625100000","","false","true",26,5,"1403276011620",2014-06-20 10:53:31,31,0.838709677419355,0.161290322580645
"130","136","17th & Rhode Island Ave NW","31239","1403275871602","38.906602","-77.038785","true","false","1321639800000","","false","true",26,9,"1403275870564",2014-06-20 10:51:10,35,0.742857142857143,0.257142857142857
"131","137","Thomas Circle","31241","1403276232078","38.9059","-77.0325","true","false","1321714320000","","false","true",12,21,"1403276230526",2014-06-20 10:57:10,33,0.363636363636364,0.636363636363636
"132","138","Wilson Blvd & Franklin Rd","31020","1403276387415","38.8904","-77.0889","true","false","1322715600000","","false","true",24,26,"1403274456075",2014-06-20 10:27:36,50,0.48,0.52
"133","139","Clarendon Blvd & N Fillmore St","31021","1403276354314","38.8881","-77.09308","true","false","1321981080000","","false","true",24,3,"1403271113910",2014-06-20 09:31:53,27,0.888888888888889,0.111111111111111
"134","140","Clarendon Metro / Wilson Blvd & N Highland St","31022","1403276406903","38.88786","-77.094875","true","false","1321983480000","","false","true",23,6,"1403271226371",2014-06-20 09:33:46,29,0.793103448275862,0.206896551724138
"135","141","18th St & Pennsylvania Ave NW","31242","1403276370201","38.89968","-77.041539","true","false","1322571600000","","false","true",7,1,"1403276189419",2014-06-20 10:56:29,8,0.875,0.125
"136","142","Maryland & Independence Ave SW","31243","1403276426539","38.887299","-77.018939","true","false","1327669020000","","false","true",8,16,"1403276425373",2014-06-20 11:00:25,24,0.333333333333333,0.666666666666667
"137","143","4th & E St SW","31244","1403276366446","38.88412","-77.017445","true","false","1322756880000","","false","true",6,26,"1403276123524",2014-06-20 10:55:23,32,0.1875,0.8125
"138","144","3rd & G St SE","31625","1403276390553","38.881185","-77.001828","true","false","1322661660000","","false","true",25,6,"1403276389231",2014-06-20 10:59:49,31,0.806451612903226,0.193548387096774
"139","145","7th & R St NW / Shaw Library","31245","1403276312461","38.912719","-77.022155","true","false","1322583120000","","false","true",1,8,"1403275221308",2014-06-20 10:40:21,9,0.111111111111111,0.888888888888889
"140","146","9th & Upshur St NW","31404","1403276210619","38.9418","-77.0251","true","false","1323194880000","","false","true",25,28,"1403271626380",2014-06-20 09:40:26,53,0.471698113207547,0.528301886792453
"141","147","1st & Rhode Island Ave NW","31506","1403276327553","38.915417","-77.012289","true","false","1323178380000","","false","true",25,29,"1403275119302",2014-06-20 10:38:39,54,0.462962962962963,0.537037037037037
"142","148","Columbia Rd & Georgia Ave NW","31115","1403276353012","38.928156","-77.02344","true","false","1323234000000","","false","true",27,3,"1403276110062",2014-06-20 10:55:10,30,0.9,0.1
"143","149","California St & Florida Ave NW","31116","1403276292910","38.917761","-77.04062","true","false","1323752400000","","false","true",1,11,"1403272803431",2014-06-20 10:00:03,12,0.0833333333333333,0.916666666666667
"144","150","Benning Rd & East Capitol St NE / Benning Rd Metro","31707","1403276277476","38.889935","-76.93723","true","false","1324404360000","","false","true",28,3,"1403263698740",2014-06-20 07:28:18,31,0.903225806451613,0.0967741935483871
"145","151","3000 Connecticut Ave NW / National Zoo","31307","1403276196286","38.930282","-77.055599","true","false","1324496640000","","false","true",2,7,"1403271670238",2014-06-20 09:41:10,9,0.222222222222222,0.777777777777778
"146","152","Anacostia Ave & Benning Rd NE / River Terrace ","31708","1403276416656","38.896544","-76.96012","true","false","1324402320000","","false","true",12,6,"1403273277298",2014-06-20 10:07:57,18,0.666666666666667,0.333333333333333
"147","153","M St & Pennsylvania Ave NW","31246","1403276359562","38.905126","-77.056887","true","false","1324485480000","","false","true",10,13,"1403276116954",2014-06-20 10:55:16,23,0.434782608695652,0.565217391304348
"148","154","15th St & Massachusetts Ave SE","31626","1403276257502","38.88732","-76.983569","true","false","1324565040000","","false","true",1,7,"1403274567067",2014-06-20 10:29:27,8,0.125,0.875
"149","155","Congress Heights Metro","31806","1403276219036","38.844711","-76.987823","true","false","1324581180000","","false","true",24,29,"1403237045890",2014-06-20 00:04:05,53,0.452830188679245,0.547169811320755
"150","156","N Quincy St & Glebe Rd","31035","1403276423606","38.876393","-77.107735","true","false","1335552600000","","false","true",23,27,"1403274974871",2014-06-20 10:36:14,50,0.46,0.54
"151","157","Wilson Blvd & N Oakland St","31033","1403276369263","38.8815","-77.10396","true","false","1335387720000","","false","true",12,29,"1403272805828",2014-06-20 10:00:05,41,0.292682926829268,0.707317073170732
"152","158","N Veitch  & 20th St N","31029","1403276306145","38.896923","-77.086502","true","false","1335213360000","","false","true",2,7,"1403276064119",2014-06-20 10:54:24,9,0.222222222222222,0.777777777777778
"153","159","11th & K St NW","31263","1403276381323","38.90268","-77.02674","true","false","1360936140000","","false","true",9,20,"1403273938617",2014-06-20 10:18:58,29,0.310344827586207,0.689655172413793
"154","160","Fairfax Dr & Wilson Blvd","31023","1403276228819","38.885801","-77.097745","true","false","1335545880000","","false","true",23,27,"1403275986178",2014-06-20 10:53:06,50,0.46,0.54
"155","161","Key Blvd & N Quinn St","31027","1403276306344","38.896015","-77.078107","true","false","1335195480000","","false","true",23,27,"1403272079383",2014-06-20 09:47:59,50,0.46,0.54
"156","162","1st & K St SE","31628","1403276408504","38.87861","-77.006004","true","false","1328717220000","","false","true",12,6,"1403275683610",2014-06-20 10:48:03,18,0.666666666666667,0.333333333333333
"157","163","39th & Calvert St NW / Stoddert","31306","1403276191796","38.922649","-77.077271","true","false","1328898300000","","false","true",28,29,"1403275707387",2014-06-20 10:48:27,57,0.491228070175439,0.508771929824561
"158","164","1st & Washington Hospital Center NW","31507","1403276269570","38.928743","-77.012457","true","false","1329153540000","","false","true",25,29,"1403275544601",2014-06-20 10:45:44,54,0.462962962962963,0.537037037037037
"159","165","Virginia Square Metro / N Monroe St & 9th St N","31024","1403276251444","38.882788","-77.103148","true","false","1329508980000","","false","true",12,10,"1403276008110",2014-06-20 10:53:28,22,0.545454545454545,0.454545454545455
"160","166","Central Library / N Quincy St & 10th St N","31025","1403276212007","38.88397","-77.10783","true","false","1329493920000","","false","true",20,27,"1403272805025",2014-06-20 10:00:05,47,0.425531914893617,0.574468085106383
"161","167","Washington Blvd & 10th St N","31026","1403276231060","38.884734","-77.093485","true","false","1329944340000","","false","true",20,5,"1403270131183",2014-06-20 09:15:31,25,0.8,0.2
"162","168","Jefferson Dr & 14th St SW","31247","1403276396718","38.888553","-77.032429","true","false","1331911860000","","false","true",13,13,"1403276276069",2014-06-20 10:57:56,26,0.5,0.5
"163","169","Smithsonian / Jefferson Dr & 12th St SW","31248","1403276393718","38.888767","-77.02858","true","false","1333369620000","","false","true",23,11,"1403276228087",2014-06-20 10:57:08,34,0.676470588235294,0.323529411764706
"164","170","George Mason Dr & Wilson Blvd","31036","1403276267247","38.87887","-77.1207","true","false","1335805380000","","false","true",1,8,"1403273882583",2014-06-20 10:18:02,9,0.111111111111111,0.888888888888889
"165","171","6th St & Indiana Ave NW","31264","1403276320132","38.894573","-77.01994","true","false","1364990040000","","false","true",11,1,"1403273975240",2014-06-20 10:19:35,12,0.916666666666667,0.0833333333333333
"166","172","N Veitch & Key Blvd","31028","1403276237505","38.893241","-77.086045","true","false","1335202980000","","false","true",12,29,"1403269438538",2014-06-20 09:03:58,41,0.292682926829268,0.707317073170732
"167","173","N Adams St & Lee Hwy","31030","1403276248265","38.89593","-77.089006","true","false","1335369060000","","false","true",27,27,"1403273833555",2014-06-20 10:17:13,54,0.5,0.5
"168","174","15th & N Scott St","31031","1403276371768","38.89054","-77.08095","true","false","1335362100000","","false","true",1,4,"1403270491411",2014-06-20 09:21:31,5,0.2,0.8
"169","175","Washington Blvd & 7th St N","31032","1403276227561","38.880834","-77.091129","true","false","1335794400000","","false","true",1,4,"1403274054618",2014-06-20 10:20:54,5,0.2,0.8
"170","176","Ballston Metro / N Stuart & 9th St N","31037","1403276346948","38.881044","-77.111768","true","false","1335817440000","","false","true",5,24,"1403274415360",2014-06-20 10:26:55,29,0.172413793103448,0.827586206896552
"171","177","N Randolph St & Fairfax Dr","31034","1403276395028","38.882629","-77.109366","true","false","1335542580000","","false","true",27,20,"1403274462958",2014-06-20 10:27:42,47,0.574468085106383,0.425531914893617
"172","178","Jefferson Memorial","31249","1403276292164","38.879819","-77.037413","true","false","1335969180000","","false","true",20,14,"1403276290081",2014-06-20 10:58:10,34,0.588235294117647,0.411764705882353
"173","179","Good Hope Rd & 14th St SE","31803","1403276328688","38.866611","-76.985238","true","false","1335981060000","","false","true",27,26,"1403274656607",2014-06-20 10:30:56,53,0.509433962264151,0.490566037735849
"174","180","Glebe Rd & 11th St N","31038","1403276254039","38.883921","-77.116817","true","false","1337269200000","","false","true",25,20,"1403271572966",2014-06-20 09:39:32,45,0.555555555555556,0.444444444444444
"175","181","N Quincy St & Wilson Blvd","31039","1403276405101","38.880151","-77.107673","true","false","1338301620000","","false","true",20,28,"1403275437979",2014-06-20 10:43:57,48,0.416666666666667,0.583333333333333
"176","182","Fairfax Dr & Kenmore St","31040","1403276257883","38.884616","-77.10108","true","false","1366814880000","","false","true",12,29,"1403269825356",2014-06-20 09:10:25,41,0.292682926829268,0.707317073170732
"177","183","Gallaudet / 8th St & Florida Ave NE","31508","1403276374699","38.90509","-76.9941","true","false","1342033620000","","false","true",6,25,"1403273718563",2014-06-20 10:15:18,31,0.193548387096774,0.806451612903226
"178","185","20th & L St NW","31250","1403276378041","38.903584","-77.044789","true","false","1340632500000","","false","true",10,2,"1403275652679",2014-06-20 10:47:32,12,0.833333333333333,0.166666666666667
"179","186","12th & L St NW","31251","1403276409737","38.903819","-77.0284","true","false","1340639640000","","false","true",1,12,"1403274964411",2014-06-20 10:36:04,13,0.0769230769230769,0.923076923076923
"180","187","21st St & Pennsylvania Ave NW","31252","1403276422907","38.901539","-77.046564","true","false","1340811180000","","false","true",10,2,"1403276179528",2014-06-20 10:56:19,12,0.833333333333333,0.166666666666667
"181","188","19th & K St NW","31253","1403276372454","38.902204","-77.04337","true","false","1340801880000","","false","true",6,29,"1403276130053",2014-06-20 10:55:30,35,0.171428571428571,0.828571428571429
"182","189","Prince St & Union St","31041","1403276354685","38.803124","-77.040363","true","false","1346070420000","","false","true",4,26,"1403275333039",2014-06-20 10:42:13,30,0.133333333333333,0.866666666666667
"183","190","Market Square / King St & Royal St","31042","1403276390710","38.804718","-77.043363","true","false","1346077680000","","false","true",2,7,"1403273012054",2014-06-20 10:03:32,9,0.222222222222222,0.777777777777778
"184","191","Saint Asaph St & Pendleton  St","31043","1403276191199","38.810743","-77.044664","true","false","1346084880000","","false","true",3,25,"1403275153115",2014-06-20 10:39:13,28,0.107142857142857,0.892857142857143
"185","192","King St & Patrick St","31044","1403276328859","38.805317","-77.049883","true","false","1346442900000","","false","true",26,28,"1403275603541",2014-06-20 10:46:43,54,0.481481481481481,0.518518518518518
"186","193","15th & K St NW","31254","1403276362854","38.902","-77.03353","true","false","1341232920000","","false","true",10,2,"1403274430620",2014-06-20 10:27:10,12,0.833333333333333,0.166666666666667
"187","194","Commerce St & Fayette St","31045","1403276210301","38.805648","-77.05293","true","false","1346442960000","","false","true",25,29,"1403276209055",2014-06-20 10:56:49,54,0.462962962962963,0.537037037037037
"188","195","Henry St & Pendleton St","31046","1403276418259","38.811456","-77.050276","true","false","1346442960000","","false","true",26,3,"1403261090181",2014-06-20 06:44:50,29,0.896551724137931,0.103448275862069
"189","196","Braddock Rd Metro","31047","1403276298620","38.814577","-77.052808","true","false","1346442960000","","false","true",26,5,"1403274848872",2014-06-20 10:34:08,31,0.838709677419355,0.161290322580645
"190","197","King St Metro","31048","1403276407295","38.805767","-77.06072","true","false","1346443020000","","false","true",26,5,"1403270643993",2014-06-20 09:24:03,31,0.838709677419355,0.161290322580645
"191","198","24th & N St NW","31255","1403276282353","38.9066","-77.05152","true","false","1341575340000","","false","true",28,25,"1403276281013",2014-06-20 10:58:01,53,0.528301886792453,0.471698113207547
"192","199","10th & E St NW","31256","1403276355944","38.895914","-77.026064","true","false","1342109700000","","false","true",8,1,"1403272739860",2014-06-20 09:58:59,9,0.888888888888889,0.111111111111111
"193","200","22nd & I St NW / Foggy Bottom","31257","1403276399381","38.90088","-77.048911","true","false","1342442220000","","false","true",8,1,"1403275734798",2014-06-20 10:48:54,9,0.888888888888889,0.111111111111111
"194","201","Utah St & 11th St N ","31049","1403276229017","38.883669","-77.113905","true","false","1342539420000","","false","true",24,26,"1403274056140",2014-06-20 10:20:56,50,0.48,0.52
"195","202","Barton St & 10th St N","31050","1403276205928","38.884961","-77.08777","true","false","1346771820000","","false","true",12,29,"1403274273296",2014-06-20 10:24:33,41,0.292682926829268,0.707317073170732
"196","203","Arlington Blvd & N Queen St","31051","1403276248880","38.889365","-77.077294","true","false","1346776740000","","false","true",2,3,"1403274564118",2014-06-20 10:29:24,5,0.4,0.6
"197","204","Lincoln Memorial","31258","1403276299317","38.888251","-77.049426","true","false","1349268360000","","false","true",5,5,"1403275573682",2014-06-20 10:46:13,10,0.5,0.5
"198","206","20th St & Virginia Ave NW","31259","1403276309045","38.894722","-77.045128","true","false","1359646980000","","false","true",8,1,"1403268414250",2014-06-20 08:46:54,9,0.888888888888889,0.111111111111111
"199","207","5th St & Massachusetts Ave NW","31265","1403276389543","38.90093","-77.018677","true","false","1367842440000","","false","true",1,12,"1403272802665",2014-06-20 10:00:02,13,0.0769230769230769,0.923076923076923
"200","208","39th & Veazey St NW","31308","1403276276889","38.943837","-77.077078","true","false","1360598160000","","false","true",25,29,"1403268822396",2014-06-20 08:53:42,54,0.462962962962963,0.537037037037037
"201","209","Fessenden St & Wisconsin Ave NW","31309","1403276387762","38.954812","-77.082426","true","false","1360588560000","","false","true",3,25,"1403237037047",2014-06-20 00:03:57,28,0.107142857142857,0.892857142857143
"202","210","M St & Delaware Ave NE","31627","1403276264409","38.905707","-77.003041","true","false","1360929900000","","false","true",7,27,"1403274038821",2014-06-20 10:20:38,34,0.205882352941176,0.794117647058823
"203","211","Columbia Pike & S Courthouse Rd","31053","1403276233521","38.863833","-77.080319","true","false","1364482620000","","false","true",28,26,"1403275507627",2014-06-20 10:45:07,54,0.518518518518518,0.481481481481481
"204","212","Walter Reed Community Center / Walter Reed Dr & 16th St S","31054","1403276310521","38.857803","-77.086733","true","false","1364466180000","","false","true",26,24,"1403272421912",2014-06-20 09:53:41,50,0.52,0.48
"205","213","28th St S & S Meade St","31055","1403276313414","38.846222","-77.069275","true","false","1364476320000","","false","true",4,24,"1403276070823",2014-06-20 10:54:30,28,0.142857142857143,0.857142857142857
"206","214","18th St & Wyoming Ave NW","31114","1403276380994","38.918809","-77.041571","true","false","1365003300000","","false","true",5,3,"1403275897571",2014-06-20 10:51:37,8,0.625,0.375
"207","215","5th & Kennedy St NW","31403","1403276417530","38.956595","-77.019815","true","false","1365777420000","","false","true",26,28,"1403269489618",2014-06-20 09:04:49,54,0.481481481481481,0.518518518518518
"208","216","Georgia Ave & Emerson St NW","31405","1403276326794","38.949662","-77.027333","true","false","1365783540000","","false","true",26,5,"1403275360412",2014-06-20 10:42:40,31,0.838709677419355,0.161290322580645
"209","217","14th & Upshur St NW","31406","1403276426761","38.942016","-77.032652","true","false","1365794820000","","false","true",26,5,"1403276183515",2014-06-20 10:56:23,31,0.838709677419355,0.161290322580645
"210","218","14th St & Colorado Ave NW","31407","1403276386576","38.956432","-77.032947","true","false","1365798900000","","false","true",28,3,"1403275178710",2014-06-20 10:39:38,31,0.903225806451613,0.0967741935483871
"211","219","S Troy St & 26th St S","31056","1403276380740","38.847977","-77.075104","true","false","1366725840000","","false","true",25,25,"1403269962659",2014-06-20 09:12:42,50,0.5,0.5
"212","220","S Four Mile Run Dr & S Shirlington Rd","31057","1403276377929","38.8444","-77.085931","true","false","1366729200000","","false","true",26,24,"1403265130288",2014-06-20 07:52:10,50,0.52,0.48
"213","221","S Oakland St & Columbia Pike","31058","1403276203848","38.860789","-77.09586","true","false","1366735380000","","false","true",25,25,"1403237027277",2014-06-20 00:03:47,50,0.5,0.5
"214","222","S Abingdon St & 36th St S","31059","1403276394479","38.835213","-77.094295","true","false","1366739700000","","false","true",23,26,"1403237027655",2014-06-20 00:03:47,49,0.469387755102041,0.530612244897959
"215","223","S Arlington Mill Dr & Campbell Ave","31060","1403276403468","38.84232","-77.089555","true","false","1366802400000","","false","true",4,24,"1403237020943",2014-06-20 00:03:40,28,0.142857142857143,0.857142857142857
"216","224","S Kenmore & 24th St S","31061","1403276209085","38.848454","-77.084918","true","false","1366825140000","","false","true",24,26,"1403237043528",2014-06-20 00:04:03,50,0.48,0.52
"217","225","13th St & Eastern Ave","32006","1403276203911","38.987","-77.029417","true","false","1380292680000","","false","true",27,27,"1403269747133",2014-06-20 09:09:07,54,0.5,0.5
"218","226","Wisconsin Ave & O St NW","31312","1403276340876","38.90849","-77.063586","true","false","1366910820000","","false","true",20,9,"1403275132630",2014-06-20 10:38:52,29,0.689655172413793,0.310344827586207
"219","227","S George Mason Dr & 13th St S","31062","1403276415723","38.854691","-77.100555","true","false","1372694040000","","false","true",12,29,"1403276373381",2014-06-20 10:59:33,41,0.292682926829268,0.707317073170732
"220","228","Connecticut & Nebraska Ave NW","31310","1403276342909","38.955016","-77.069956","true","false","1366894140000","","false","true",25,10,"1403275880330",2014-06-20 10:51:20,35,0.714285714285714,0.285714285714286
"221","229","17th St & Massachusetts Ave NW","31267","1403276415252","38.908142","-77.038359","true","false","1367851920000","","false","true",20,7,"1403275548527",2014-06-20 10:45:48,27,0.740740740740741,0.259259259259259
"222","230","15th & Euclid St  NW","31117","1403276327259","38.92333","-77.0352","true","false","1367856780000","","false","true",2,6,"1403276084597",2014-06-20 10:54:44,8,0.25,0.75
"223","231","8th & East Capitol St NE","31629","1403276325081","38.889988","-76.995193","true","false","1368545580000","","false","true",2,29,"1403276323967",2014-06-20 10:58:43,31,0.0645161290322581,0.935483870967742
"224","232","New Jersey Ave & R St NW","31509","1403276375803","38.912659","-77.017669","true","false","1368532680000","","false","true",12,5,"1403274684560",2014-06-20 10:31:24,17,0.705882352941177,0.294117647058824
"225","233","15th & East Capitol St NE","31630","1403276373675","38.889908","-76.983326","true","false","1368541260000","","false","true",12,29,"1403275406397",2014-06-20 10:43:26,41,0.292682926829268,0.707317073170732
"226","234","8th & F St NE","31631","1403276417939","38.897274","-76.994749","true","false","1368552540000","","false","true",2,7,"1403276416238",2014-06-20 11:00:16,9,0.222222222222222,0.777777777777778
"227","235","18th St & Rhode Island Ave NE","31510","1403276340369","38.927095","-76.978924","true","false","1369915500000","","false","true",4,20,"1403271219503",2014-06-20 09:33:39,24,0.166666666666667,0.833333333333333
"228","236","15th & F St NE","31632","1403276289792","38.897195","-76.983575","true","false","1369928820000","","false","true",1,10,"1403269723307",2014-06-20 09:08:43,11,0.0909090909090909,0.909090909090909
"229","237","12th & Irving St NE","31511","1403276354252","38.928644","-76.990955","true","false","1369923120000","","false","true",27,26,"1403274180188",2014-06-20 10:23:00,53,0.509433962264151,0.490566037735849
"230","238","34th St & Minnesota Ave SE","31709","1403276215681","38.884085","-76.957461","true","false","1370358840000","","false","true",2,3,"1403274284029",2014-06-20 10:24:44,5,0.4,0.6
"231","239","Alabama & MLK Ave SE","31800","1403276274448","38.843222","-76.999388","true","false","1370345160000","","false","true",25,25,"1403267600519",2014-06-20 08:33:20,50,0.5,0.5
"232","240","Pleasant St & MLK Ave SE","31807","1403276264208","38.863897","-76.990037","true","false","1370351820000","","false","true",25,25,"1403261852726",2014-06-20 06:57:32,50,0.5,0.5
"233","241","Neal St & Trinidad Ave NE","31512","1403276389685","38.903732","-76.987211","true","false","1371221640000","","false","true",24,3,"1403275663805",2014-06-20 10:47:43,27,0.888888888888889,0.111111111111111
"234","242","13th & U St NW","31268","1403276371577","38.916794","-77.029779","true","false","1371231240000","","false","true",2,15,"1403274439839",2014-06-20 10:27:19,17,0.117647058823529,0.882352941176471
"235","243","S George Mason Dr & Four Mile Run","31063","1403276236907","38.852248","-77.105022","true","false","1372690500000","","false","true",25,25,"1403237022438",2014-06-20 00:03:42,50,0.5,0.5
"236","244","S Stafford & 34th St S","31064","1403276412941","38.834108","-77.087323","true","false","1372701360000","","false","true",25,28,"1403237037668",2014-06-20 00:03:57,53,0.471698113207547,0.528301886792453
"237","245","N Pershing Dr & Wayne St","31065","1403276320112","38.880705","-77.08596","true","false","1372680300000","","false","true",25,25,"1403270396938",2014-06-20 09:19:56,50,0.5,0.5
"238","246","Columbia Pike & S Orme St","31066","1403276218637","38.867262","-77.072315","true","false","1372684620000","","false","true",24,26,"1403237037645",2014-06-20 00:03:57,50,0.48,0.52
"239","247","3rd St & Pennsylvania Ave SE","31269","1403276410552","38.887378","-77.001955","true","false","1374598740000","","false","true",6,13,"1403276167690",2014-06-20 10:56:07,19,0.315789473684211,0.684210526315789
"240","248","8th & D St NW","31270","1403276280165","38.894851","-77.02324","true","false","1374581640000","","false","true",4,24,"1403275071938",2014-06-20 10:37:51,28,0.142857142857143,0.857142857142857
"241","249","3rd & Elm St NW","31118","1403276233900","38.917622","-77.01597","true","false","1374589740000","","false","true",23,29,"1403275991259",2014-06-20 10:53:11,52,0.442307692307692,0.557692307692308
"242","250","Rhode Island Ave & V St NE","31513","1403276353026","38.918155","-77.004746","true","false","1375196700000","","false","true",1,12,"1403271800773",2014-06-20 09:43:20,13,0.0769230769230769,0.923076923076923
"243","251","Constitution Ave & 2nd St NW/DOL","31271","1403276364417","38.892275","-77.013917","true","false","1375190280000","","false","true",7,3,"1403275155917",2014-06-20 10:39:15,10,0.7,0.3
"244","252","Washington & Independence Ave SW/HHS","31272","1403276409521","38.88731","-77.01397","true","false","1375445040000","","false","true",17,2,"1403273900892",2014-06-20 10:18:20,19,0.894736842105263,0.105263157894737
"245","253","Independence Ave & L'Enfant Plaza SW/DOE","31633","1403276373194","38.887397","-77.026154","true","false","1375789680000","","false","true",5,20,"1403269709502",2014-06-20 09:08:29,25,0.2,0.8
"246","254","Hamlin & 7th St NE","31514","1403276330976","38.927497","-76.997194","true","false","1376653440000","","false","true",24,3,"1403272190879",2014-06-20 09:49:50,27,0.888888888888889,0.111111111111111
"247","255","Columbia Pike & S Walter Reed Dr","31067","1403276295654","38.862478","-77.086599","true","false","1377605340000","","false","true",24,27,"1403273397502",2014-06-20 10:09:57,51,0.470588235294118,0.529411764705882
"248","256","Columbia Pike & S Dinwiddie St / Arlington Mill Community Center","31068","1403276324468","38.856319","-77.11153","true","false","1377776460000","","false","true",26,28,"1403237019966",2014-06-20 00:03:39,54,0.481481481481481,0.518518518518518
"249","257","Pershing & N George Mason Dr","31069","1403276231821","38.871822","-77.107906","true","false","1377792000000","","false","true",23,27,"1403274299140",2014-06-20 10:24:59,50,0.46,0.54
"250","258","Fenton St & New York Ave ","32001","1403276199617","38.985404","-77.023082","true","false","1380292620000","","false","true",3,25,"1403263464856",2014-06-20 07:24:24,28,0.107142857142857,0.892857142857143
"251","259","Bethesda Ave & Arlington Blvd","32002","1403276332760","38.981103","-77.097426","true","false","1380292620000","","false","true",26,5,"1403274641414",2014-06-20 10:30:41,31,0.838709677419355,0.161290322580645
"252","260","Montgomery Ave & Waverly St ","32003","1403276214065","38.983838","-77.09221","true","false","1382208480000","","false","true",24,26,"1403266327853",2014-06-20 08:12:07,50,0.48,0.52
"253","261","Fallsgrove Blvd & Fallsgrove Dr","32004","1403276194160","39.096312","-77.192672","true","false","1380292620000","","false","true",27,4,"1403237030379",2014-06-20 00:03:50,31,0.870967741935484,0.129032258064516
"254","262","Traville Gateway Dr & Gudelsky Dr","32005","1403276192373","39.093783","-77.202501","true","false","1380292680000","","false","true",24,7,"1403237031618",2014-06-20 00:03:51,31,0.774193548387097,0.225806451612903
"255","263","Norfolk Ave & Fairmont St","32000","1403276377282","38.988562","-77.096539","true","false","1380292560000","","false","true",26,24,"1403276084631",2014-06-20 10:54:44,50,0.52,0.48
"256","264","E Montgomery Ave & Maryland Ave","32007","1403276385667","39.084125","-77.151291","true","false","1380292560000","","false","true",6,13,"1403237022481",2014-06-20 00:03:42,19,0.315789473684211,0.684210526315789
"257","265","Cordell & Norfolk Ave","32008","1403276421600","38.98954","-77.098029","true","false","1380292740000","","false","true",25,24,"1403270641027",2014-06-20 09:24:01,49,0.510204081632653,0.489795918367347
"258","266","Frederick Ave & Horners Ln","32009","1403276228443","39.094772","-77.145213","true","false","1380292740000","","false","true",25,25,"1403264144179",2014-06-20 07:35:44,50,0.5,0.5
"259","267","Philadelphia & Maple Ave","32010","1403276423609","38.98128","-77.011336","true","false","1380292740000","","false","true",27,27,"1403268406608",2014-06-20 08:46:46,54,0.5,0.5
"260","268","Maple & Ritchie Ave","32011","1403276413329","38.983627","-77.006311","true","false","1380292800000","","false","true",3,29,"1403267043736",2014-06-20 08:24:03,32,0.09375,0.90625
"261","269","Silver Spring Metro/Colesville Rd & Wayne Ave","32012","1403276209177","38.99521","-77.02918","true","false","1380292800000","","false","true",3,29,"1403268093587",2014-06-20 08:41:33,32,0.09375,0.90625
"262","270","Montgomery & East Ln","32013","1403276339846","38.983525","-77.095367","true","false","1380292800000","","false","true",28,13,"1403265702819",2014-06-20 08:01:42,41,0.682926829268293,0.317073170731707
"263","271","Friendship Hts Metro/Wisconsin Ave & Wisconsin Cir","32014","1403276234404","38.961763","-77.085998","true","false","1380292860000","","false","true",11,2,"1403272640433",2014-06-20 09:57:20,13,0.846153846153846,0.153846153846154
"264","272","14th & Belmont St NW","31119","1403276309336","38.921074","-77.031887","true","false","1380719160000","","false","true",1,7,"1403272904787",2014-06-20 10:01:44,8,0.125,0.875
"265","273","3rd & Tingey St SE","31634","1403276301170","38.87501","-77.0024","true","false","1380722700000","","false","true",28,3,"1403272358248",2014-06-20 09:52:38,31,0.903225806451613,0.0967741935483871
"266","274","10th & Florida Ave NW","31120","1403276225688","38.920387","-77.025672","true","false","1381320720000","","false","true",1,11,"1403268943741",2014-06-20 08:55:43,12,0.0833333333333333,0.916666666666667
"267","275","Potomac Ave & 8th St SE","31635","1403276237011","38.876737","-76.994468","true","false","1381333800000","","false","true",27,27,"1403274238214",2014-06-20 10:23:58,54,0.5,0.5
"268","276","Crabbs Branch Way & Redland Rd","32015","1403276377021","39.120045","-77.156985","true","false","1382100480000","","false","true",25,29,"1403237038669",2014-06-20 00:03:58,54,0.462962962962963,0.537037037037037
"269","277","Fallsgrove Dr & W Montgomery Ave","32016","1403276204156","39.099376","-77.188014","true","false","1382120580000","","false","true",27,27,"1403237017249",2014-06-20 00:03:37,54,0.5,0.5
"270","278","Monroe St & Monroe Pl","32017","1403276410706","39.083705","-77.149443","true","false","1383309240000","","false","true",24,3,"1403237025136",2014-06-20 00:03:45,27,0.888888888888889,0.111111111111111
"271","279","Needwood Rd & Eagles Head Ct","32018","1403276349320","39.123513","-77.15741","true","false","1382107020000","","false","true",25,29,"1403237021639",2014-06-20 00:03:41,54,0.462962962962963,0.537037037037037
"272","280","East West Hwy & Blair Mill Rd","32019","1403276285744","38.990249","-77.02935","true","false","1383148920000","","false","true",24,3,"1403271029915",2014-06-20 09:30:29,27,0.888888888888889,0.111111111111111
"273","281","Crabbs Branch Way & Calhoun Pl","32020","1403276216368","39.107709","-77.152072","true","false","1382111460000","","false","true",4,24,"1403268188298",2014-06-20 08:43:08,28,0.142857142857143,0.857142857142857
"274","282","47th & Elm St","32021","1403276408905","38.982456","-77.091991","true","false","1382208540000","","false","true",23,4,"1403268354354",2014-06-20 08:45:54,27,0.851851851851852,0.148148148148148
"275","283","Garland Ave & Walden Rd","32022","1403276258035","39.000578","-77.00149","true","false","1383059580000","","false","true",25,29,"1403237015281",2014-06-20 00:03:35,54,0.462962962962963,0.537037037037037
"276","284","Montgomery College/W Campus Dr & Mannakee St","32023","1403276408873","39.095661","-77.159048","true","false","1382199120000","","false","true",24,9,"1403237019184",2014-06-20 00:03:39,33,0.727272727272727,0.272727272727273
"277","285","Fenton St & Gist Ave","32024","1403276221144","38.989724","-77.023854","true","false","1383054960000","","false","true",23,27,"1403270151209",2014-06-20 09:15:51,50,0.46,0.54
"278","286","Carroll & Westmoreland Ave","32025","1403276402380","38.975","-77.01121","true","false","1383065460000","","false","true",28,26,"1403271620107",2014-06-20 09:40:20,54,0.518518518518518,0.481481481481481
"279","287","Carroll & Ethan Allen Ave","32026","1403276311584","38.977933","-77.006472","true","false","1383070440000","","false","true",24,3,"1403275345205",2014-06-20 10:42:25,27,0.888888888888889,0.111111111111111
"280","288","Battery Ln & Trolley Trail","32027","1403276287235","38.992375","-77.100104","true","false","1382712300000","","false","true",26,28,"1403270119971",2014-06-20 09:15:19,54,0.481481481481481,0.518518518518518
"281","289","Norfolk & Rugby Ave","32028","1403276208350","38.990639","-77.100239","true","false","1382715180000","","false","true",20,28,"1403272555688",2014-06-20 09:55:55,48,0.416666666666667,0.583333333333333
"282","290","Offutt Ln & Chevy Chase Dr","32029","1403276338129","38.977093","-77.094589","true","false","1382722080000","","false","true",23,27,"1403272035939",2014-06-20 09:47:15,50,0.46,0.54
"283","291","Broschart & Blackwell Rd","32030","1403276199690","39.102099","-77.200322","true","false","1382798640000","","false","true",25,29,"1403237024185",2014-06-20 00:03:44,54,0.462962962962963,0.537037037037037
"284","292","Taft St & E Gude Dr","32031","1403276214129","39.094103","-77.132954","true","false","1382804520000","","false","true",25,29,"1403237017109",2014-06-20 00:03:37,54,0.462962962962963,0.537037037037037
"285","293","Fleet St & Ritchie Pkwy","32032","1403276403611","39.076331","-77.141378","true","false","1382809500000","","false","true",3,25,"1403238463048",2014-06-20 00:27:43,28,0.107142857142857,0.892857142857143
"286","294","Piccard & W Gude Dr","32033","1403276203475","39.102212","-77.177091","true","false","1382795700000","","false","true",4,28,"1403264423608",2014-06-20 07:40:23,32,0.125,0.875
"287","295","Ripley & Bonifant St","32034","1403276198886","38.992679","-77.029457","true","false","1383141360000","","false","true",3,25,"1403269410527",2014-06-20 09:03:30,28,0.107142857142857,0.892857142857143
"288","296","Georgia Ave & Spring St","32035","1403276324173","38.999388","-77.031555","true","false","1383146520000","","false","true",25,25,"1403237044031",2014-06-20 00:04:04,50,0.5,0.5
"289","297","Fenton St & Ellsworth Dr ","32036","1403276427163","38.997033","-77.025608","true","false","1383135960000","","false","true",3,25,"1403276184941",2014-06-20 10:56:24,28,0.107142857142857,0.892857142857143
"290","298","King Farm Blvd & Pleasant Dr","32037","1403276206713","39.114688","-77.171487","true","false","1383323580000","","false","true",5,26,"1403268804318",2014-06-20 08:53:24,31,0.161290322580645,0.838709677419355
"291","299","King Farm Blvd & Piccard Dr","32038","1403276425721","39.110314","-77.182669","true","false","1383318120000","","false","true",20,5,"1403262328791",2014-06-20 07:05:28,25,0.8,0.2
"292","301","Calvert St & Woodley Pl NW","31121","1403276363733","38.923583","-77.050046","true","false","1383657120000","","false","true",1,12,"1403274914102",2014-06-20 10:35:14,13,0.0769230769230769,0.923076923076923
"293","302","New Jersey Ave & N St NW/Dunbar HS","31636","1403276264338","38.90706","-77.015231","true","false","1383662880000","","false","true",1,11,"1403272353539",2014-06-20 09:52:33,12,0.0833333333333333,0.916666666666667
"294","303","Nannie Helen Burroughs Ave & 49th St NE","31710","1403276218054","38.898536","-76.931862","true","false","1383923280000","","false","true",23,27,"1403237023715",2014-06-20 00:03:43,50,0.46,0.54
"295","304","Deanwood Rec Center","31711","1403276333289","38.908473","-76.933099","true","false","1383923280000","","false","true",24,3,"1403237018686",2014-06-20 00:03:38,27,0.888888888888889,0.111111111111111
"296","305","Hains Point/Buckeye & Ohio Dr SW","31273","1403276318584","38.878433","-77.03023","true","false","1383929160000","","false","true",25,4,"1403269928007",2014-06-20 09:12:08,29,0.862068965517241,0.137931034482759
"297","306","Arlington Blvd & Fillmore St","31070","1403276271483","38.873755","-77.089233","true","false","1384527780000","","false","true",20,28,"1403260692462",2014-06-20 06:38:12,48,0.416666666666667,0.583333333333333
"298","307","Long Bridge Park/Long Bridge Dr & 6th St S","31071","1403276220481","38.86646","-77.04826","true","false","1384520760000","","false","true",27,27,"1403237020364",2014-06-20 00:03:40,54,0.5,0.5
"299","308","Old Georgetown Rd & Southwick St","32039","1403276397155","38.999634","-77.109647","true","false","1384367940000","","false","true",26,5,"1403268280558",2014-06-20 08:44:40,31,0.838709677419355,0.161290322580645
"300","309","Friendship Blvd & Willard Ave","32040","1403276198470","38.96115","-77.088659","true","false","1384355760000","","false","true",5,27,"1403271898630",2014-06-20 09:44:58,32,0.15625,0.84375
"301","310","North Capitol St & G Pl NE","31637","1403276193612","38.899703","-77.008911","true","false","1386954360000","","false","true",8,20,"1403274743679",2014-06-20 10:32:23,28,0.285714285714286,0.714285714285714
"302","311","31st & Woodrow St S","31072","1403276239349","38.837666","-77.09482","true","false","1387298640000","","false","true",2,3,"1403270198884",2014-06-20 09:16:38,5,0.4,0.6
"303","312","Washington Blvd & Walter Reed Dr ","31073","1403276247521","38.873219","-77.082104","true","false","1387287180000","","false","true",26,25,"1403271600463",2014-06-20 09:40:00,51,0.509803921568627,0.490196078431373
"304","313","Thomas Jefferson Cmty Ctr / 2nd St S & Ivy","31074","1403276204042","38.869675","-77.093586","true","false","1386774900000","","false","true",24,26,"1403268430049",2014-06-20 08:47:10,50,0.48,0.52
"305","314","Connecticut Ave & Tilden St NW","31313","1403276218728","38.941154","-77.062036","true","false","1386954480000","","false","true",2,7,"1403274276810",2014-06-20 10:24:36,9,0.222222222222222,0.777777777777778
"306","315","Medical Center Dr & Key West Ave","32041","1403276218799","39.103091","-77.196442","true","false","1389273960000","","false","true",27,27,"1403237018198",2014-06-20 00:03:38,54,0.5,0.5
"307","316","Shady Grove Hospital","32042","1403276227665","39.097636","-77.196636","true","false","1389287040000","","false","true",28,3,"1403237038956",2014-06-20 00:03:58,31,0.903225806451613,0.0967741935483871
"308","317","Veterans Pl & Pershing Dr ","32043","1403276393542","38.997445","-77.023894","true","false","1391876460000","","false","true",20,28,"1403237044497",2014-06-20 00:04:04,48,0.416666666666667,0.583333333333333
"309","318","Rockville Metro East","32044","1403276186867","39.085394","-77.145803","true","false","1393000800000","","false","true",24,28,"1403267064468",2014-06-20 08:24:24,52,0.461538461538462,0.538461538461538
"310","319","1st & H St NW","31638","1403276281239","38.900358","-77.012108","true","false","1392727500000","","false","true",7,2,"1403275555658",2014-06-20 10:45:55,9,0.777777777777778,0.222222222222222
"311","320","Fort Totten Metro","31515","1403276403107","38.952369","-77.002721","true","false","1392825840000","","false","true",24,7,"1403273634995",2014-06-20 10:13:54,31,0.774193548387097,0.225806451612903
"312","321","Takoma Metro","31408","1403276206693","38.975219","-77.016855","true","false","1392833400000","","false","true",3,29,"1403273297975",2014-06-20 10:08:17,32,0.09375,0.90625
"313","322","Rhode Island Ave Metro","31516","1403276332919","38.920682","-76.995876","true","false","1393259520000","","false","true",12,10,"1403273827705",2014-06-20 10:17:07,22,0.545454545454545,0.454545454545455
"314","323","Rolfe St & 9th St S","31075","1403276200440","38.866471","-77.076131","true","false","1394630640000","","false","true",25,24,"1403271181703",2014-06-20 09:33:01,49,0.510204081632653,0.489795918367347
"315","324","Shirlington Transit Center / S Quincy & Randolph St","31076","1403276193383","38.839912","-77.087083","true","false","1394637480000","","false","true",4,24,"1403237037348",2014-06-20 00:03:57,28,0.142857142857143,0.857142857142857
"316","325","Shady Grove Metro West","32045","1403276392337","39.119765","-77.166093","true","false","1397837820000","","false","true",27,4,"1403268553857",2014-06-20 08:49:13,31,0.870967741935484,0.129032258064516
"317","326","River Rd & Landy Ln","32046","1403276327553","38.964992","-77.103381","true","false","1396972380000","","false","true",4,28,"1403272390706",2014-06-20 09:53:10,32,0.125,0.875
"318","327","Rockville Metro West","32047","1403276386504","39.084379","-77.146866","true","false","1397847900000","","false","true",24,7,"1403238192690",2014-06-20 00:23:12,31,0.774193548387097,0.225806451612903
"319","328","Bethesda Metro","32048","1403276286565","38.984691","-77.094537","true","false","1398786060000","","false","true",24,27,"1403272818218",2014-06-20 10:00:18,51,0.470588235294118,0.529411764705882
"320","329","Iwo Jima Memorial/N Meade & 14th St N","31077","1403276240580","38.88992","-77.071301","true","false","1402585680000","","false","true",24,7,"1403270999860",2014-06-20 09:29:59,31,0.774193548387097,0.225806451612903
