"","id","name","terminalName","lastCommWithServer","lat","long","installed","locked","installDate","removalDate","temporary","public","nbBikes","nbEmptyDocks","latestUpdateTime","date","total","percentBikes","percentDocks"
"1","1","20th & Bell St","31000","1404081069214","38.8561","-77.0512","true","false","1316059200000","","false","true",19,25,"1404073322493",2014-06-29 16:22:02,44,0.431818181818182,0.568181818181818
"2","2","18th & Eads St.","31001","1404081002935","38.85725","-77.05332","true","false","1284989400000","","false","true",16,28,"1404074418191",2014-06-29 16:40:18,44,0.363636363636364,0.636363636363636
"3","3","20th & Crystal Dr","31002","1404080895612","38.8564","-77.0492","true","false","1284464580000","","false","true",21,27,"1404076272037",2014-06-29 17:11:12,48,0.4375,0.5625
"4","4","15th & Crystal Dr","31003","1404081036453","38.86017","-77.049593","true","false","1284464880000","","false","true",19,25,"1404079967614",2014-06-29 18:12:47,44,0.431818181818182,0.568181818181818
"5","5","Aurora Hills Community Ctr/18th & Hayes St","31004","1404081052298","38.857866","-77.05949","true","false","1284464880000","","false","true",18,26,"1404078424923",2014-06-29 17:47:04,44,0.409090909090909,0.590909090909091
"6","6","12th & Hayes St /  Pentagon City Metro","31005","1404080920732","38.862303","-77.059936","true","false","1284464940000","","false","true",5,27,"1404079711908",2014-06-29 18:08:31,32,0.15625,0.84375
"7","7","S Joyce & Army Navy Dr","31006","1404081039117","38.8637","-77.0633","true","false","1284464940000","","false","true",17,27,"1404081037973",2014-06-29 18:30:37,44,0.386363636363636,0.613636363636364
"8","8","Crystal City Metro / 18th & Bell St","31007","1404081034298","38.8573","-77.0511","true","false","1284465000000","","false","true",4,28,"1404079585868",2014-06-29 18:06:25,32,0.125,0.875
"9","9","12th & Army Navy Dr","31008","1404081066593","38.8629","-77.0528","true","false","1284465000000","","false","true",21,19,"1404080824537",2014-06-29 18:27:04,40,0.525,0.475
"10","10","27th & Crystal Dr","31009","1404081007698","38.848441","-77.051516","true","false","1284465060000","","false","true",22,3,"1404075070011",2014-06-29 16:51:10,25,0.88,0.12
"11","11","S Glebe & Potomac Ave","31010","1404081048425","38.8426","-77.0502","true","false","1284465120000","","false","true",16,28,"1404080805418",2014-06-29 18:26:45,44,0.363636363636364,0.636363636363636
"12","12","23rd & Crystal Dr","31011","1404080928442","38.8533","-77.0498","true","false","1284465120000","","false","true",21,29,"1404074978060",2014-06-29 16:49:38,50,0.42,0.58
"13","13","26th & S Clark St","31012","1404080858365","38.850688","-77.05152","true","false","1284465300000","","false","true",16,28,"1404060824883",2014-06-29 12:53:44,44,0.363636363636364,0.636363636363636
"14","14","19th St & Pennsylvania Ave NW","31100","1404081021324","38.9003","-77.0429","true","false","1284465360000","","false","true",17,4,"1404076366419",2014-06-29 17:12:46,21,0.80952380952381,0.19047619047619
"15","15","14th & V St NW","31101","1404081011878","38.9176","-77.0321","true","false","1284465420000","","false","true",6,7,"1404081011518",2014-06-29 18:30:11,13,0.461538461538462,0.538461538461538
"16","16","11th & Kenyon St NW","31102","1404081085298","38.929464","-77.027822","true","false","1286539080000","","false","true",22,10,"1404080943679",2014-06-29 18:29:03,32,0.6875,0.3125
"17","17","16th & Harvard St NW","31103","1404080919139","38.926088","-77.036536","true","false","1284465480000","","false","true",22,16,"1404080918443",2014-06-29 18:28:38,38,0.578947368421053,0.421052631578947
"18","18","Adams Mill & Columbia Rd NW","31104","1404081084475","38.922925","-77.042581","true","false","1284465540000","","false","true",2,7,"1404081083270",2014-06-29 18:31:23,9,0.222222222222222,0.777777777777778
"19","19","14th & Harvard St NW","31105","1404081036453","38.9268","-77.0322","true","false","1284465540000","","false","true",19,6,"1404081035735",2014-06-29 18:30:35,25,0.76,0.24
"20","20","Calvert & Biltmore St NW","31106","1404081068735","38.923203","-77.047637","true","false","1284465600000","","false","true",22,7,"1404079861190",2014-06-29 18:11:01,29,0.758620689655172,0.241379310344828
"21","21","Lamont & Mt Pleasant NW","31107","1404080884935","38.9319","-77.0388","true","false","1284465600000","","false","true",1,12,"1404080643097",2014-06-29 18:24:03,13,0.0769230769230769,0.923076923076923
"22","22","4th & M St SW","31108","1404081076175","38.8767","-77.0178","true","false","1284465660000","","false","true",21,8,"1404081074291",2014-06-29 18:31:14,29,0.724137931034483,0.275862068965517
"23","23","15th & P St NW","31201","1404081061080","38.90985","-77.034438","true","false","1284465660000","","false","true",4,27,"1404080818736",2014-06-29 18:26:58,31,0.129032258064516,0.870967741935484
"24","24","14th & R St NW","31202","1404081081119","38.912682","-77.031681","true","false","1284465720000","","false","true",6,2,"1404081079790",2014-06-29 18:31:19,8,0.75,0.25
"25","25","14th & Rhode Island Ave NW","31203","1404081063199","38.9086","-77.0323","true","false","1284465780000","","false","true",21,8,"1404081061888",2014-06-29 18:31:01,29,0.724137931034483,0.275862068965517
"26","26","20th & E St NW","31204","1404080950145","38.8963","-77.045","true","false","1284465840000","","false","true",22,26,"1404079067862",2014-06-29 17:57:47,48,0.458333333333333,0.541666666666667
"27","27","21st & I St NW","31205","1404080990828","38.9008","-77.047","true","false","1283861040000","","false","true",6,15,"1404080990217",2014-06-29 18:29:50,21,0.285714285714286,0.714285714285714
"28","28","Georgia & New Hampshire Ave NW","31400","1404081070166","38.936043","-77.024649","true","false","1284465900000","","false","true",12,6,"1404081069316",2014-06-29 18:31:09,18,0.666666666666667,0.333333333333333
"29","29","14th St & Spring Rd NW","31401","1404080938758","38.9375","-77.0328","true","false","1284465960000","","false","true",12,29,"1404080400802",2014-06-29 18:20:00,41,0.292682926829268,0.707317073170732
"30","30","John McCormack Dr & Michigan Ave NE","31502","1404080989495","38.9346","-76.9955","true","false","1284465960000","","false","true",21,19,"1404074010557",2014-06-29 16:33:30,40,0.525,0.475
"31","31","5th & K St NW","31600","1404081012466","38.90304","-77.019027","true","false","1284466020000","","false","true",22,29,"1404080528443",2014-06-29 18:22:08,51,0.431372549019608,0.568627450980392
"32","32","19th & East Capitol St SE","31601","1404080912278","38.8896","-76.9769","true","false","1284466020000","","false","true",2,7,"1404080187771",2014-06-29 18:16:27,9,0.222222222222222,0.777777777777778
"33","33","Park Rd & Holmead Pl NW","31602","1404080976605","38.9308","-77.0315","true","false","1284466080000","","false","true",1,12,"1404080975936",2014-06-29 18:29:35,13,0.0769230769230769,0.923076923076923
"34","34","Good Hope & Naylor Rd SE","31700","1404080890366","38.8601","-76.9672","true","false","1284466140000","","false","true",19,25,"1403977894709",2014-06-28 13:51:34,44,0.431818181818182,0.568181818181818
"35","35","Connecticut Ave & Newark St NW / Cleveland Park","31305","1404080900908","38.934267","-77.057979","true","false","1289241840000","","false","true",17,27,"1404079210749",2014-06-29 18:00:10,44,0.386363636363636,0.613636363636364
"36","36","Randle Circle & Minnesota Ave SE","31702","1404080898931","38.878","-76.9607","true","false","1284466200000","","false","true",18,26,"1403930184152",2014-06-28 00:36:24,44,0.409090909090909,0.590909090909091
"37","37","Minnesota Ave Metro/DOES","31703","1404080850677","38.897063","-76.947446","true","false","1284466200000","","false","true",16,28,"1404069053788",2014-06-29 15:10:53,44,0.363636363636364,0.636363636363636
"38","38","Nannie Helen Burroughs & Minnesota Ave NE","31704","1404080897293","38.901385","-76.941877","true","false","1386766320000","1298396940000","false","true",22,13,"1404080896626",2014-06-29 18:28:16,35,0.628571428571429,0.371428571428571
"39","39","Anacostia Metro","31801","1404080867891","38.862669","-76.994637","true","false","1284466260000","","false","true",17,27,"1404078500879",2014-06-29 17:48:20,44,0.386363636363636,0.613636363636364
"40","40","Good Hope Rd & MLK Ave SE","31802","1404080938480","38.867373","-76.988039","true","false","1305288720000","","false","true",20,24,"1404078701618",2014-06-29 17:51:41,44,0.454545454545455,0.545454545454545
"41","41","19th & E Street NW","31206","1404080962773","38.8952","-77.0436","true","false","1284545040000","","false","true",16,28,"1404076002742",2014-06-29 17:06:42,44,0.363636363636364,0.636363636363636
"42","42","4th St & Rhode Island Ave NE","31500","1404080958258","38.919488","-77.000624","true","false","1289970000000","","false","true",20,24,"1404074296097",2014-06-29 16:38:16,44,0.454545454545455,0.545454545454545
"43","43","10th & U St NW","31111","1404080967185","38.9172","-77.0259","true","false","1285822380000","","false","true",19,29,"1404079740499",2014-06-29 18:09:00,48,0.395833333333333,0.604166666666667
"44","44","Georgia Ave and Fairmont St NW","31207","1404080851938","38.9249","-77.0222","true","false","1285041600000","","false","true",17,27,"1404079438995",2014-06-29 18:03:58,44,0.386363636363636,0.613636363636364
"45","45","1st & N St  SE","31209","1404081033900","38.8743","-77.0057","true","false","1285041600000","","false","true",20,21,"1404079774470",2014-06-29 18:09:34,41,0.48780487804878,0.51219512195122
"46","46","20th St & Florida Ave NW","31110","1404080948895","38.9154","-77.0446","true","false","1285217520000","","false","true",22,26,"1404080732084",2014-06-29 18:25:32,48,0.458333333333333,0.541666666666667
"47","47","7th & T St NW","31109","1404080854916","38.9155","-77.0222","true","false","1285735680000","","false","true",4,19,"1404080611489",2014-06-29 18:23:31,23,0.173913043478261,0.826086956521739
"48","48","23rd & Eads St","31013","1404081047134","38.853613","-77.053535","true","false","1287562620000","","false","true",16,28,"1404080562528",2014-06-29 18:22:42,44,0.363636363636364,0.636363636363636
"49","49","M St & New Jersey Ave SE","31208","1404080866055","38.8763","-77.0037","true","false","1285041600000","","false","true",22,27,"1404079899163",2014-06-29 18:11:39,49,0.448979591836735,0.551020408163265
"50","51","Massachusetts Ave & Dupont Circle NW","31200","1404080966100","38.9101","-77.0444","true","false","1284523200000","","false","true",22,23,"1404080405847",2014-06-29 18:20:05,45,0.488888888888889,0.511111111111111
"51","52","1st & M St NE","31603","1404081038379","38.9057","-77.0056","true","false","1287115200000","","false","true",17,3,"1404080554097",2014-06-29 18:22:34,20,0.85,0.15
"52","53","21st & M St NW","31212","1404080911541","38.90534","-77.046774","true","false","1285041600000","","false","true",8,24,"1404080790015",2014-06-29 18:26:30,32,0.25,0.75
"53","54","17th & K St NW","31213","1404080930731","38.90276","-77.03863","true","false","1306236960000","","false","true",19,6,"1404080929958",2014-06-29 18:28:49,25,0.76,0.24
"54","55","3rd & H St NW","31604","1404080986696","38.899408","-77.015289","true","false","1287028800000","","false","true",12,6,"1404080424758",2014-06-29 18:20:24,18,0.666666666666667,0.333333333333333
"55","56","3rd & D St SE","31605","1404081080820","38.8851","-77.0023","true","false","1287201600000","","false","true",1,4,"1404080597223",2014-06-29 18:23:17,5,0.2,0.8
"56","57","Potomac & Pennsylvania Ave SE","31606","1404080911549","38.8803","-76.9862","true","false","1287460800000","","false","true",21,26,"1404080454088",2014-06-29 18:20:54,47,0.446808510638298,0.553191489361702
"57","58","14th & D St SE","31607","1404080995971","38.884","-76.9861","true","false","1287374400000","","false","true",22,26,"1404080753782",2014-06-29 18:25:53,48,0.458333333333333,0.541666666666667
"58","59","17th & Corcoran St NW","31214","1404080978324","38.9121","-77.0387","true","false","1294078980000","","false","true",20,5,"1404080495218",2014-06-29 18:21:35,25,0.8,0.2
"59","60","Van Ness Metro / UDC","31300","1404080969547","38.944551","-77.063896","true","false","1289624400000","","false","true",2,7,"1404080969020",2014-06-29 18:29:29,9,0.222222222222222,0.777777777777778
"60","61","Florida Ave & R St NW","31503","1404081058197","38.9126","-77.0135","true","false","1290056400000","","false","true",12,6,"1404080816382",2014-06-29 18:26:56,18,0.666666666666667,0.333333333333333
"61","62","8th & Eye St SE / Barracks Row","31608","1404080946619","38.8792","-76.9953","true","false","1287374400000","","false","true",17,26,"1404080704648",2014-06-29 18:25:04,43,0.395348837209302,0.604651162790698
"62","63","Ward Circle / American University","31301","1404081010341","38.938736","-77.087171","true","false","1289538000000","","false","true",5,19,"1404079802242",2014-06-29 18:10:02,24,0.208333333333333,0.791666666666667
"63","64","Idaho Ave & Newark St NW [on 2nd District patio]","31302","1404081035629","38.934751","-77.074647","true","false","1289970000000","","false","true",5,19,"1404080069404",2014-06-29 18:14:29,24,0.208333333333333,0.791666666666667
"64","65","14th St Heights / 14th & Crittenden St NW","31402","1404080915040","38.947774","-77.032818","true","false","1289970000000","","false","true",18,26,"1404078772732",2014-06-29 17:52:52,44,0.409090909090909,0.590909090909091
"65","66","Anacostia Library","31804","1404080973431","38.865784","-76.9784","true","false","1288584000000","","false","true",19,25,"1403977830846",2014-06-28 13:50:30,44,0.431818181818182,0.568181818181818
"66","67","Pennsylvania & Minnesota Ave SE","31805","1404080927812","38.873057","-76.971015","true","false","1288584000000","","false","true",21,19,"1404077984057",2014-06-29 17:39:44,40,0.525,0.475
"67","68","Eastern Market / 7th & North Carolina Ave SE","31610","1404081000100","38.886952","-76.996806","true","false","1282363200000","","false","true",16,5,"1404080757369",2014-06-29 18:25:57,21,0.761904761904762,0.238095238095238
"68","69","McPherson Square / 14th & H St NW","31216","1404080971646","38.899641","-77.032005","true","false","1284436800000","","false","true",6,26,"1404079764066",2014-06-29 18:09:24,32,0.1875,0.8125
"69","70","Benning Branch Library","31705","1404081024788","38.894","-76.947974","true","false","1288584000000","","false","true",12,28,"1404080032827",2014-06-29 18:13:52,40,0.3,0.7
"70","71","USDA / 12th & Independence Ave SW","31217","1404081051182","38.887237","-77.028226","true","false","1286297580000","","false","true",14,9,"1404081050992",2014-06-29 18:30:50,23,0.608695652173913,0.391304347826087
"71","72","Georgetown Harbor / 30th St NW","31215","1404081060419","38.9022212","-77.059219","true","false","1286300580000","","false","true",21,4,"1404081047899",2014-06-29 18:30:47,25,0.84,0.16
"72","73","12th & Newton St NE","31501","1404080857500","38.933668","-76.991016","true","false","1286306220000","","false","true",18,26,"1404077972494",2014-06-29 17:39:32,44,0.409090909090909,0.590909090909091
"73","74","US Dept of State / Virginia Ave & 21st St NW","31220","1404081070484","38.894919","-77.046587","true","false","1286661900000","","false","true",5,19,"1404080870296",2014-06-29 18:27:50,24,0.208333333333333,0.791666666666667
"74","75","L'Enfant Plaza / 7th & C St SW","31218","1404081070184","38.886266","-77.022241","true","false","1286410980000","","false","true",2,7,"1404080344982",2014-06-29 18:19:04,9,0.222222222222222,0.777777777777778
"75","76","10th St & Constitution Ave NW","31219","1404081078317","38.893028","-77.026013","true","false","1286497620000","","false","true",16,18,"1404080837616",2014-06-29 18:27:17,34,0.470588235294118,0.529411764705882
"76","77","Kennedy Center","31211","1404080891915","38.895184","-77.054845","true","false","1286325060000","","false","true",20,13,"1404080783236",2014-06-29 18:26:23,33,0.606060606060606,0.393939393939394
"77","78","Eastern Market Metro / Pennsylvania Ave & 7th St SE","31613","1404080993496","38.884","-76.995397","true","false","1286411820000","","false","true",3,29,"1404080992583",2014-06-29 18:29:52,32,0.09375,0.90625
"78","79","18th & M St NW","31221","1404080874266","38.904742","-77.041606","true","false","1286458140000","","false","true",10,2,"1404080148925",2014-06-29 18:15:48,12,0.833333333333333,0.166666666666667
"79","80","Tenleytown / Wisconsin Ave & Albemarle St NW","31303","1404081027400","38.947607","-77.079382","true","false","1287150300000","","false","true",7,2,"1404080787314",2014-06-29 18:26:27,9,0.777777777777778,0.222222222222222
"80","81","13th & H St NE","31611","1404080859116","38.9003","-76.9882","true","false","1286547000000","","false","true",7,6,"1404080857895",2014-06-29 18:27:37,13,0.538461538461538,0.461538461538462
"81","82","5th & F St NW","31620","1404080929538","38.897222","-77.019347","true","false","1286492280000","","false","true",17,17,"1404080928362",2014-06-29 18:28:48,34,0.5,0.5
"82","83","New York Ave & 15th St NW","31222","1404080951387","38.8991","-77.0337","true","false","1286631960000","","false","true",6,2,"1404080708268",2014-06-29 18:25:08,8,0.75,0.25
"83","84","Convention Center / 7th & M St NW","31223","1404080992704","38.90572","-77.022264","true","false","1286631960000","","false","true",16,9,"1404080749628",2014-06-29 18:25:49,25,0.64,0.36
"84","85","Harvard St & Adams Mill Rd NW","31112","1404080863176","38.927872","-77.043358","true","false","1294164840000","","false","true",19,29,"1404079936376",2014-06-29 18:12:16,48,0.395833333333333,0.604166666666667
"85","86","19th & L St NW","31224","1404081017646","38.903407","-77.043648","true","false","1287182880000","","false","true",12,6,"1404080695692",2014-06-29 18:24:55,18,0.666666666666667,0.333333333333333
"86","87","C & O Canal & Wisconsin Ave NW","31225","1404081074639","38.90375","-77.06269","true","false","1287460800000","","false","true",5,4,"1404080832960",2014-06-29 18:27:12,9,0.555555555555556,0.444444444444444
"87","88","6th & Water St SW / SW Waterfront","31609","1404080946737","38.87675","-77.02127","true","false","1287720000000","","false","true",6,26,"1404079833917",2014-06-29 18:10:33,32,0.1875,0.8125
"88","89","D St & Maryland Ave NE","31612","1404080868239","38.894758","-76.997114","true","false","1330094460000","","false","true",22,7,"1404080867437",2014-06-29 18:27:47,29,0.758620689655172,0.241379310344828
"89","90","34th St & Wisconsin Ave NW","31226","1404080924462","38.916442","-77.0682","true","false","1287182760000","","false","true",21,19,"1404079262532",2014-06-29 18:01:02,40,0.525,0.475
"90","91","13th St & New York Ave NW","31227","1404080893729","38.900283","-77.029822","true","false","1287416880000","","false","true",17,12,"1404080651574",2014-06-29 18:24:11,29,0.586206896551724,0.413793103448276
"91","92","8th & H St NW","31228","1404081061072","38.8997","-77.023086","true","false","1287115200000","","false","true",11,7,"1404080818841",2014-06-29 18:26:58,18,0.611111111111111,0.388888888888889
"92","93","10th & Monroe St NE","31504","1404081014496","38.932514","-76.992889","true","false","1287096120000","","false","true",22,13,"1404066359341",2014-06-29 14:25:59,35,0.628571428571429,0.371428571428571
"93","94","Eckington Pl & Q St NE","31505","1404081088554","38.910972","-77.00495","true","false","1287096120000","","false","true",18,26,"1404080607305",2014-06-29 18:23:27,44,0.409090909090909,0.590909090909091
"94","95","6th & H St NE","31615","1404080942573","38.900384","-76.99831","true","false","1323696720000","","false","true",6,3,"1404079975760",2014-06-29 18:12:55,9,0.666666666666667,0.333333333333333
"95","96","3rd & H St NE","31616","1404081023346","38.900412","-77.001949","true","false","1287096060000","","false","true",20,5,"1404080781099",2014-06-29 18:26:21,25,0.8,0.2
"96","97","Bladensburg Rd & Benning Rd NE","31617","1404081011554","38.900413","-76.982872","true","false","1288200360000","","false","true",18,29,"1404079656752",2014-06-29 18:07:36,47,0.382978723404255,0.617021276595745
"97","98","4th & East Capitol St NE","31618","1404081055603","38.889955","-77.000349","true","false","1287028800000","","false","true",12,29,"1404080571211",2014-06-29 18:22:51,41,0.292682926829268,0.707317073170732
"98","99","Lincoln Park / 13th & East Capitol St NE ","31619","1404081087163","38.890461","-76.988355","true","false","1288038900000","","false","true",5,6,"1404080941589",2014-06-29 18:29:01,11,0.454545454545455,0.545454545454545
"99","100","Branch & Pennsylvania Ave SE","31701","1404080976906","38.8692","-76.9599","true","false","1309008600000","","false","true",20,24,"1404045968491",2014-06-29 08:46:08,44,0.454545454545455,0.545454545454545
"100","101","13th & D St NE","31622","1404080998875","38.894832","-76.987633","true","false","1288114080000","","false","true",13,29,"1404080273194",2014-06-29 18:17:53,42,0.30952380952381,0.69047619047619
"101","102","New Hampshire Ave & T St NW","31229","1404081085804","38.91554","-77.03818","true","false","1287178020000","","false","true",4,5,"1404081084681",2014-06-29 18:31:24,9,0.444444444444444,0.555555555555556
"102","103","Metro Center / 12th & G St NW","31230","1404081048925","38.898364","-77.027869","true","false","1305259200000","","false","true",2,20,"1404080082084",2014-06-29 18:14:42,22,0.0909090909090909,0.909090909090909
"103","104","14th & D St NW / Ronald Reagan Building","31231","1404081026464","38.894514","-77.031617","true","false","1303306260000","","false","true",1,16,"1404080542174",2014-06-29 18:22:22,17,0.0588235294117647,0.941176470588235
"104","105","7th & F St NW / National Portrait Gallery","31232","1404080916355","38.897324","-77.022322","true","false","1304108940000","","false","true",19,6,"1404080674267",2014-06-29 18:24:34,25,0.76,0.24
"105","106","17th & K St NW / Farragut Square","31233","1404081064373","38.902061","-77.038322","true","false","1304022480000","","false","true",11,27,"1404081062728",2014-06-29 18:31:02,38,0.289473684210526,0.710526315789474
"106","107","20th & O St NW / Dupont South","31234","1404080885528","38.908905","-77.04478","true","false","1328850000000","","false","true",5,26,"1404080884076",2014-06-29 18:28:04,31,0.161290322580645,0.838709677419355
"107","108","4th & D St NW / Judiciary Square","31621","1404080951133","38.895344","-77.016106","true","false","1304481600000","","false","true",3,25,"1404080949518",2014-06-29 18:29:09,28,0.107142857142857,0.892857142857143
"108","109","19th St & Constitution Ave NW","31235","1404081084328","38.8923","-77.0436","true","false","1287607080000","","false","true",3,16,"1404079821800",2014-06-29 18:10:21,19,0.157894736842105,0.842105263157895
"109","110","37th & O St NW / Georgetown University","31236","1404081007855","38.90774","-77.071652","true","false","1288037580000","","false","true",4,5,"1404081006179",2014-06-29 18:30:06,9,0.444444444444444,0.555555555555556
"110","111","11th & H St NE","31614","1404081022312","38.899983","-76.991383","true","false","1323666000000","","false","true",16,6,"1404079331093",2014-06-29 18:02:11,22,0.727272727272727,0.272727272727273
"111","112","25th St & Pennsylvania Ave NW","31237","1404080981117","38.903827","-77.053485","true","false","1288551000000","","false","true",4,24,"1404080980112",2014-06-29 18:29:40,28,0.142857142857143,0.857142857142857
"112","113","Columbus Circle / Union Station","31623","1404081025683","38.89696","-77.00493","true","false","1285905600000","","false","true",15,4,"1404081025189",2014-06-29 18:30:25,19,0.789473684210526,0.210526315789474
"113","114","North Capitol St & F St NW","31624","1404081086817","38.897446","-77.009888","true","false","1288122720000","","false","true",19,10,"1404081086036",2014-06-29 18:31:26,29,0.655172413793103,0.344827586206897
"114","115","11th & M St NW","31266","1404081058178","38.905607","-77.027137","true","false","1364995680000","","false","true",17,8,"1404081056132",2014-06-29 18:30:56,25,0.68,0.32
"115","116","36th & Calvert St NW / Glover Park","31304","1404080990768","38.922581","-77.070334","true","false","1289236620000","","false","true",3,25,"1404079434876",2014-06-29 18:03:54,28,0.107142857142857,0.892857142857143
"116","117","14th & G St NW","31238","1404081034083","38.898069","-77.031823","true","false","1289237340000","","false","true",18,10,"1404079453859",2014-06-29 18:04:13,28,0.642857142857143,0.357142857142857
"117","118","Potomac Ave & 35th St S","31052","1404080878665","38.844015","-77.050537","true","false","1351092960000","","false","true",20,9,"1404078946082",2014-06-29 17:55:46,29,0.689655172413793,0.310344827586207
"118","124","Ohio Dr & West Basin Dr SW / MLK & FDR Memorials","31240","1404081082014","38.88412","-77.04657","true","false","1331904960000","","false","true",7,27,"1404081074808",2014-06-29 18:31:14,34,0.205882352941176,0.794117647058823
"119","125","11th & F St NW","31262","1404080994908","38.897857","-77.026975","true","false","1359981840000","","false","true",3,25,"1404080679986",2014-06-29 18:24:39,28,0.107142857142857,0.892857142857143
"120","126","23rd & E St NW ","31260","1404081087631","38.896104","-77.049882","true","false","1359652440000","","false","true",18,6,"1404080768748",2014-06-29 18:26:08,24,0.75,0.25
"121","127","Lynn & 19th St North","31014","1404081029312","38.897315","-77.070993","true","false","1302957060000","","false","true",22,3,"1404081027995",2014-06-29 18:30:27,25,0.88,0.12
"122","128","Rosslyn Metro / Wilson Blvd & Ft Myer Dr","31015","1404081020013","38.8946","-77.072305","true","false","1302957120000","","false","true",4,19,"1404080780299",2014-06-29 18:26:20,23,0.173913043478261,0.826086956521739
"123","129","Clarendon Blvd & Pierce St","31016","1404081087001","38.893648","-77.076701","true","false","1302957960000","","false","true",19,25,"1404078679838",2014-06-29 17:51:19,44,0.431818181818182,0.568181818181818
"124","130","Court House Metro / Wilson Blvd & N Uhle St","31017","1404080868109","38.891696","-77.0846","true","false","1320933600000","","false","true",20,28,"1404079614785",2014-06-29 18:06:54,48,0.416666666666667,0.583333333333333
"125","131","N Rhodes & 16th St N","31018","1404080992989","38.892164","-77.079375","true","false","1302963480000","","false","true",17,27,"1404080750847",2014-06-29 18:25:50,44,0.386363636363636,0.613636363636364
"126","132","Fairfax Village","31706","1404080873893","38.86559","-76.952103","true","false","1311771600000","","false","true",21,27,"1403957523001",2014-06-28 08:12:03,48,0.4375,0.5625
"127","133","21st St & Constitution Ave NW","31261","1404080902305","38.892459","-77.046567","true","false","1359639120000","","false","true",16,5,"1404080901368",2014-06-29 18:28:21,21,0.761904761904762,0.238095238095238
"128","134","Wilson Blvd & N Edgewood St","31019","1404080887765","38.889","-77.0925","true","false","1321015980000","","false","true",18,3,"1404080887169",2014-06-29 18:28:07,21,0.857142857142857,0.142857142857143
"129","135","Columbia Rd & Belmont St NW","31113","1404080923708","38.920669","-77.04368","true","false","1321625100000","","false","true",12,10,"1404080922677",2014-06-29 18:28:42,22,0.545454545454545,0.454545454545455
"130","136","17th & Rhode Island Ave NW","31239","1404081075694","38.906602","-77.038785","true","false","1321639800000","","false","true",21,8,"1404080833340",2014-06-29 18:27:13,29,0.724137931034483,0.275862068965517
"131","137","Thomas Circle","31241","1404081075048","38.9059","-77.0325","true","false","1321714320000","","false","true",22,16,"1404080534614",2014-06-29 18:22:14,38,0.578947368421053,0.421052631578947
"132","138","Wilson Blvd & Franklin Rd","31020","1404080868936","38.8904","-77.0889","true","false","1322715600000","","false","true",18,26,"1404077071436",2014-06-29 17:24:31,44,0.409090909090909,0.590909090909091
"133","139","Clarendon Blvd & N Fillmore St","31021","1404081029426","38.8881","-77.09308","true","false","1321981080000","","false","true",16,5,"1404080265700",2014-06-29 18:17:45,21,0.761904761904762,0.238095238095238
"134","140","Clarendon Metro / Wilson Blvd & N Highland St","31022","1404081066691","38.88786","-77.094875","true","false","1321983480000","","false","true",18,5,"1404077306581",2014-06-29 17:28:26,23,0.782608695652174,0.217391304347826
"135","141","18th St & Pennsylvania Ave NW","31242","1404080963606","38.89968","-77.041539","true","false","1322571600000","","false","true",20,28,"1404080479755",2014-06-29 18:21:19,48,0.416666666666667,0.583333333333333
"136","142","Maryland & Independence Ave SW","31243","1404081080580","38.887299","-77.018939","true","false","1327669020000","","false","true",17,22,"1404080596178",2014-06-29 18:23:16,39,0.435897435897436,0.564102564102564
"137","143","4th & E St SW","31244","1404080857862","38.88412","-77.017445","true","false","1322756880000","","false","true",3,29,"1404080374477",2014-06-29 18:19:34,32,0.09375,0.90625
"138","144","3rd & G St SE","31625","1404080907634","38.881185","-77.001828","true","false","1322661660000","","false","true",20,4,"1404079267725",2014-06-29 18:01:07,24,0.833333333333333,0.166666666666667
"139","145","7th & R St NW / Shaw Library","31245","1404081079516","38.912719","-77.022155","true","false","1322583120000","","false","true",8,1,"1404080836267",2014-06-29 18:27:16,9,0.888888888888889,0.111111111111111
"140","146","9th & Upshur St NW","31404","1404080859020","38.9418","-77.0251","true","false","1323194880000","","false","true",17,4,"1404079168177",2014-06-29 17:59:28,21,0.80952380952381,0.19047619047619
"141","147","1st & Rhode Island Ave NW","31506","1404080998516","38.915417","-77.012289","true","false","1323178380000","","false","true",1,8,"1404080001239",2014-06-29 18:13:21,9,0.111111111111111,0.888888888888889
"142","148","Columbia Rd & Georgia Ave NW","31115","1404081003666","38.928156","-77.02344","true","false","1323234000000","","false","true",3,28,"1404080960326",2014-06-29 18:29:20,31,0.0967741935483871,0.903225806451613
"143","149","California St & Florida Ave NW","31116","1404080911049","38.917761","-77.04062","true","false","1323752400000","","false","true",21,3,"1404080909911",2014-06-29 18:28:29,24,0.875,0.125
"144","150","Benning Rd & East Capitol St NE / Benning Rd Metro","31707","1404080877611","38.889935","-76.93723","true","false","1324404360000","","false","true",8,24,"1403995306267",2014-06-28 18:41:46,32,0.25,0.75
"145","151","3000 Connecticut Ave NW / National Zoo","31307","1404080943628","38.930282","-77.055599","true","false","1324496640000","","false","true",2,7,"1404075982550",2014-06-29 17:06:22,9,0.222222222222222,0.777777777777778
"146","152","Anacostia Ave & Benning Rd NE / River Terrace ","31708","1404081064769","38.896544","-76.96012","true","false","1324402320000","","false","true",21,27,"1404069970750",2014-06-29 15:26:10,48,0.4375,0.5625
"147","153","M St & Pennsylvania Ave NW","31246","1404081047474","38.905126","-77.056887","true","false","1324485480000","","false","true",12,10,"1404081045862",2014-06-29 18:30:45,22,0.545454545454545,0.454545454545455
"148","154","15th St & Massachusetts Ave SE","31626","1404080852795","38.88732","-76.983569","true","false","1324565040000","","false","true",22,26,"1404079906535",2014-06-29 18:11:46,48,0.458333333333333,0.541666666666667
"149","155","Congress Heights Metro","31806","1404080945714","38.844711","-76.987823","true","false","1324581180000","","false","true",3,25,"1403930199465",2014-06-28 00:36:39,28,0.107142857142857,0.892857142857143
"150","156","N Quincy St & Glebe Rd","31035","1404081068825","38.876393","-77.107735","true","false","1335552600000","","false","true",17,27,"1404079710418",2014-06-29 18:08:30,44,0.386363636363636,0.613636363636364
"151","157","Wilson Blvd & N Oakland St","31033","1404080866232","38.8815","-77.10396","true","false","1335387720000","","false","true",19,25,"1404078302848",2014-06-29 17:45:02,44,0.431818181818182,0.568181818181818
"152","158","N Veitch  & 20th St N","31029","1404080968046","38.896923","-77.086502","true","false","1335213360000","","false","true",19,29,"1404080484334",2014-06-29 18:21:24,48,0.395833333333333,0.604166666666667
"153","159","11th & K St NW","31263","1404081058604","38.90268","-77.02674","true","false","1360936140000","","false","true",22,3,"1404081057300",2014-06-29 18:30:57,25,0.88,0.12
"154","160","Fairfax Dr & Wilson Blvd","31023","1404080914425","38.885801","-77.097745","true","false","1335545880000","","false","true",2,27,"1404076783543",2014-06-29 17:19:43,29,0.0689655172413793,0.931034482758621
"155","161","Key Blvd & N Quinn St","31027","1404080870814","38.896015","-77.078107","true","false","1335195480000","","false","true",19,25,"1404075777113",2014-06-29 17:02:57,44,0.431818181818182,0.568181818181818
"156","162","1st & K St SE","31628","1404080918755","38.87861","-77.006004","true","false","1328717220000","","false","true",20,28,"1404080918041",2014-06-29 18:28:38,48,0.416666666666667,0.583333333333333
"157","163","39th & Calvert St NW / Stoddert","31306","1404080976635","38.922649","-77.077271","true","false","1328898300000","","false","true",19,6,"1404080976011",2014-06-29 18:29:36,25,0.76,0.24
"158","164","1st & Washington Hospital Center NW","31507","1404080951992","38.928743","-77.012457","true","false","1329153540000","","false","true",4,24,"1404080468225",2014-06-29 18:21:08,28,0.142857142857143,0.857142857142857
"159","165","Virginia Square Metro / N Monroe St & 9th St N","31024","1404081026111","38.882788","-77.103148","true","false","1329508980000","","false","true",1,12,"1404080111964",2014-06-29 18:15:11,13,0.0769230769230769,0.923076923076923
"160","166","Central Library / N Quincy St & 10th St N","31025","1404081086452","38.88397","-77.10783","true","false","1329493920000","","false","true",12,29,"1404080127391",2014-06-29 18:15:27,41,0.292682926829268,0.707317073170732
"161","167","Washington Blvd & 10th St N","31026","1404080934259","38.884734","-77.093485","true","false","1329944340000","","false","true",16,5,"1404080933745",2014-06-29 18:28:53,21,0.761904761904762,0.238095238095238
"162","168","Jefferson Dr & 14th St SW","31247","1404081088183","38.888553","-77.032429","true","false","1331911860000","","false","true",17,12,"1404081087295",2014-06-29 18:31:27,29,0.586206896551724,0.413793103448276
"163","169","Smithsonian / Jefferson Dr & 12th St SW","31248","1404080913905","38.888767","-77.02858","true","false","1333369620000","","false","true",1,15,"1404080405397",2014-06-29 18:20:05,16,0.0625,0.9375
"164","170","George Mason Dr & Wilson Blvd","31036","1404081074122","38.87887","-77.1207","true","false","1335805380000","","false","true",18,3,"1404080589951",2014-06-29 18:23:09,21,0.857142857142857,0.142857142857143
"165","171","6th St & Indiana Ave NW","31264","1404081058938","38.894573","-77.01994","true","false","1364990040000","","false","true",4,28,"1404079851215",2014-06-29 18:10:51,32,0.125,0.875
"166","172","N Veitch & Key Blvd","31028","1404080854626","38.893241","-77.086045","true","false","1335202980000","","false","true",12,29,"1404074144731",2014-06-29 16:35:44,41,0.292682926829268,0.707317073170732
"167","173","N Adams St & Lee Hwy","31030","1404080879008","38.89593","-77.089006","true","false","1335369060000","","false","true",17,4,"1404077727219",2014-06-29 17:35:27,21,0.80952380952381,0.19047619047619
"168","174","15th & N Scott St","31031","1404080961587","38.89054","-77.08095","true","false","1335362100000","","false","true",16,28,"1404077272957",2014-06-29 17:27:52,44,0.363636363636364,0.636363636363636
"169","175","Washington Blvd & 7th St N","31032","1404080970671","38.880834","-77.091129","true","false","1335794400000","","false","true",2,3,"1404072166050",2014-06-29 16:02:46,5,0.4,0.6
"170","176","Ballston Metro / N Stuart & 9th St N","31037","1404080967472","38.881044","-77.111768","true","false","1335817440000","","false","true",17,8,"1404077951204",2014-06-29 17:39:11,25,0.68,0.32
"171","177","N Randolph St & Fairfax Dr","31034","1404081048132","38.882629","-77.109366","true","false","1335542580000","","false","true",17,27,"1404080323316",2014-06-29 18:18:43,44,0.386363636363636,0.613636363636364
"172","178","Jefferson Memorial","31249","1404081086727","38.879819","-77.037413","true","false","1335969180000","","false","true",11,25,"1404081086617",2014-06-29 18:31:26,36,0.305555555555556,0.694444444444444
"173","179","Good Hope Rd & 14th St SE","31803","1404080951679","38.866611","-76.985238","true","false","1335981060000","","false","true",4,24,"1404080226074",2014-06-29 18:17:06,28,0.142857142857143,0.857142857142857
"174","180","Glebe Rd & 11th St N","31038","1404080902982","38.883921","-77.116817","true","false","1337269200000","","false","true",22,13,"1404066049085",2014-06-29 14:20:49,35,0.628571428571429,0.371428571428571
"175","181","N Quincy St & Wilson Blvd","31039","1404081066349","38.880151","-77.107673","true","false","1338301620000","","false","true",12,28,"1404080170459",2014-06-29 18:16:10,40,0.3,0.7
"176","182","Fairfax Dr & Kenmore St","31040","1404080987023","38.884616","-77.10108","true","false","1366814880000","","false","true",17,27,"1404073631827",2014-06-29 16:27:11,44,0.386363636363636,0.613636363636364
"177","183","Gallaudet / 8th St & Florida Ave NE","31508","1404080913342","38.90509","-76.9941","true","false","1342033620000","","false","true",5,27,"1404080186388",2014-06-29 18:16:26,32,0.15625,0.84375
"178","185","20th & L St NW","31250","1404081079682","38.903584","-77.044789","true","false","1340632500000","","false","true",18,6,"1404081078700",2014-06-29 18:31:18,24,0.75,0.25
"179","186","12th & L St NW","31251","1404080970789","38.903819","-77.0284","true","false","1340639640000","","false","true",12,10,"1404080970123",2014-06-29 18:29:30,22,0.545454545454545,0.454545454545455
"180","187","21st St & Pennsylvania Ave NW","31252","1404080995725","38.901539","-77.046564","true","false","1340811180000","","false","true",16,9,"1404079546841",2014-06-29 18:05:46,25,0.64,0.36
"181","188","19th & K St NW","31253","1404080854307","38.902204","-77.04337","true","false","1340801880000","","false","true",2,15,"1404076085122",2014-06-29 17:08:05,17,0.117647058823529,0.882352941176471
"182","189","Prince St & Union St","31041","1404081051459","38.803124","-77.040363","true","false","1346070420000","","false","true",5,25,"1404080325508",2014-06-29 18:18:45,30,0.166666666666667,0.833333333333333
"183","190","Market Square / King St & Royal St","31042","1404080969559","38.804718","-77.043363","true","false","1346077680000","","false","true",18,3,"1404080244344",2014-06-29 18:17:24,21,0.857142857142857,0.142857142857143
"184","191","Saint Asaph St & Pendleton  St","31043","1404080899254","38.810743","-77.044664","true","false","1346084880000","","false","true",17,4,"1404079933331",2014-06-29 18:12:13,21,0.80952380952381,0.19047619047619
"185","192","King St & Patrick St","31044","1404080980131","38.805317","-77.049883","true","false","1346442900000","","false","true",20,28,"1404073170477",2014-06-29 16:19:30,48,0.416666666666667,0.583333333333333
"186","193","15th & K St NW","31254","1404081013071","38.902","-77.03353","true","false","1341232920000","","false","true",2,11,"1404081012101",2014-06-29 18:30:12,13,0.153846153846154,0.846153846153846
"187","194","Commerce St & Fayette St","31045","1404081045973","38.805648","-77.05293","true","false","1346442960000","","false","true",21,27,"1404074502130",2014-06-29 16:41:42,48,0.4375,0.5625
"188","195","Henry St & Pendleton St","31046","1404080889268","38.811456","-77.050276","true","false","1346442960000","","false","true",21,27,"1404075787410",2014-06-29 17:03:07,48,0.4375,0.5625
"189","196","Braddock Rd Metro","31047","1404081016908","38.814577","-77.052808","true","false","1346442960000","","false","true",9,19,"1404074743788",2014-06-29 16:45:43,28,0.321428571428571,0.678571428571429
"190","197","King St Metro","31048","1404081010873","38.805767","-77.06072","true","false","1346443020000","","false","true",11,2,"1404081009850",2014-06-29 18:30:09,13,0.846153846153846,0.153846153846154
"191","198","24th & N St NW","31255","1404081081969","38.9066","-77.05152","true","false","1341575340000","","false","true",18,3,"1404081080648",2014-06-29 18:31:20,21,0.857142857142857,0.142857142857143
"192","199","10th & E St NW","31256","1404080945337","38.895914","-77.026064","true","false","1342109700000","","false","true",1,8,"1404078530588",2014-06-29 17:48:50,9,0.111111111111111,0.888888888888889
"193","200","22nd & I St NW / Foggy Bottom","31257","1404081026748","38.90088","-77.048911","true","false","1342442220000","","false","true",3,25,"1404081025756",2014-06-29 18:30:25,28,0.107142857142857,0.892857142857143
"194","201","Utah St & 11th St N ","31049","1404080998921","38.883669","-77.113905","true","false","1342539420000","","false","true",12,29,"1404080756679",2014-06-29 18:25:56,41,0.292682926829268,0.707317073170732
"195","202","Barton St & 10th St N","31050","1404081079607","38.884961","-77.08777","true","false","1346771820000","","false","true",2,29,"1404077484609",2014-06-29 17:31:24,31,0.0645161290322581,0.935483870967742
"196","203","Arlington Blvd & N Queen St","31051","1404080941348","38.889365","-77.077294","true","false","1346776740000","","false","true",22,13,"1404065324613",2014-06-29 14:08:44,35,0.628571428571429,0.371428571428571
"197","204","Lincoln Memorial","31258","1404081052537","38.888251","-77.049426","true","false","1349268360000","","false","true",17,14,"1404081051594",2014-06-29 18:30:51,31,0.548387096774194,0.451612903225806
"198","206","20th St & Virginia Ave NW","31259","1404080871145","38.894722","-77.045128","true","false","1359646980000","","false","true",4,24,"1404078687858",2014-06-29 17:51:27,28,0.142857142857143,0.857142857142857
"199","207","5th St & Massachusetts Ave NW","31265","1404081034608","38.90093","-77.018677","true","false","1367842440000","","false","true",21,3,"1404080550242",2014-06-29 18:22:30,24,0.875,0.125
"200","208","39th & Veazey St NW","31308","1404081055907","38.943837","-77.077078","true","false","1360598160000","","false","true",20,28,"1404077157353",2014-06-29 17:25:57,48,0.416666666666667,0.583333333333333
"201","209","Fessenden St & Wisconsin Ave NW","31309","1404080968720","38.954812","-77.082426","true","false","1360588560000","","false","true",4,24,"1404079140970",2014-06-29 17:59:00,28,0.142857142857143,0.857142857142857
"202","210","M St & Delaware Ave NE","31627","1404081034407","38.905707","-77.003041","true","false","1360929900000","","false","true",4,5,"1404078233420",2014-06-29 17:43:53,9,0.444444444444444,0.555555555555556
"203","211","Columbia Pike & S Courthouse Rd","31053","1404080941296","38.863833","-77.080319","true","false","1364482620000","","false","true",16,5,"1404072655252",2014-06-29 16:10:55,21,0.761904761904762,0.238095238095238
"204","212","Walter Reed Community Center / Walter Reed Dr & 16th St S","31054","1404081033485","38.857803","-77.086733","true","false","1364466180000","","false","true",18,26,"1404052081162",2014-06-29 10:28:01,44,0.409090909090909,0.590909090909091
"205","213","28th St S & S Meade St","31055","1404080905799","38.846222","-77.069275","true","false","1364476320000","","false","true",20,28,"1404077963759",2014-06-29 17:39:23,48,0.416666666666667,0.583333333333333
"206","214","18th St & Wyoming Ave NW","31114","1404080904224","38.918809","-77.041571","true","false","1365003300000","","false","true",16,14,"1404080661608",2014-06-29 18:24:21,30,0.533333333333333,0.466666666666667
"207","215","5th & Kennedy St NW","31403","1404080992969","38.956595","-77.019815","true","false","1365777420000","","false","true",22,26,"1404069845285",2014-06-29 15:24:05,48,0.458333333333333,0.541666666666667
"208","216","Georgia Ave & Emerson St NW","31405","1404081043531","38.949662","-77.027333","true","false","1365783540000","","false","true",20,5,"1404079285571",2014-06-29 18:01:25,25,0.8,0.2
"209","217","14th & Upshur St NW","31406","1404080929100","38.942016","-77.032652","true","false","1365794820000","","false","true",5,27,"1404079764326",2014-06-29 18:09:24,32,0.15625,0.84375
"210","218","14th St & Colorado Ave NW","31407","1404081029699","38.956432","-77.032947","true","false","1365798900000","","false","true",7,25,"1404081028719",2014-06-29 18:30:28,32,0.21875,0.78125
"211","219","S Troy St & 26th St S","31056","1404081068337","38.847977","-77.075104","true","false","1366725840000","","false","true",18,26,"1404078198998",2014-06-29 17:43:18,44,0.409090909090909,0.590909090909091
"212","220","S Four Mile Run Dr & S Shirlington Rd","31057","1404081074374","38.8444","-77.085931","true","false","1366729200000","","false","true",21,19,"1404052385610",2014-06-29 10:33:05,40,0.525,0.475
"213","221","S Oakland St & Columbia Pike","31058","1404080907280","38.860789","-77.09586","true","false","1366735380000","","false","true",18,26,"1403996635973",2014-06-28 19:03:55,44,0.409090909090909,0.590909090909091
"214","222","S Abingdon St & 36th St S","31059","1404080917419","38.835213","-77.094295","true","false","1366739700000","","false","true",16,28,"1404073679661",2014-06-29 16:27:59,44,0.363636363636364,0.636363636363636
"215","223","S Arlington Mill Dr & Campbell Ave","31060","1404081050645","38.84232","-77.089555","true","false","1366802400000","","false","true",3,24,"1404074881014",2014-06-29 16:48:01,27,0.111111111111111,0.888888888888889
"216","224","S Kenmore & 24th St S","31061","1404080980952","38.848454","-77.084918","true","false","1366825140000","","false","true",20,24,"1404039938691",2014-06-29 07:05:38,44,0.454545454545455,0.545454545454545
"217","225","13th St & Eastern Ave","32006","1404080963867","38.987","-77.029417","true","false","1380292680000","","false","true",22,26,"1404064075926",2014-06-29 13:47:55,48,0.458333333333333,0.541666666666667
"218","226","Wisconsin Ave & O St NW","31312","1404081025337","38.90849","-77.063586","true","false","1366910820000","","false","true",21,4,"1404080300008",2014-06-29 18:18:20,25,0.84,0.16
"219","227","S George Mason Dr & 13th St S","31062","1404081004365","38.854691","-77.100555","true","false","1372694040000","","false","true",18,26,"1403970919411",2014-06-28 11:55:19,44,0.409090909090909,0.590909090909091
"220","228","Connecticut & Nebraska Ave NW","31310","1404080894069","38.955016","-77.069956","true","false","1366894140000","","false","true",6,3,"1404080168839",2014-06-29 18:16:08,9,0.666666666666667,0.333333333333333
"221","229","17th St & Massachusetts Ave NW","31267","1404080938152","38.908142","-77.038359","true","false","1367851920000","","false","true",6,26,"1404080695722",2014-06-29 18:24:55,32,0.1875,0.8125
"222","230","15th & Euclid St  NW","31117","1404081011972","38.92333","-77.0352","true","false","1367856780000","","false","true",1,7,"1404080082573",2014-06-29 18:14:42,8,0.125,0.875
"223","231","8th & East Capitol St NE","31629","1404081053521","38.889988","-76.995193","true","false","1368545580000","","false","true",17,27,"1404080570199",2014-06-29 18:22:50,44,0.386363636363636,0.613636363636364
"224","232","New Jersey Ave & R St NW","31509","1404080871099","38.912659","-77.017669","true","false","1368532680000","","false","true",3,25,"1404079394523",2014-06-29 18:03:14,28,0.107142857142857,0.892857142857143
"225","233","15th & East Capitol St NE","31630","1404081028573","38.889908","-76.983326","true","false","1368541260000","","false","true",16,26,"1404080786325",2014-06-29 18:26:26,42,0.380952380952381,0.619047619047619
"226","234","8th & F St NE","31631","1404081005431","38.897274","-76.994749","true","false","1368552540000","","false","true",17,4,"1404081004158",2014-06-29 18:30:04,21,0.80952380952381,0.19047619047619
"227","235","18th St & Rhode Island Ave NE","31510","1404080943312","38.927095","-76.978924","true","false","1369915500000","","false","true",22,26,"1404000273103",2014-06-28 20:04:33,48,0.458333333333333,0.541666666666667
"228","236","15th & F St NE","31632","1404080994309","38.897195","-76.983575","true","false","1369928820000","","false","true",22,3,"1404080510188",2014-06-29 18:21:50,25,0.88,0.12
"229","237","12th & Irving St NE","31511","1404080974440","38.928644","-76.990955","true","false","1369923120000","","false","true",4,24,"1404074428410",2014-06-29 16:40:28,28,0.142857142857143,0.857142857142857
"230","238","34th St & Minnesota Ave SE","31709","1404081038878","38.884085","-76.957461","true","false","1370358840000","","false","true",17,26,"1404069723225",2014-06-29 15:22:03,43,0.395348837209302,0.604651162790698
"231","239","Alabama & MLK Ave SE","31800","1404080970225","38.843222","-76.999388","true","false","1370345160000","","false","true",18,26,"1403930198515",2014-06-28 00:36:38,44,0.409090909090909,0.590909090909091
"232","240","Pleasant St & MLK Ave SE","31807","1404080912678","38.863897","-76.990037","true","false","1370351820000","","false","true",17,27,"1403992002817",2014-06-28 17:46:42,44,0.386363636363636,0.613636363636364
"233","241","Neal St & Trinidad Ave NE","31512","1404080863781","38.903732","-76.987211","true","false","1371221640000","","false","true",21,27,"1404078697611",2014-06-29 17:51:37,48,0.4375,0.5625
"234","242","13th & U St NW","31268","1404081079642","38.916794","-77.029779","true","false","1371231240000","","false","true",20,9,"1404080471355",2014-06-29 18:21:11,29,0.689655172413793,0.310344827586207
"235","243","S George Mason Dr & Four Mile Run","31063","1404081061321","38.852248","-77.105022","true","false","1372690500000","","false","true",20,24,"1404067122874",2014-06-29 14:38:42,44,0.454545454545455,0.545454545454545
"236","244","S Stafford & 34th St S","31064","1404080956894","38.834108","-77.087323","true","false","1372701360000","","false","true",19,29,"1404068514878",2014-06-29 15:01:54,48,0.395833333333333,0.604166666666667
"237","245","N Pershing Dr & Wayne St","31065","1404081001552","38.880705","-77.08596","true","false","1372680300000","","false","true",2,3,"1404075066521",2014-06-29 16:51:06,5,0.4,0.6
"238","246","Columbia Pike & S Orme St","31066","1404080866794","38.867262","-77.072315","true","false","1372684620000","","false","true",12,29,"1404072971085",2014-06-29 16:16:11,41,0.292682926829268,0.707317073170732
"239","247","3rd St & Pennsylvania Ave SE","31269","1404081003522","38.887378","-77.001955","true","false","1374598740000","","false","true",2,7,"1404081002236",2014-06-29 18:30:02,9,0.222222222222222,0.777777777777778
"240","248","8th & D St NW","31270","1404081053897","38.894851","-77.02324","true","false","1374581640000","","false","true",12,5,"1404080811661",2014-06-29 18:26:51,17,0.705882352941177,0.294117647058824
"241","249","3rd & Elm St NW","31118","1404080985357","38.917622","-77.01597","true","false","1374589740000","","false","true",2,6,"1404080604009",2014-06-29 18:23:24,8,0.25,0.75
"242","250","Rhode Island Ave & V St NE","31513","1404080940683","38.918155","-77.004746","true","false","1375196700000","","false","true",3,29,"1404080121109",2014-06-29 18:15:21,32,0.09375,0.90625
"243","251","Constitution Ave & 2nd St NW/DOL","31271","1404081066107","38.892275","-77.013917","true","false","1375190280000","","false","true",4,9,"1404080582302",2014-06-29 18:23:02,13,0.307692307692308,0.692307692307692
"244","252","Washington & Independence Ave SW/HHS","31272","1404080960029","38.88731","-77.01397","true","false","1375445040000","","false","true",18,12,"1404080235395",2014-06-29 18:17:15,30,0.6,0.4
"245","253","Independence Ave & L'Enfant Plaza SW/DOE","31633","1404080920710","38.887397","-77.026154","true","false","1375789680000","","false","true",1,8,"1404077641394",2014-06-29 17:34:01,9,0.111111111111111,0.888888888888889
"246","254","Hamlin & 7th St NE","31514","1404080898258","38.927497","-76.997194","true","false","1376653440000","","false","true",19,29,"1404044295592",2014-06-29 08:18:15,48,0.395833333333333,0.604166666666667
"247","255","Columbia Pike & S Walter Reed Dr","31067","1404080944780","38.862478","-77.086599","true","false","1377605340000","","false","true",18,26,"1404080702178",2014-06-29 18:25:02,44,0.409090909090909,0.590909090909091
"248","256","Columbia Pike & S Dinwiddie St / Arlington Mill Community Center","31068","1404080926289","38.856319","-77.11153","true","false","1377776460000","","false","true",12,5,"1404074124280",2014-06-29 16:35:24,17,0.705882352941177,0.294117647058824
"249","257","Pershing & N George Mason Dr","31069","1404081044554","38.871822","-77.107906","true","false","1377792000000","","false","true",17,27,"1404066903265",2014-06-29 14:35:03,44,0.386363636363636,0.613636363636364
"250","258","Fenton St & New York Ave ","32001","1404080901310","38.985404","-77.023082","true","false","1380292620000","","false","true",19,29,"1404059292009",2014-06-29 12:28:12,48,0.395833333333333,0.604166666666667
"251","259","Bethesda Ave & Arlington Blvd","32002","1404080868720","38.981103","-77.097426","true","false","1380292620000","","false","true",22,3,"1404078695028",2014-06-29 17:51:35,25,0.88,0.12
"252","260","Montgomery Ave & Waverly St ","32003","1404080861199","38.983838","-77.09221","true","false","1382208480000","","false","true",17,27,"1404016664004",2014-06-29 00:37:44,44,0.386363636363636,0.613636363636364
"253","261","Fallsgrove Blvd & Fallsgrove Dr","32004","1404080958802","39.096312","-77.192672","true","false","1380292620000","","false","true",22,3,"1404069542809",2014-06-29 15:19:02,25,0.88,0.12
"254","262","Traville Gateway Dr & Gudelsky Dr","32005","1404080887251","39.093783","-77.202501","true","false","1380292680000","","false","true",21,4,"1403963181008",2014-06-28 09:46:21,25,0.84,0.16
"255","263","Norfolk Ave & Fairmont St","32000","1404081026525","38.988562","-77.096539","true","false","1380292560000","","false","true",17,26,"1404079335834",2014-06-29 18:02:15,43,0.395348837209302,0.604651162790698
"256","264","E Montgomery Ave & Maryland Ave","32007","1404080974646","39.084125","-77.151291","true","false","1380292560000","","false","true",17,3,"1404052839590",2014-06-29 10:40:39,20,0.85,0.15
"257","265","Cordell & Norfolk Ave","32008","1404080862890","38.98954","-77.098029","true","false","1380292740000","","false","true",19,25,"1404070908939",2014-06-29 15:41:48,44,0.431818181818182,0.568181818181818
"258","266","Frederick Ave & Horners Ln","32009","1404081083314","39.094772","-77.145213","true","false","1380292740000","","false","true",17,27,"1403994933391",2014-06-28 18:35:33,44,0.386363636363636,0.613636363636364
"259","267","Philadelphia & Maple Ave","32010","1404080916467","38.98128","-77.011336","true","false","1380292740000","","false","true",21,27,"1404063786507",2014-06-29 13:43:06,48,0.4375,0.5625
"260","268","Maple & Ritchie Ave","32011","1404080886895","38.983627","-77.006311","true","false","1380292800000","","false","true",4,28,"1404080886108",2014-06-29 18:28:06,32,0.125,0.875
"261","269","Silver Spring Metro/Colesville Rd & Wayne Ave","32012","1404080865812","38.99521","-77.02918","true","false","1380292800000","","false","true",20,5,"1404063767901",2014-06-29 13:42:47,25,0.8,0.2
"262","270","Montgomery & East Ln","32013","1404081040648","38.983525","-77.095367","true","false","1380292800000","","false","true",18,26,"1404071336629",2014-06-29 15:48:56,44,0.409090909090909,0.590909090909091
"263","271","Friendship Hts Metro/Wisconsin Ave & Wisconsin Cir","32014","1404080943653","38.961763","-77.085998","true","false","1380292860000","","false","true",19,6,"1404075975806",2014-06-29 17:06:15,25,0.76,0.24
"264","272","14th & Belmont St NW","31119","1404080915480","38.921074","-77.031887","true","false","1380719160000","","false","true",19,29,"1404080914256",2014-06-29 18:28:34,48,0.395833333333333,0.604166666666667
"265","273","3rd & Tingey St SE","31634","1404080925121","38.87501","-77.0024","true","false","1380722700000","","false","true",10,13,"1404079234356",2014-06-29 18:00:34,23,0.434782608695652,0.565217391304348
"266","274","10th & Florida Ave NW","31120","1404080939425","38.920387","-77.025672","true","false","1381320720000","","false","true",12,10,"1404078625786",2014-06-29 17:50:25,22,0.545454545454545,0.454545454545455
"267","275","Potomac Ave & 8th St SE","31635","1404080947552","38.876737","-76.994468","true","false","1381333800000","","false","true",20,27,"1404077933498",2014-06-29 17:38:53,47,0.425531914893617,0.574468085106383
"268","276","Crabbs Branch Way & Redland Rd","32015","1404081050681","39.120045","-77.156985","true","false","1382100480000","","false","true",20,28,"1404000661586",2014-06-28 20:11:01,48,0.416666666666667,0.583333333333333
"269","277","Fallsgrove Dr & W Montgomery Ave","32016","1404080915191","39.099376","-77.188014","true","false","1382120580000","","false","true",3,25,"1403930178534",2014-06-28 00:36:18,28,0.107142857142857,0.892857142857143
"270","278","Monroe St & Monroe Pl","32017","1404081058509","39.083705","-77.149443","true","false","1383309240000","","false","true",21,26,"1403990546804",2014-06-28 17:22:26,47,0.446808510638298,0.553191489361702
"271","279","Needwood Rd & Eagles Head Ct","32018","1404081002438","39.123513","-77.15741","true","false","1382107020000","","false","true",19,29,"1404016662389",2014-06-29 00:37:42,48,0.395833333333333,0.604166666666667
"272","280","East West Hwy & Blair Mill Rd","32019","1404080911083","38.990249","-77.02935","true","false","1383148920000","","false","true",18,3,"1404073612167",2014-06-29 16:26:52,21,0.857142857142857,0.142857142857143
"273","281","Crabbs Branch Way & Calhoun Pl","32020","1404081001309","39.107709","-77.152072","true","false","1382111460000","","false","true",18,3,"1403930178845",2014-06-28 00:36:18,21,0.857142857142857,0.142857142857143
"274","282","47th & Elm St","32021","1404080975419","38.982456","-77.091991","true","false","1382208540000","","false","true",19,29,"1404071152486",2014-06-29 15:45:52,48,0.395833333333333,0.604166666666667
"275","283","Garland Ave & Walden Rd","32022","1404080897171","39.000578","-77.00149","true","false","1383059580000","","false","true",21,27,"1403968252725",2014-06-28 11:10:52,48,0.4375,0.5625
"276","284","Montgomery College/W Campus Dr & Mannakee St","32023","1404080965751","39.095661","-77.159048","true","false","1382199120000","","false","true",4,3,"1403989978692",2014-06-28 17:12:58,7,0.571428571428571,0.428571428571429
"277","285","Fenton St & Gist Ave","32024","1404081036586","38.989724","-77.023854","true","false","1383054960000","","false","true",16,28,"1404068521831",2014-06-29 15:02:01,44,0.363636363636364,0.636363636363636
"278","286","Carroll & Westmoreland Ave","32025","1404081060891","38.975","-77.01121","true","false","1383065460000","","false","true",22,26,"1404078888356",2014-06-29 17:54:48,48,0.458333333333333,0.541666666666667
"279","287","Carroll & Ethan Allen Ave","32026","1404081069657","38.977933","-77.006472","true","false","1383070440000","","false","true",21,27,"1404041288163",2014-06-29 07:28:08,48,0.4375,0.5625
"280","288","Battery Ln & Trolley Trail","32027","1404080950349","38.992375","-77.100104","true","false","1382712300000","","false","true",21,27,"1404079500887",2014-06-29 18:05:00,48,0.4375,0.5625
"281","289","Norfolk & Rugby Ave","32028","1404080881509","38.990639","-77.100239","true","false","1382715180000","","false","true",19,25,"1404069889496",2014-06-29 15:24:49,44,0.431818181818182,0.568181818181818
"282","290","Offutt Ln & Chevy Chase Dr","32029","1404081088899","38.977093","-77.094589","true","false","1382722080000","","false","true",16,28,"1404078180435",2014-06-29 17:43:00,44,0.363636363636364,0.636363636363636
"283","291","Broschart & Blackwell Rd","32030","1404081018835","39.102099","-77.200322","true","false","1382798640000","","false","true",20,28,"1403930182002",2014-06-28 00:36:22,48,0.416666666666667,0.583333333333333
"284","292","Taft St & E Gude Dr","32031","1404080962513","39.094103","-77.132954","true","false","1382804520000","","false","true",19,29,"1403930178443",2014-06-28 00:36:18,48,0.395833333333333,0.604166666666667
"285","293","Fleet St & Ritchie Pkwy","32032","1404080894649","39.076331","-77.141378","true","false","1382809500000","","false","true",22,26,"1403990890898",2014-06-28 17:28:10,48,0.458333333333333,0.541666666666667
"286","294","Piccard & W Gude Dr","32033","1404080940151","39.102212","-77.177091","true","false","1382795700000","","false","true",3,29,"1404069038711",2014-06-29 15:10:38,32,0.09375,0.90625
"287","295","Ripley & Bonifant St","32034","1404081052121","38.992679","-77.029457","true","false","1383141360000","","false","true",19,29,"1404058536988",2014-06-29 12:15:36,48,0.395833333333333,0.604166666666667
"288","296","Georgia Ave & Spring St","32035","1404081024665","38.999388","-77.031555","true","false","1383146520000","","false","true",19,24,"1404079816174",2014-06-29 18:10:16,43,0.441860465116279,0.558139534883721
"289","297","Fenton St & Ellsworth Dr ","32036","1404080884776","38.997033","-77.025608","true","false","1383135960000","","false","true",18,3,"1404079917797",2014-06-29 18:11:57,21,0.857142857142857,0.142857142857143
"290","298","King Farm Blvd & Pleasant Dr","32037","1404081025214","39.114688","-77.171487","true","false","1383323580000","","false","true",22,29,"1404078128304",2014-06-29 17:42:08,51,0.431372549019608,0.568627450980392
"291","299","King Farm Blvd & Piccard Dr","32038","1404080971271","39.110314","-77.182669","true","false","1383318120000","","false","true",20,28,"1404052726109",2014-06-29 10:38:46,48,0.416666666666667,0.583333333333333
"292","301","Calvert St & Woodley Pl NW","31121","1404081089453","38.923583","-77.050046","true","false","1383657120000","","false","true",7,25,"1404080847480",2014-06-29 18:27:27,32,0.21875,0.78125
"293","302","New Jersey Ave & N St NW/Dunbar HS","31636","1404081024553","38.90706","-77.015231","true","false","1383662880000","","false","true",20,5,"1404075946803",2014-06-29 17:05:46,25,0.8,0.2
"294","303","Nannie Helen Burroughs Ave & 49th St NE","31710","1404081060189","38.898536","-76.931862","true","false","1383923280000","","false","true",20,24,"1404017802974",2014-06-29 00:56:42,44,0.454545454545455,0.545454545454545
"295","304","Deanwood Rec Center","31711","1404081039284","38.908473","-76.933099","true","false","1383923280000","","false","true",21,27,"1404047675064",2014-06-29 09:14:35,48,0.4375,0.5625
"296","305","Hains Point/Buckeye & Ohio Dr SW","31273","1404080999888","38.878433","-77.03023","true","false","1383929160000","","false","true",16,7,"1404080882668",2014-06-29 18:28:02,23,0.695652173913043,0.304347826086957
"297","306","Arlington Blvd & Fillmore St","31070","1404081021079","38.873755","-77.089233","true","false","1384527780000","","false","true",18,26,"1404059573843",2014-06-29 12:32:53,44,0.409090909090909,0.590909090909091
"298","307","Long Bridge Park/Long Bridge Dr & 6th St S","31071","1404080943664","38.86646","-77.04826","true","false","1384520760000","","false","true",3,25,"1404076627341",2014-06-29 17:17:07,28,0.107142857142857,0.892857142857143
"299","308","Old Georgetown Rd & Southwick St","32039","1404080963898","38.999634","-77.109647","true","false","1384367940000","","false","true",3,29,"1404061344145",2014-06-29 13:02:24,32,0.09375,0.90625
"300","309","Friendship Blvd & Willard Ave","32040","1404080882996","38.96115","-77.088659","true","false","1384355760000","","false","true",16,9,"1404080881951",2014-06-29 18:28:01,25,0.64,0.36
"301","310","North Capitol St & G Pl NE","31637","1404080963334","38.899703","-77.008911","true","false","1386954360000","","false","true",7,25,"1404079270967",2014-06-29 18:01:10,32,0.21875,0.78125
"302","311","31st & Woodrow St S","31072","1404080958185","38.837666","-77.09482","true","false","1387298640000","","false","true",18,26,"1403953943841",2014-06-28 07:12:23,44,0.409090909090909,0.590909090909091
"303","312","Washington Blvd & Walter Reed Dr ","31073","1404080972637","38.873219","-77.082104","true","false","1387287180000","","false","true",19,29,"1404066890449",2014-06-29 14:34:50,48,0.395833333333333,0.604166666666667
"304","313","Thomas Jefferson Cmty Ctr / 2nd St S & Ivy","31074","1404080852721","38.869675","-77.093586","true","false","1386774900000","","false","true",12,28,"1404071465337",2014-06-29 15:51:05,40,0.3,0.7
"305","314","Connecticut Ave & Tilden St NW","31313","1404081052124","38.941154","-77.062036","true","false","1386954480000","","false","true",17,3,"1404077720366",2014-06-29 17:35:20,20,0.85,0.15
"306","315","Medical Center Dr & Key West Ave","32041","1404081023958","39.103091","-77.196442","true","false","1389273960000","","false","true",20,28,"1403962254511",2014-06-28 09:30:54,48,0.416666666666667,0.583333333333333
"307","316","Shady Grove Hospital","32042","1404080999567","39.097636","-77.196636","true","false","1389287040000","","false","true",22,3,"1403930192762",2014-06-28 00:36:32,25,0.88,0.12
"308","317","Veterans Pl & Pershing Dr ","32043","1404080987683","38.997445","-77.023894","true","false","1391876460000","","false","true",18,26,"1403974023291",2014-06-28 12:47:03,44,0.409090909090909,0.590909090909091
"309","318","Rockville Metro East","32044","1404080953181","39.085394","-77.145803","true","false","1393000800000","","false","true",21,25,"1404070382209",2014-06-29 15:33:02,46,0.456521739130435,0.543478260869565
"310","319","1st & H St NW","31638","1404081087234","38.900358","-77.012108","true","false","1392727500000","","false","true",17,4,"1404081084497",2014-06-29 18:31:24,21,0.80952380952381,0.19047619047619
"311","320","Fort Totten Metro","31515","1404080918346","38.952369","-77.002721","true","false","1392825840000","","false","true",18,4,"1404080192538",2014-06-29 18:16:32,22,0.818181818181818,0.181818181818182
"312","321","Takoma Metro","31408","1404081072075","38.975219","-77.016855","true","false","1392833400000","","false","true",22,3,"1404078634043",2014-06-29 17:50:34,25,0.88,0.12
"313","322","Rhode Island Ave Metro","31516","1404081051558","38.920682","-76.995876","true","false","1393259520000","","false","true",3,29,"1404079802057",2014-06-29 18:10:02,32,0.09375,0.90625
"314","323","Rolfe St & 9th St S","31075","1404080915697","38.866471","-77.076131","true","false","1394630640000","","false","true",18,26,"1404048874183",2014-06-29 09:34:34,44,0.409090909090909,0.590909090909091
"315","324","Shirlington Transit Center / S Quincy & Randolph St","31076","1404080974455","38.839912","-77.087083","true","false","1394637480000","","false","true",20,28,"1404075454541",2014-06-29 16:57:34,48,0.416666666666667,0.583333333333333
"316","325","Shady Grove Metro West","32045","1404080974640","39.119765","-77.166093","true","false","1397837820000","","false","true",18,7,"1404068321659",2014-06-29 14:58:41,25,0.72,0.28
"317","326","River Rd & Landy Ln","32046","1404081058886","38.964992","-77.103381","true","false","1396972380000","","false","true",17,8,"1404076316573",2014-06-29 17:11:56,25,0.68,0.32
"318","327","Rockville Metro West","32047","1404080859946","39.084379","-77.146866","true","false","1397847900000","","false","true",20,5,"1404016667962",2014-06-29 00:37:47,25,0.8,0.2
"319","328","Bethesda Metro","32048","1404080917433","38.984691","-77.094537","true","false","1398786060000","","false","true",18,27,"1404075754383",2014-06-29 17:02:34,45,0.4,0.6
"320","329","Iwo Jima Memorial/N Meade & 14th St N","31077","1404081072497","38.88992","-77.071301","true","false","1402585680000","","false","true",6,24,"1404080829780",2014-06-29 18:27:09,30,0.2,0.8
