"","id","name","terminalName","lastCommWithServer","lat","long","installed","locked","installDate","removalDate","temporary","public","nbBikes","nbEmptyDocks","latestUpdateTime","date","total","percentBikes","percentDocks"
"1","1","20th & Bell St","31000","1404673156822","38.8561","-77.0512","true","false","1316059200000","","false","true",23,24,"1404666856193",2014-07-06 13:14:16,47,0.48936170212766,0.51063829787234
"2","2","18th & Eads St.","31001","1404673131335","38.85725","-77.05332","true","false","1284989400000","","false","true",2,3,"1404671682066",2014-07-06 14:34:42,5,0.4,0.6
"3","3","20th & Crystal Dr","31002","1404673257017","38.8564","-77.0492","true","false","1284464580000","","false","true",6,13,"1404669467205",2014-07-06 13:57:47,19,0.315789473684211,0.684210526315789
"4","4","15th & Crystal Dr","31003","1404673308229","38.86017","-77.049593","true","false","1284464880000","","false","true",3,1,"1404670893841",2014-07-06 14:21:33,4,0.75,0.25
"5","5","Aurora Hills Community Ctr/18th & Hayes St","31004","1404673170098","38.857866","-77.05949","true","false","1284464880000","","false","true",21,26,"1404671911702",2014-07-06 14:38:31,47,0.446808510638298,0.553191489361702
"6","6","12th & Hayes St /  Pentagon City Metro","31005","1404673126540","38.862303","-77.059936","true","false","1284464940000","","false","true",3,28,"1404672884192",2014-07-06 14:54:44,31,0.0967741935483871,0.903225806451613
"7","7","S Joyce & Army Navy Dr","31006","1404673182289","38.8637","-77.0633","true","false","1284464940000","","false","true",24,19,"1404672939340",2014-07-06 14:55:39,43,0.558139534883721,0.441860465116279
"8","8","Crystal City Metro / 18th & Bell St","31007","1404673222675","38.8573","-77.0511","true","false","1284465000000","","false","true",6,26,"1404672497566",2014-07-06 14:48:17,32,0.1875,0.8125
"9","9","12th & Army Navy Dr","31008","1404673207239","38.8629","-77.0528","true","false","1284465000000","","false","true",4,1,"1404673206462",2014-07-06 15:00:06,5,0.8,0.2
"10","10","27th & Crystal Dr","31009","1404673104353","38.848441","-77.051516","true","false","1284465060000","","false","true",2,11,"1404671815797",2014-07-06 14:36:55,13,0.153846153846154,0.846153846153846
"11","11","S Glebe & Potomac Ave","31010","1404673303247","38.8426","-77.0502","true","false","1284465120000","","false","true",19,28,"1404669656942",2014-07-06 14:00:56,47,0.404255319148936,0.595744680851064
"12","12","23rd & Crystal Dr","31011","1404673122751","38.8533","-77.0498","true","false","1284465120000","","false","true",7,13,"1404672639194",2014-07-06 14:50:39,20,0.35,0.65
"13","13","26th & S Clark St","31012","1404673328548","38.850688","-77.05152","true","false","1284465300000","","false","true",22,25,"1404668695528",2014-07-06 13:44:55,47,0.468085106382979,0.531914893617021
"14","14","19th St & Pennsylvania Ave NW","31100","1404673096453","38.9003","-77.0429","true","false","1284465360000","","false","true",2,7,"1404671165202",2014-07-06 14:26:05,9,0.222222222222222,0.777777777777778
"15","15","14th & V St NW","31101","1404673113388","38.9176","-77.0321","true","false","1284465420000","","false","true",3,9,"1404672871112",2014-07-06 14:54:31,12,0.25,0.75
"16","16","11th & Kenyon St NW","31102","1404673191634","38.929464","-77.027822","true","false","1286539080000","","false","true",22,12,"1404672949249",2014-07-06 14:55:49,34,0.647058823529412,0.352941176470588
"17","17","16th & Harvard St NW","31103","1404673160211","38.926088","-77.036536","true","false","1284465480000","","false","true",1,21,"1404670174486",2014-07-06 14:09:34,22,0.0454545454545455,0.954545454545455
"18","18","Adams Mill & Columbia Rd NW","31104","1404673248857","38.922925","-77.042581","true","false","1284465540000","","false","true",2,7,"1404673247353",2014-07-06 15:00:47,9,0.222222222222222,0.777777777777778
"19","19","14th & Harvard St NW","31105","1404673329737","38.9268","-77.0322","true","false","1284465540000","","false","true",2,11,"1404673086614",2014-07-06 14:58:06,13,0.153846153846154,0.846153846153846
"20","20","Calvert & Biltmore St NW","31106","1404673264355","38.923203","-77.047637","true","false","1284465600000","","false","true",23,8,"1404670678451",2014-07-06 14:17:58,31,0.741935483870968,0.258064516129032
"21","21","Lamont & Mt Pleasant NW","31107","1404673216373","38.9319","-77.0388","true","false","1284465600000","","false","true",19,9,"1404673215399",2014-07-06 15:00:15,28,0.678571428571429,0.321428571428571
"22","22","4th & M St SW","31108","1404673324039","38.8767","-77.0178","true","false","1284465660000","","false","true",25,5,"1404673207072",2014-07-06 15:00:07,30,0.833333333333333,0.166666666666667
"23","23","15th & P St NW","31201","1404673259657","38.90985","-77.034438","true","false","1284465660000","","false","true",19,7,"1404673258618",2014-07-06 15:00:58,26,0.730769230769231,0.269230769230769
"24","24","14th & R St NW","31202","1404673311084","38.912682","-77.031681","true","false","1284465720000","","false","true",3,24,"1404673059219",2014-07-06 14:57:39,27,0.111111111111111,0.888888888888889
"25","25","14th & Rhode Island Ave NW","31203","1404673240396","38.9086","-77.0323","true","false","1284465780000","","false","true",3,6,"1404673239745",2014-07-06 15:00:39,9,0.333333333333333,0.666666666666667
"26","26","20th & E St NW","31204","1404673160688","38.8963","-77.045","true","false","1284465840000","","false","true",1,8,"1404671710007",2014-07-06 14:35:10,9,0.111111111111111,0.888888888888889
"27","27","21st & I St NW","31205","1404673279700","38.9008","-77.047","true","false","1283861040000","","false","true",12,21,"1404672796118",2014-07-06 14:53:16,33,0.363636363636364,0.636363636363636
"28","28","Georgia & New Hampshire Ave NW","31400","1404673271088","38.936043","-77.024649","true","false","1284465900000","","false","true",3,25,"1404670403901",2014-07-06 14:13:23,28,0.107142857142857,0.892857142857143
"29","29","14th St & Spring Rd NW","31401","1404673107429","38.9375","-77.0328","true","false","1284465960000","","false","true",12,29,"1404671062500",2014-07-06 14:24:22,41,0.292682926829268,0.707317073170732
"30","30","John McCormack Dr & Michigan Ave NE","31502","1404673119034","38.9346","-76.9955","true","false","1284465960000","","false","true",23,19,"1404671793198",2014-07-06 14:36:33,42,0.547619047619048,0.452380952380952
"31","31","5th & K St NW","31600","1404673180660","38.90304","-77.019027","true","false","1284466020000","","false","true",9,19,"1404672938748",2014-07-06 14:55:38,28,0.321428571428571,0.678571428571429
"32","32","19th & East Capitol St SE","31601","1404673111797","38.8896","-76.9769","true","false","1284466020000","","false","true",2,7,"1404672707720",2014-07-06 14:51:47,9,0.222222222222222,0.777777777777778
"33","33","Park Rd & Holmead Pl NW","31602","1404673124348","38.9308","-77.0315","true","false","1284466080000","","false","true",22,4,"1404672882601",2014-07-06 14:54:42,26,0.846153846153846,0.153846153846154
"34","34","Good Hope & Naylor Rd SE","31700","1404673176810","38.8601","-76.9672","true","false","1284466140000","","false","true",22,25,"1404668725445",2014-07-06 13:45:25,47,0.468085106382979,0.531914893617021
"35","35","Connecticut Ave & Newark St NW / Cleveland Park","31305","1404673093856","38.934267","-77.057979","true","false","1289241840000","","false","true",25,13,"1404673092197",2014-07-06 14:58:12,38,0.657894736842105,0.342105263157895
"36","36","Randle Circle & Minnesota Ave SE","31702","1404673328720","38.878","-76.9607","true","false","1284466200000","","false","true",21,26,"1404670103447",2014-07-06 14:08:23,47,0.446808510638298,0.553191489361702
"37","37","Minnesota Ave Metro/DOES","31703","1404673210735","38.897063","-76.947446","true","false","1284466200000","","false","true",21,26,"1404668804356",2014-07-06 13:46:44,47,0.446808510638298,0.553191489361702
"38","38","Nannie Helen Burroughs & Minnesota Ave NE","31704","1404673248972","38.901385","-76.941877","true","false","1386766320000","1298396940000","false","true",22,25,"1404622965764",2014-07-06 01:02:45,47,0.468085106382979,0.531914893617021
"39","39","Anacostia Metro","31801","1404673189765","38.862669","-76.994637","true","false","1284466260000","","false","true",21,26,"1404664978753",2014-07-06 12:42:58,47,0.446808510638298,0.553191489361702
"40","40","Good Hope Rd & MLK Ave SE","31802","1404673280659","38.867373","-76.988039","true","false","1305288720000","","false","true",24,19,"1404671430620",2014-07-06 14:30:30,43,0.558139534883721,0.441860465116279
"41","41","19th & E Street NW","31206","1404673136911","38.8952","-77.0436","true","false","1284545040000","","false","true",2,3,"1404673135505",2014-07-06 14:58:55,5,0.4,0.6
"42","42","4th St & Rhode Island Ave NE","31500","1404673247872","38.919488","-77.000624","true","false","1289970000000","","false","true",12,29,"1404672238085",2014-07-06 14:43:58,41,0.292682926829268,0.707317073170732
"43","43","10th & U St NW","31111","1404673293535","38.9172","-77.0259","true","false","1285822380000","","false","true",19,5,"1404673293053",2014-07-06 15:01:33,24,0.791666666666667,0.208333333333333
"44","44","Georgia Ave and Fairmont St NW","31207","1404673148924","38.9249","-77.0222","true","false","1285041600000","","false","true",3,2,"1404671940979",2014-07-06 14:39:00,5,0.6,0.4
"45","45","1st & N St  SE","31209","1404673106292","38.8743","-77.0057","true","false","1285041600000","","false","true",17,5,"1404671169557",2014-07-06 14:26:09,22,0.772727272727273,0.227272727272727
"46","46","20th St & Florida Ave NW","31110","1404673226726","38.9154","-77.0446","true","false","1285217520000","","false","true",2,7,"1404672742886",2014-07-06 14:52:22,9,0.222222222222222,0.777777777777778
"47","47","7th & T St NW","31109","1404673124267","38.9155","-77.0222","true","false","1285735680000","","false","true",1,5,"1404672137254",2014-07-06 14:42:17,6,0.166666666666667,0.833333333333333
"48","48","23rd & Eads St","31013","1404673289448","38.853613","-77.053535","true","false","1287562620000","","false","true",19,28,"1404671839911",2014-07-06 14:37:19,47,0.404255319148936,0.595744680851064
"49","49","M St & New Jersey Ave SE","31208","1404673318320","38.8763","-77.0037","true","false","1285041600000","","false","true",4,26,"1404672834797",2014-07-06 14:53:54,30,0.133333333333333,0.866666666666667
"50","51","Massachusetts Ave & Dupont Circle NW","31200","1404673308853","38.9101","-77.0444","true","false","1284523200000","","false","true",6,20,"1404672583586",2014-07-06 14:49:43,26,0.230769230769231,0.769230769230769
"51","52","1st & M St NE","31603","1404673222824","38.9057","-77.0056","true","false","1287115200000","","false","true",21,3,"1404673221865",2014-07-06 15:00:21,24,0.875,0.125
"52","53","21st & M St NW","31212","1404673099306","38.90534","-77.046774","true","false","1285041600000","","false","true",2,11,"1404672373413",2014-07-06 14:46:13,13,0.153846153846154,0.846153846153846
"53","54","17th & K St NW","31213","1404673104575","38.90276","-77.03863","true","false","1306236960000","","false","true",19,9,"1404673103279",2014-07-06 14:58:23,28,0.678571428571429,0.321428571428571
"54","55","3rd & H St NW","31604","1404673093237","38.899408","-77.015289","true","false","1287028800000","","false","true",20,4,"1404672850742",2014-07-06 14:54:10,24,0.833333333333333,0.166666666666667
"55","56","3rd & D St SE","31605","1404673310627","38.8851","-77.0023","true","false","1287201600000","","false","true",22,25,"1404672102522",2014-07-06 14:41:42,47,0.468085106382979,0.531914893617021
"56","57","Potomac & Pennsylvania Ave SE","31606","1404673271232","38.8803","-76.9862","true","false","1287460800000","","false","true",25,26,"1404672545834",2014-07-06 14:49:05,51,0.490196078431373,0.509803921568627
"57","58","14th & D St SE","31607","1404673287954","38.884","-76.9861","true","false","1287374400000","","false","true",19,5,"1404672804517",2014-07-06 14:53:24,24,0.791666666666667,0.208333333333333
"58","59","17th & Corcoran St NW","31214","1404673242343","38.9121","-77.0387","true","false","1294078980000","","false","true",1,11,"1404673000424",2014-07-06 14:56:40,12,0.0833333333333333,0.916666666666667
"59","60","Van Ness Metro / UDC","31300","1404673110665","38.944551","-77.063896","true","false","1289624400000","","false","true",22,29,"1404672385294",2014-07-06 14:46:25,51,0.431372549019608,0.568627450980392
"60","61","Florida Ave & R St NW","31503","1404673310928","38.9126","-77.0135","true","false","1290056400000","","false","true",1,8,"1404672606652",2014-07-06 14:50:06,9,0.111111111111111,0.888888888888889
"61","62","8th & Eye St SE / Barracks Row","31608","1404673144546","38.8792","-76.9953","true","false","1287374400000","","false","true",20,27,"1404671038962",2014-07-06 14:23:58,47,0.425531914893617,0.574468085106383
"62","63","Ward Circle / American University","31301","1404673290569","38.938736","-77.087171","true","false","1289538000000","","false","true",20,4,"1404673047536",2014-07-06 14:57:27,24,0.833333333333333,0.166666666666667
"63","64","Idaho Ave & Newark St NW [on 2nd District patio]","31302","1404673179995","38.934751","-77.074647","true","false","1289970000000","","false","true",23,27,"1404672455081",2014-07-06 14:47:35,50,0.46,0.54
"64","65","14th St Heights / 14th & Crittenden St NW","31402","1404673137605","38.947774","-77.032818","true","false","1289970000000","","false","true",23,24,"1404613912715",2014-07-05 22:31:52,47,0.48936170212766,0.51063829787234
"65","66","Anacostia Library","31804","1404673138798","38.865784","-76.9784","true","false","1288584000000","","false","true",23,24,"1404665566772",2014-07-06 12:52:46,47,0.48936170212766,0.51063829787234
"66","67","Pennsylvania & Minnesota Ave SE","31805","1404673240243","38.873057","-76.971015","true","false","1288584000000","","false","true",22,25,"1404622972353",2014-07-06 01:02:52,47,0.468085106382979,0.531914893617021
"67","68","Eastern Market / 7th & North Carolina Ave SE","31610","1404673292406","38.886952","-76.996806","true","false","1282363200000","","false","true",20,3,"1404672506078",2014-07-06 14:48:26,23,0.869565217391304,0.130434782608696
"68","69","McPherson Square / 14th & H St NW","31216","1404673097449","38.899641","-77.032005","true","false","1284436800000","","false","true",22,5,"1404672796811",2014-07-06 14:53:16,27,0.814814814814815,0.185185185185185
"69","70","Benning Branch Library","31705","1404673239916","38.894","-76.947974","true","false","1288584000000","","false","true",20,26,"1404673239620",2014-07-06 15:00:39,46,0.434782608695652,0.565217391304348
"70","71","USDA / 12th & Independence Ave SW","31217","1404673172347","38.887237","-77.028226","true","false","1286297580000","","false","true",19,23,"1404672688774",2014-07-06 14:51:28,42,0.452380952380952,0.547619047619048
"71","72","Georgetown Harbor / 30th St NW","31215","1404673322581","38.9022212","-77.059219","true","false","1286300580000","","false","true",8,24,"1404673321725",2014-07-06 15:02:01,32,0.25,0.75
"72","73","12th & Newton St NE","31501","1404673179172","38.933668","-76.991016","true","false","1286306220000","","false","true",20,27,"1404666803689",2014-07-06 13:13:23,47,0.425531914893617,0.574468085106383
"73","74","US Dept of State / Virginia Ave & 21st St NW","31220","1404673293588","38.894919","-77.046587","true","false","1286661900000","","false","true",1,8,"1404671355028",2014-07-06 14:29:15,9,0.111111111111111,0.888888888888889
"74","75","L'Enfant Plaza / 7th & C St SW","31218","1404673198958","38.886266","-77.022241","true","false","1286410980000","","false","true",23,28,"1404673198180",2014-07-06 14:59:58,51,0.450980392156863,0.549019607843137
"75","76","10th St & Constitution Ave NW","31219","1404673319425","38.893028","-77.026013","true","false","1286497620000","","false","true",18,2,"1404673306090",2014-07-06 15:01:46,20,0.9,0.1
"76","77","Kennedy Center","31211","1404673222743","38.895184","-77.054845","true","false","1286325060000","","false","true",3,2,"1404673221681",2014-07-06 15:00:21,5,0.6,0.4
"77","78","Eastern Market Metro / Pennsylvania Ave & 7th St SE","31613","1404673226184","38.884","-76.995397","true","false","1286411820000","","false","true",22,5,"1404672983586",2014-07-06 14:56:23,27,0.814814814814815,0.185185185185185
"78","79","18th & M St NW","31221","1404673314434","38.904742","-77.041606","true","false","1286458140000","","false","true",12,9,"1404672589535",2014-07-06 14:49:49,21,0.571428571428571,0.428571428571429
"79","80","Tenleytown / Wisconsin Ave & Albemarle St NW","31303","1404673108983","38.947607","-77.079382","true","false","1287150300000","","false","true",12,6,"1404672866418",2014-07-06 14:54:26,18,0.666666666666667,0.333333333333333
"80","81","13th & H St NE","31611","1404673299918","38.9003","-76.9882","true","false","1286547000000","","false","true",7,6,"1404672575521",2014-07-06 14:49:35,13,0.538461538461538,0.461538461538462
"81","82","5th & F St NW","31620","1404673311082","38.897222","-77.019347","true","false","1286492280000","","false","true",22,17,"1404673309936",2014-07-06 15:01:49,39,0.564102564102564,0.435897435897436
"82","83","New York Ave & 15th St NW","31222","1404673159773","38.8991","-77.0337","true","false","1286631960000","","false","true",20,29,"1404673092561",2014-07-06 14:58:12,49,0.408163265306122,0.591836734693878
"83","84","Convention Center / 7th & M St NW","31223","1404673180984","38.90572","-77.022264","true","false","1286631960000","","false","true",1,11,"1404671973015",2014-07-06 14:39:33,12,0.0833333333333333,0.916666666666667
"84","85","Harvard St & Adams Mill Rd NW","31112","1404673244715","38.927872","-77.043358","true","false","1294164840000","","false","true",21,3,"1404673243922",2014-07-06 15:00:43,24,0.875,0.125
"85","86","19th & L St NW","31224","1404673251975","38.903407","-77.043648","true","false","1287182880000","","false","true",12,5,"1404672198268",2014-07-06 14:43:18,17,0.705882352941177,0.294117647058824
"86","87","C & O Canal & Wisconsin Ave NW","31225","1404673299701","38.90375","-77.06269","true","false","1287460800000","","false","true",14,13,"1404673298288",2014-07-06 15:01:38,27,0.518518518518518,0.481481481481481
"87","88","6th & Water St SW / SW Waterfront","31609","1404673236119","38.87675","-77.02127","true","false","1287720000000","","false","true",25,3,"1404673234547",2014-07-06 15:00:34,28,0.892857142857143,0.107142857142857
"88","89","D St & Maryland Ave NE","31612","1404673236189","38.894758","-76.997114","true","false","1330094460000","","false","true",23,9,"1404672993070",2014-07-06 14:56:33,32,0.71875,0.28125
"89","90","34th St & Wisconsin Ave NW","31226","1404673217489","38.916442","-77.0682","true","false","1287182760000","","false","true",21,25,"1404670802916",2014-07-06 14:20:02,46,0.456521739130435,0.543478260869565
"90","91","13th St & New York Ave NW","31227","1404673204708","38.900283","-77.029822","true","false","1287416880000","","false","true",25,7,"1404671996359",2014-07-06 14:39:56,32,0.78125,0.21875
"91","92","8th & H St NW","31228","1404673112599","38.8997","-77.023086","true","false","1287115200000","","false","true",13,6,"1404673111868",2014-07-06 14:58:31,19,0.684210526315789,0.315789473684211
"92","93","10th & Monroe St NE","31504","1404673229455","38.932514","-76.992889","true","false","1287096120000","","false","true",22,25,"1404668979922",2014-07-06 13:49:39,47,0.468085106382979,0.531914893617021
"93","94","Eckington Pl & Q St NE","31505","1404673277042","38.910972","-77.00495","true","false","1287096120000","","false","true",20,27,"1404672552323",2014-07-06 14:49:12,47,0.425531914893617,0.574468085106383
"94","95","6th & H St NE","31615","1404673285968","38.900384","-76.99831","true","false","1323696720000","","false","true",12,15,"1404671537254",2014-07-06 14:32:17,27,0.444444444444444,0.555555555555556
"95","96","3rd & H St NE","31616","1404673299369","38.900412","-77.001949","true","false","1287096060000","","false","true",20,8,"1404672386704",2014-07-06 14:46:26,28,0.714285714285714,0.285714285714286
"96","97","Bladensburg Rd & Benning Rd NE","31617","1404673202120","38.900413","-76.982872","true","false","1288200360000","","false","true",2,7,"1404673200368",2014-07-06 15:00:00,9,0.222222222222222,0.777777777777778
"97","98","4th & East Capitol St NE","31618","1404673170189","38.889955","-77.000349","true","false","1287028800000","","false","true",12,29,"1404671893697",2014-07-06 14:38:13,41,0.292682926829268,0.707317073170732
"98","99","Lincoln Park / 13th & East Capitol St NE ","31619","1404673309019","38.890461","-76.988355","true","false","1288038900000","","false","true",24,7,"1404671943578",2014-07-06 14:39:03,31,0.774193548387097,0.225806451612903
"99","100","Branch & Pennsylvania Ave SE","31701","1404673153091","38.8692","-76.9599","true","false","1309008600000","","false","true",20,27,"1404622956716",2014-07-06 01:02:36,47,0.425531914893617,0.574468085106383
"100","101","13th & D St NE","31622","1404673307239","38.894832","-76.987633","true","false","1288114080000","","false","true",4,14,"1404672581529",2014-07-06 14:49:41,18,0.222222222222222,0.777777777777778
"101","102","New Hampshire Ave & T St NW","31229","1404673110732","38.91554","-77.03818","true","false","1287178020000","","false","true",19,12,"1404673109226",2014-07-06 14:58:29,31,0.612903225806452,0.387096774193548
"102","103","Metro Center / 12th & G St NW","31230","1404673219068","38.898364","-77.027869","true","false","1305259200000","","false","true",10,6,"1404672976621",2014-07-06 14:56:16,16,0.625,0.375
"103","104","14th & D St NW / Ronald Reagan Building","31231","1404673208174","38.894514","-77.031617","true","false","1303306260000","","false","true",12,16,"1404673206914",2014-07-06 15:00:06,28,0.428571428571429,0.571428571428571
"104","105","7th & F St NW / National Portrait Gallery","31232","1404673279290","38.897324","-77.022322","true","false","1304108940000","","false","true",4,28,"1404673278178",2014-07-06 15:01:18,32,0.125,0.875
"105","106","17th & K St NW / Farragut Square","31233","1404673210967","38.902061","-77.038322","true","false","1304022480000","","false","true",1,18,"1404669216358",2014-07-06 13:53:36,19,0.0526315789473684,0.947368421052632
"106","107","20th & O St NW / Dupont South","31234","1404673247847","38.908905","-77.04478","true","false","1328850000000","","false","true",22,6,"1404673004990",2014-07-06 14:56:44,28,0.785714285714286,0.214285714285714
"107","108","4th & D St NW / Judiciary Square","31621","1404673181636","38.895344","-77.016106","true","false","1304481600000","","false","true",2,7,"1404668014815",2014-07-06 13:33:34,9,0.222222222222222,0.777777777777778
"108","109","19th St & Constitution Ave NW","31235","1404673257423","38.8923","-77.0436","true","false","1287607080000","","false","true",2,22,"1404673009282",2014-07-06 14:56:49,24,0.0833333333333333,0.916666666666667
"109","110","37th & O St NW / Georgetown University","31236","1404673298697","38.90774","-77.071652","true","false","1288037580000","","false","true",21,11,"1404673055042",2014-07-06 14:57:35,32,0.65625,0.34375
"110","111","11th & H St NE","31614","1404673202050","38.899983","-76.991383","true","false","1323666000000","","false","true",24,4,"1404672235089",2014-07-06 14:43:55,28,0.857142857142857,0.142857142857143
"111","112","25th St & Pennsylvania Ave NW","31237","1404673316881","38.903827","-77.053485","true","false","1288551000000","","false","true",24,27,"1404672833478",2014-07-06 14:53:53,51,0.470588235294118,0.529411764705882
"112","113","Columbus Circle / Union Station","31623","1404673178964","38.89696","-77.00493","true","false","1285905600000","","false","true",21,22,"1404672936790",2014-07-06 14:55:36,43,0.488372093023256,0.511627906976744
"113","114","North Capitol St & F St NW","31624","1404673316815","38.897446","-77.009888","true","false","1288122720000","","false","true",12,15,"1404673074798",2014-07-06 14:57:54,27,0.444444444444444,0.555555555555556
"114","115","11th & M St NW","31266","1404673155177","38.905607","-77.027137","true","false","1364995680000","","false","true",12,10,"1404673153910",2014-07-06 14:59:13,22,0.545454545454545,0.454545454545455
"115","116","36th & Calvert St NW / Glover Park","31304","1404673212768","38.922581","-77.070334","true","false","1289236620000","","false","true",23,28,"1404670797644",2014-07-06 14:19:57,51,0.450980392156863,0.549019607843137
"116","117","14th & G St NW","31238","1404673144668","38.898069","-77.031823","true","false","1289237340000","","false","true",5,4,"1404672901523",2014-07-06 14:55:01,9,0.555555555555556,0.444444444444444
"117","118","Potomac Ave & 35th St S","31052","1404673220064","38.844015","-77.050537","true","false","1351092960000","","false","true",22,10,"1404673219150",2014-07-06 15:00:19,32,0.6875,0.3125
"118","124","Ohio Dr & West Basin Dr SW / MLK & FDR Memorials","31240","1404673105422","38.88412","-77.04657","true","false","1331904960000","","false","true",3,6,"1404673104173",2014-07-06 14:58:24,9,0.333333333333333,0.666666666666667
"119","125","11th & F St NW","31262","1404673311267","38.897857","-77.026975","true","false","1359981840000","","false","true",2,7,"1404673309538",2014-07-06 15:01:49,9,0.222222222222222,0.777777777777778
"120","126","23rd & E St NW ","31260","1404673323134","38.896104","-77.049882","true","false","1359652440000","","false","true",20,7,"1404673080847",2014-07-06 14:58:00,27,0.740740740740741,0.259259259259259
"121","127","Lynn & 19th St North","31014","1404673224849","38.897315","-77.070993","true","false","1302957060000","","false","true",4,27,"1404671436333",2014-07-06 14:30:36,31,0.129032258064516,0.870967741935484
"122","128","Rosslyn Metro / Wilson Blvd & Ft Myer Dr","31015","1404673124566","38.8946","-77.072305","true","false","1302957120000","","false","true",5,19,"1404672399709",2014-07-06 14:46:39,24,0.208333333333333,0.791666666666667
"123","129","Clarendon Blvd & Pierce St","31016","1404673101737","38.893648","-77.076701","true","false","1302957960000","","false","true",2,3,"1404666903587",2014-07-06 13:15:03,5,0.4,0.6
"124","130","Court House Metro / Wilson Blvd & N Uhle St","31017","1404673204873","38.891696","-77.0846","true","false","1320933600000","","false","true",21,3,"1404669092952",2014-07-06 13:51:32,24,0.875,0.125
"125","131","N Rhodes & 16th St N","31018","1404673287880","38.892164","-77.079375","true","false","1302963480000","","false","true",21,26,"1404670343245",2014-07-06 14:12:23,47,0.446808510638298,0.553191489361702
"126","132","Fairfax Village","31706","1404673251370","38.86559","-76.952103","true","false","1311771600000","","false","true",23,28,"1404622962108",2014-07-06 01:02:42,51,0.450980392156863,0.549019607843137
"127","133","21st St & Constitution Ave NW","31261","1404673286752","38.892459","-77.046567","true","false","1359639120000","","false","true",21,29,"1404673285980",2014-07-06 15:01:25,50,0.42,0.58
"128","134","Wilson Blvd & N Edgewood St","31019","1404673248517","38.889","-77.0925","true","false","1321015980000","","false","true",4,24,"1404673006158",2014-07-06 14:56:46,28,0.142857142857143,0.857142857142857
"129","135","Columbia Rd & Belmont St NW","31113","1404673195459","38.920669","-77.04368","true","false","1321625100000","","false","true",2,10,"1404671952718",2014-07-06 14:39:12,12,0.166666666666667,0.833333333333333
"130","136","17th & Rhode Island Ave NW","31239","1404673213525","38.906602","-77.038785","true","false","1321639800000","","false","true",12,15,"1404672005442",2014-07-06 14:40:05,27,0.444444444444444,0.555555555555556
"131","137","Thomas Circle","31241","1404673321181","38.9059","-77.0325","true","false","1321714320000","","false","true",12,20,"1404673305606",2014-07-06 15:01:45,32,0.375,0.625
"132","138","Wilson Blvd & Franklin Rd","31020","1404673205706","38.8904","-77.0889","true","false","1322715600000","","false","true",20,27,"1404670308497",2014-07-06 14:11:48,47,0.425531914893617,0.574468085106383
"133","139","Clarendon Blvd & N Fillmore St","31021","1404673157160","38.8881","-77.09308","true","false","1321981080000","","false","true",12,6,"1404670501134",2014-07-06 14:15:01,18,0.666666666666667,0.333333333333333
"134","140","Clarendon Metro / Wilson Blvd & N Highland St","31022","1404673234412","38.88786","-77.094875","true","false","1321983480000","","false","true",21,5,"1404672268355",2014-07-06 14:44:28,26,0.807692307692308,0.192307692307692
"135","141","18th St & Pennsylvania Ave NW","31242","1404673154214","38.89968","-77.041539","true","false","1322571600000","","false","true",21,29,"1404672670308",2014-07-06 14:51:10,50,0.42,0.58
"136","142","Maryland & Independence Ave SW","31243","1404673318864","38.887299","-77.018939","true","false","1327669020000","","false","true",16,8,"1404673318289",2014-07-06 15:01:58,24,0.666666666666667,0.333333333333333
"137","143","4th & E St SW","31244","1404673149959","38.88412","-77.017445","true","false","1322756880000","","false","true",5,27,"1404672907445",2014-07-06 14:55:07,32,0.15625,0.84375
"138","144","3rd & G St SE","31625","1404673200443","38.881185","-77.001828","true","false","1322661660000","","false","true",6,25,"1404672474809",2014-07-06 14:47:54,31,0.193548387096774,0.806451612903226
"139","145","7th & R St NW / Shaw Library","31245","1404673133936","38.912719","-77.022155","true","false","1322583120000","","false","true",22,28,"1404673135379",2014-07-06 14:58:55,50,0.44,0.56
"140","146","9th & Upshur St NW","31404","1404673321986","38.9418","-77.0251","true","false","1323194880000","","false","true",24,26,"1404673320374",2014-07-06 15:02:00,50,0.48,0.52
"141","147","1st & Rhode Island Ave NW","31506","1404673222692","38.915417","-77.012289","true","false","1323178380000","","false","true",12,6,"1404672980311",2014-07-06 14:56:20,18,0.666666666666667,0.333333333333333
"142","148","Columbia Rd & Georgia Ave NW","31115","1404673265443","38.928156","-77.02344","true","false","1323234000000","","false","true",5,27,"1404672781480",2014-07-06 14:53:01,32,0.15625,0.84375
"143","149","California St & Florida Ave NW","31116","1404673263312","38.917761","-77.04062","true","false","1323752400000","","false","true",24,3,"1404672297120",2014-07-06 14:44:57,27,0.888888888888889,0.111111111111111
"144","150","Benning Rd & East Capitol St NE / Benning Rd Metro","31707","1404673173246","38.889935","-76.93723","true","false","1324404360000","","false","true",23,4,"1404622959803",2014-07-06 01:02:39,27,0.851851851851852,0.148148148148148
"145","151","3000 Connecticut Ave NW / National Zoo","31307","1404673225493","38.930282","-77.055599","true","false","1324496640000","","false","true",1,8,"1404672499853",2014-07-06 14:48:19,9,0.111111111111111,0.888888888888889
"146","152","Anacostia Ave & Benning Rd NE / River Terrace ","31708","1404673237575","38.896544","-76.96012","true","false","1324402320000","","false","true",25,26,"1404671306234",2014-07-06 14:28:26,51,0.490196078431373,0.509803921568627
"147","153","M St & Pennsylvania Ave NW","31246","1404673238259","38.905126","-77.056887","true","false","1324485480000","","false","true",3,29,"1404673237441",2014-07-06 15:00:37,32,0.09375,0.90625
"148","154","15th St & Massachusetts Ave SE","31626","1404673111264","38.88732","-76.983569","true","false","1324565040000","","false","true",24,27,"1404669745138",2014-07-06 14:02:25,51,0.470588235294118,0.529411764705882
"149","155","Congress Heights Metro","31806","1404673147993","38.844711","-76.987823","true","false","1324581180000","","false","true",24,27,"1404632981190",2014-07-06 03:49:41,51,0.470588235294118,0.529411764705882
"150","156","N Quincy St & Glebe Rd","31035","1404673145029","38.876393","-77.107735","true","false","1335552600000","","false","true",23,24,"1404667900737",2014-07-06 13:31:40,47,0.48936170212766,0.51063829787234
"151","157","Wilson Blvd & N Oakland St","31033","1404673263555","38.8815","-77.10396","true","false","1335387720000","","false","true",12,29,"1404673050955",2014-07-06 14:57:30,41,0.292682926829268,0.707317073170732
"152","158","N Veitch  & 20th St N","31029","1404673235251","38.896923","-77.086502","true","false","1335213360000","","false","true",4,24,"1404671164397",2014-07-06 14:26:04,28,0.142857142857143,0.857142857142857
"153","159","11th & K St NW","31263","1404673235785","38.90268","-77.02674","true","false","1360936140000","","false","true",23,5,"1404673234651",2014-07-06 15:00:34,28,0.821428571428571,0.178571428571429
"154","160","Fairfax Dr & Wilson Blvd","31023","1404673144572","38.885801","-77.097745","true","false","1335545880000","","false","true",4,1,"1404671695000",2014-07-06 14:34:55,5,0.8,0.2
"155","161","Key Blvd & N Quinn St","31027","1404673314472","38.896015","-77.078107","true","false","1335195480000","","false","true",20,27,"1404671396377",2014-07-06 14:29:56,47,0.425531914893617,0.574468085106383
"156","162","1st & K St SE","31628","1404673222145","38.87861","-77.006004","true","false","1328717220000","","false","true",6,13,"1404672824659",2014-07-06 14:53:44,19,0.315789473684211,0.684210526315789
"157","163","39th & Calvert St NW / Stoddert","31306","1404673159676","38.922649","-77.077271","true","false","1328898300000","","false","true",22,6,"1404671952499",2014-07-06 14:39:12,28,0.785714285714286,0.214285714285714
"158","164","1st & Washington Hospital Center NW","31507","1404673164063","38.928743","-77.012457","true","false","1329153540000","","false","true",20,4,"1404670668121",2014-07-06 14:17:48,24,0.833333333333333,0.166666666666667
"159","165","Virginia Square Metro / N Monroe St & 9th St N","31024","1404673174957","38.882788","-77.103148","true","false","1329508980000","","false","true",23,5,"1404671726040",2014-07-06 14:35:26,28,0.821428571428571,0.178571428571429
"160","166","Central Library / N Quincy St & 10th St N","31025","1404673157994","38.88397","-77.10783","true","false","1329493920000","","false","true",24,19,"1404672433510",2014-07-06 14:47:13,43,0.558139534883721,0.441860465116279
"161","167","Washington Blvd & 10th St N","31026","1404673327756","38.884734","-77.093485","true","false","1329944340000","","false","true",21,3,"1404672602162",2014-07-06 14:50:02,24,0.875,0.125
"162","168","Jefferson Dr & 14th St SW","31247","1404673330611","38.888553","-77.032429","true","false","1331911860000","","false","true",11,25,"1404673279366",2014-07-06 15:01:19,36,0.305555555555556,0.694444444444444
"163","169","Smithsonian / Jefferson Dr & 12th St SW","31248","1404673289133","38.888767","-77.02858","true","false","1333369620000","","false","true",15,2,"1404673287970",2014-07-06 15:01:27,17,0.882352941176471,0.117647058823529
"164","170","George Mason Dr & Wilson Blvd","31036","1404673284285","38.87887","-77.1207","true","false","1335805380000","","false","true",25,26,"1404671594862",2014-07-06 14:33:14,51,0.490196078431373,0.509803921568627
"165","171","6th St & Indiana Ave NW","31264","1404673124400","38.894573","-77.01994","true","false","1364990040000","","false","true",25,3,"1404672879968",2014-07-06 14:54:39,28,0.892857142857143,0.107142857142857
"166","172","N Veitch & Key Blvd","31028","1404673116089","38.893241","-77.086045","true","false","1335202980000","","false","true",2,3,"1404671340239",2014-07-06 14:29:00,5,0.4,0.6
"167","173","N Adams St & Lee Hwy","31030","1404673090071","38.89593","-77.089006","true","false","1335369060000","","false","true",21,3,"1404668831758",2014-07-06 13:47:11,24,0.875,0.125
"168","174","15th & N Scott St","31031","1404673096772","38.89054","-77.08095","true","false","1335362100000","","false","true",21,26,"1404672372017",2014-07-06 14:46:12,47,0.446808510638298,0.553191489361702
"169","175","Washington Blvd & 7th St N","31032","1404673096453","38.880834","-77.091129","true","false","1335794400000","","false","true",20,27,"1404656160798",2014-07-06 10:16:00,47,0.425531914893617,0.574468085106383
"170","176","Ballston Metro / N Stuart & 9th St N","31037","1404673272206","38.881044","-77.111768","true","false","1335817440000","","false","true",24,4,"1404672788781",2014-07-06 14:53:08,28,0.857142857142857,0.142857142857143
"171","177","N Randolph St & Fairfax Dr","31034","1404673219399","38.882629","-77.109366","true","false","1335542580000","","false","true",20,27,"1404672735929",2014-07-06 14:52:15,47,0.425531914893617,0.574468085106383
"172","178","Jefferson Memorial","31249","1404673224820","38.879819","-77.037413","true","false","1335969180000","","false","true",12,8,"1404673223945",2014-07-06 15:00:23,20,0.6,0.4
"173","179","Good Hope Rd & 14th St SE","31803","1404673227516","38.866611","-76.985238","true","false","1335981060000","","false","true",24,27,"1404663702847",2014-07-06 12:21:42,51,0.470588235294118,0.529411764705882
"174","180","Glebe Rd & 11th St N","31038","1404673186829","38.883921","-77.116817","true","false","1337269200000","","false","true",22,24,"1404667358056",2014-07-06 13:22:38,46,0.478260869565217,0.521739130434783
"175","181","N Quincy St & Wilson Blvd","31039","1404673232799","38.880151","-77.107673","true","false","1338301620000","","false","true",12,29,"1404671041737",2014-07-06 14:24:01,41,0.292682926829268,0.707317073170732
"176","182","Fairfax Dr & Kenmore St","31040","1404673307161","38.884616","-77.10108","true","false","1366814880000","","false","true",21,26,"1404655199283",2014-07-06 09:59:59,47,0.446808510638298,0.553191489361702
"177","183","Gallaudet / 8th St & Florida Ave NE","31508","1404673169308","38.90509","-76.9941","true","false","1342033620000","","false","true",1,11,"1404672926162",2014-07-06 14:55:26,12,0.0833333333333333,0.916666666666667
"178","185","20th & L St NW","31250","1404673301600","38.903584","-77.044789","true","false","1340632500000","","false","true",1,10,"1404668819695",2014-07-06 13:46:59,11,0.0909090909090909,0.909090909090909
"179","186","12th & L St NW","31251","1404673174936","38.903819","-77.0284","true","false","1340639640000","","false","true",12,10,"1404672276402",2014-07-06 14:44:36,22,0.545454545454545,0.454545454545455
"180","187","21st St & Pennsylvania Ave NW","31252","1404673201814","38.901539","-77.046564","true","false","1340811180000","","false","true",1,12,"1404672718031",2014-07-06 14:51:58,13,0.0769230769230769,0.923076923076923
"181","188","19th & K St NW","31253","1404673324851","38.902204","-77.04337","true","false","1340801880000","","false","true",20,12,"1404672665718",2014-07-06 14:51:05,32,0.625,0.375
"182","189","Prince St & Union St","31041","1404673269833","38.803124","-77.040363","true","false","1346070420000","","false","true",6,26,"1404670561946",2014-07-06 14:16:01,32,0.1875,0.8125
"183","190","Market Square / King St & Royal St","31042","1404673215901","38.804718","-77.043363","true","false","1346077680000","","false","true",5,19,"1404672614860",2014-07-06 14:50:14,24,0.208333333333333,0.791666666666667
"184","191","Saint Asaph St & Pendleton  St","31043","1404673138034","38.810743","-77.044664","true","false","1346084880000","","false","true",24,27,"1404671852891",2014-07-06 14:37:32,51,0.470588235294118,0.529411764705882
"185","192","King St & Patrick St","31044","1404673114338","38.805317","-77.049883","true","false","1346442900000","","false","true",25,26,"1404665649391",2014-07-06 12:54:09,51,0.490196078431373,0.509803921568627
"186","193","15th & K St NW","31254","1404673227009","38.902","-77.03353","true","false","1341232920000","","false","true",21,7,"1404671778109",2014-07-06 14:36:18,28,0.75,0.25
"187","194","Commerce St & Fayette St","31045","1404673195139","38.805648","-77.05293","true","false","1346442960000","","false","true",22,29,"1404664135730",2014-07-06 12:28:55,51,0.431372549019608,0.568627450980392
"188","195","Henry St & Pendleton St","31046","1404673218251","38.811456","-77.050276","true","false","1346442960000","","false","true",3,27,"1404667225877",2014-07-06 13:20:25,30,0.1,0.9
"189","196","Braddock Rd Metro","31047","1404673269086","38.814577","-77.052808","true","false","1346442960000","","false","true",8,24,"1404672302252",2014-07-06 14:45:02,32,0.25,0.75
"190","197","King St Metro","31048","1404673212060","38.805767","-77.06072","true","false","1346443020000","","false","true",22,6,"1404670257314",2014-07-06 14:10:57,28,0.785714285714286,0.214285714285714
"191","198","24th & N St NW","31255","1404673244567","38.9066","-77.05152","true","false","1341575340000","","false","true",8,1,"1404672760381",2014-07-06 14:52:40,9,0.888888888888889,0.111111111111111
"192","199","10th & E St NW","31256","1404673090686","38.895914","-77.026064","true","false","1342109700000","","false","true",1,7,"1404671072056",2014-07-06 14:24:32,8,0.125,0.875
"193","200","22nd & I St NW / Foggy Bottom","31257","1404673324400","38.90088","-77.048911","true","false","1342442220000","","false","true",23,28,"1404673322310",2014-07-06 15:02:02,51,0.450980392156863,0.549019607843137
"194","201","Utah St & 11th St N ","31049","1404673093424","38.883669","-77.113905","true","false","1342539420000","","false","true",25,13,"1404671402556",2014-07-06 14:30:02,38,0.657894736842105,0.342105263157895
"195","202","Barton St & 10th St N","31050","1404673210634","38.884961","-77.08777","true","false","1346771820000","","false","true",19,28,"1404671019631",2014-07-06 14:23:39,47,0.404255319148936,0.595744680851064
"196","203","Arlington Blvd & N Queen St","31051","1404673286127","38.889365","-77.077294","true","false","1346776740000","","false","true",23,24,"1404672801526",2014-07-06 14:53:21,47,0.48936170212766,0.51063829787234
"197","204","Lincoln Memorial","31258","1404673322340","38.888251","-77.049426","true","false","1349268360000","","false","true",25,6,"1404673321111",2014-07-06 15:02:01,31,0.806451612903226,0.193548387096774
"198","206","20th St & Virginia Ave NW","31259","1404673186848","38.894722","-77.045128","true","false","1359646980000","","false","true",1,8,"1404668481787",2014-07-06 13:41:21,9,0.111111111111111,0.888888888888889
"199","207","5th St & Massachusetts Ave NW","31265","1404673252993","38.90093","-77.018677","true","false","1367842440000","","false","true",2,11,"1404673252377",2014-07-06 15:00:52,13,0.153846153846154,0.846153846153846
"200","208","39th & Veazey St NW","31308","1404673185172","38.943837","-77.077078","true","false","1360598160000","","false","true",20,4,"1404664204940",2014-07-06 12:30:04,24,0.833333333333333,0.166666666666667
"201","209","Fessenden St & Wisconsin Ave NW","31309","1404673142224","38.954812","-77.082426","true","false","1360588560000","","false","true",25,26,"1404670247869",2014-07-06 14:10:47,51,0.490196078431373,0.509803921568627
"202","210","M St & Delaware Ave NE","31627","1404673144588","38.905707","-77.003041","true","false","1360929900000","","false","true",20,12,"1404672902240",2014-07-06 14:55:02,32,0.625,0.375
"203","211","Columbia Pike & S Courthouse Rd","31053","1404673234221","38.863833","-77.080319","true","false","1364482620000","","false","true",24,27,"1404667119075",2014-07-06 13:18:39,51,0.470588235294118,0.529411764705882
"204","212","Walter Reed Community Center / Walter Reed Dr & 16th St S","31054","1404673158861","38.857803","-77.086733","true","false","1364466180000","","false","true",12,29,"1404622957037",2014-07-06 01:02:37,41,0.292682926829268,0.707317073170732
"205","213","28th St S & S Meade St","31055","1404673205104","38.846222","-77.069275","true","false","1364476320000","","false","true",24,27,"1404654627493",2014-07-06 09:50:27,51,0.470588235294118,0.529411764705882
"206","214","18th St & Wyoming Ave NW","31114","1404673272447","38.918809","-77.041571","true","false","1365003300000","","false","true",5,3,"1404673271638",2014-07-06 15:01:11,8,0.625,0.375
"207","215","5th & Kennedy St NW","31403","1404673250678","38.956595","-77.019815","true","false","1365777420000","","false","true",22,29,"1404664741701",2014-07-06 12:39:01,51,0.431372549019608,0.568627450980392
"208","216","Georgia Ave & Emerson St NW","31405","1404673256988","38.949662","-77.027333","true","false","1365783540000","","false","true",23,5,"1404662628802",2014-07-06 12:03:48,28,0.821428571428571,0.178571428571429
"209","217","14th & Upshur St NW","31406","1404673226478","38.942016","-77.032652","true","false","1365794820000","","false","true",21,7,"1404665273786",2014-07-06 12:47:53,28,0.75,0.25
"210","218","14th St & Colorado Ave NW","31407","1404673275134","38.956432","-77.032947","true","false","1365798900000","","false","true",22,5,"1404672549597",2014-07-06 14:49:09,27,0.814814814814815,0.185185185185185
"211","219","S Troy St & 26th St S","31056","1404673205500","38.847977","-77.075104","true","false","1366725840000","","false","true",2,3,"1404661271344",2014-07-06 11:41:11,5,0.4,0.6
"212","220","S Four Mile Run Dr & S Shirlington Rd","31057","1404673170415","38.8444","-77.085931","true","false","1366729200000","","false","true",20,27,"1404672445137",2014-07-06 14:47:25,47,0.425531914893617,0.574468085106383
"213","221","S Oakland St & Columbia Pike","31058","1404673277150","38.860789","-77.09586","true","false","1366735380000","","false","true",22,25,"1404666423346",2014-07-06 13:07:03,47,0.468085106382979,0.531914893617021
"214","222","S Abingdon St & 36th St S","31059","1404673324492","38.835213","-77.094295","true","false","1366739700000","","false","true",22,25,"1404673076996",2014-07-06 14:57:56,47,0.468085106382979,0.531914893617021
"215","223","S Arlington Mill Dr & Campbell Ave","31060","1404673296702","38.84232","-77.089555","true","false","1366802400000","","false","true",24,26,"1404670603076",2014-07-06 14:16:43,50,0.48,0.52
"216","224","S Kenmore & 24th St S","31061","1404673174081","38.848454","-77.084918","true","false","1366825140000","","false","true",21,26,"1404649705880",2014-07-06 08:28:25,47,0.446808510638298,0.553191489361702
"217","225","13th St & Eastern Ave","32006","1404673301181","38.987","-77.029417","true","false","1380292680000","","false","true",25,26,"1404673299419",2014-07-06 15:01:39,51,0.490196078431373,0.509803921568627
"218","226","Wisconsin Ave & O St NW","31312","1404673287541","38.90849","-77.063586","true","false","1366910820000","","false","true",22,6,"1404672561549",2014-07-06 14:49:21,28,0.785714285714286,0.214285714285714
"219","227","S George Mason Dr & 13th St S","31062","1404673168769","38.854691","-77.100555","true","false","1372694040000","","false","true",24,19,"1404622978100",2014-07-06 01:02:58,43,0.558139534883721,0.441860465116279
"220","228","Connecticut & Nebraska Ave NW","31310","1404673194335","38.955016","-77.069956","true","false","1366894140000","","false","true",21,11,"1404669758720",2014-07-06 14:02:38,32,0.65625,0.34375
"221","229","17th St & Massachusetts Ave NW","31267","1404673290447","38.908142","-77.038359","true","false","1367851920000","","false","true",21,7,"1404672323844",2014-07-06 14:45:23,28,0.75,0.25
"222","230","15th & Euclid St  NW","31117","1404673278549","38.92333","-77.0352","true","false","1367856780000","","false","true",20,4,"1404673277746",2014-07-06 15:01:17,24,0.833333333333333,0.166666666666667
"223","231","8th & East Capitol St NE","31629","1404673188699","38.889988","-76.995193","true","false","1368545580000","","false","true",4,1,"1404672704369",2014-07-06 14:51:44,5,0.8,0.2
"224","232","New Jersey Ave & R St NW","31509","1404673201585","38.912659","-77.017669","true","false","1368532680000","","false","true",21,3,"1404672959364",2014-07-06 14:55:59,24,0.875,0.125
"225","233","15th & East Capitol St NE","31630","1404673217620","38.889908","-76.983326","true","false","1368541260000","","false","true",25,13,"1404672975176",2014-07-06 14:56:15,38,0.657894736842105,0.342105263157895
"226","234","8th & F St NE","31631","1404673294790","38.897274","-76.994749","true","false","1368552540000","","false","true",3,25,"1404672810644",2014-07-06 14:53:30,28,0.107142857142857,0.892857142857143
"227","235","18th St & Rhode Island Ave NE","31510","1404673312401","38.927095","-76.978924","true","false","1369915500000","","false","true",24,27,"1404670415958",2014-07-06 14:13:35,51,0.470588235294118,0.529411764705882
"228","236","15th & F St NE","31632","1404673329698","38.897195","-76.983575","true","false","1369928820000","","false","true",4,28,"1404672846026",2014-07-06 14:54:06,32,0.125,0.875
"229","237","12th & Irving St NE","31511","1404673113716","38.928644","-76.990955","true","false","1369923120000","","false","true",23,28,"1404670895102",2014-07-06 14:21:35,51,0.450980392156863,0.549019607843137
"230","238","34th St & Minnesota Ave SE","31709","1404673237768","38.884085","-76.957461","true","false","1370358840000","","false","true",21,25,"1404622972570",2014-07-06 01:02:52,46,0.456521739130435,0.543478260869565
"231","239","Alabama & MLK Ave SE","31800","1404673168468","38.843222","-76.999388","true","false","1370345160000","","false","true",23,24,"1404622979036",2014-07-06 01:02:59,47,0.48936170212766,0.51063829787234
"232","240","Pleasant St & MLK Ave SE","31807","1404673288717","38.863897","-76.990037","true","false","1370351820000","","false","true",22,25,"1404650613185",2014-07-06 08:43:33,47,0.468085106382979,0.531914893617021
"233","241","Neal St & Trinidad Ave NE","31512","1404673315355","38.903732","-76.987211","true","false","1371221640000","","false","true",20,4,"1404671624420",2014-07-06 14:33:44,24,0.833333333333333,0.166666666666667
"234","242","13th & U St NW","31268","1404673250907","38.916794","-77.029779","true","false","1371231240000","","false","true",13,13,"1404673249943",2014-07-06 15:00:49,26,0.5,0.5
"235","243","S George Mason Dr & Four Mile Run","31063","1404673242008","38.852248","-77.105022","true","false","1372690500000","","false","true",22,25,"1404660905324",2014-07-06 11:35:05,47,0.468085106382979,0.531914893617021
"236","244","S Stafford & 34th St S","31064","1404673235971","38.834108","-77.087323","true","false","1372701360000","","false","true",23,28,"1404647850774",2014-07-06 07:57:30,51,0.450980392156863,0.549019607843137
"237","245","N Pershing Dr & Wayne St","31065","1404673197041","38.880705","-77.08596","true","false","1372680300000","","false","true",20,27,"1404666996288",2014-07-06 13:16:36,47,0.425531914893617,0.574468085106383
"238","246","Columbia Pike & S Orme St","31066","1404673243419","38.867262","-77.072315","true","false","1372684620000","","false","true",21,26,"1404671836733",2014-07-06 14:37:16,47,0.446808510638298,0.553191489361702
"239","247","3rd St & Pennsylvania Ave SE","31269","1404673153147","38.887378","-77.001955","true","false","1374598740000","","false","true",23,28,"1404673152057",2014-07-06 14:59:12,51,0.450980392156863,0.549019607843137
"240","248","8th & D St NW","31270","1404673120721","38.894851","-77.02324","true","false","1374581640000","","false","true",19,5,"1404671671778",2014-07-06 14:34:31,24,0.791666666666667,0.208333333333333
"241","249","3rd & Elm St NW","31118","1404673102083","38.917622","-77.01597","true","false","1374589740000","","false","true",12,6,"1404672377035",2014-07-06 14:46:17,18,0.666666666666667,0.333333333333333
"242","250","Rhode Island Ave & V St NE","31513","1404673291198","38.918155","-77.004746","true","false","1375196700000","","false","true",24,4,"1404671358837",2014-07-06 14:29:18,28,0.857142857142857,0.142857142857143
"243","251","Constitution Ave & 2nd St NW/DOL","31271","1404673279891","38.892275","-77.013917","true","false","1375190280000","","false","true",5,6,"1404673192534",2014-07-06 14:59:52,11,0.454545454545455,0.545454545454545
"244","252","Washington & Independence Ave SW/HHS","31272","1404673329160","38.88731","-77.01397","true","false","1375445040000","","false","true",19,16,"1404673097898",2014-07-06 14:58:17,35,0.542857142857143,0.457142857142857
"245","253","Independence Ave & L'Enfant Plaza SW/DOE","31633","1404673231045","38.887397","-77.026154","true","false","1375789680000","","false","true",25,26,"1404672989287",2014-07-06 14:56:29,51,0.490196078431373,0.509803921568627
"246","254","Hamlin & 7th St NE","31514","1404673127364","38.927497","-76.997194","true","false","1376653440000","","false","true",20,4,"1404670319668",2014-07-06 14:11:59,24,0.833333333333333,0.166666666666667
"247","255","Columbia Pike & S Walter Reed Dr","31067","1404673144886","38.862478","-77.086599","true","false","1377605340000","","false","true",12,3,"1404672419859",2014-07-06 14:46:59,15,0.8,0.2
"248","256","Columbia Pike & S Dinwiddie St / Arlington Mill Community Center","31068","1404673145288","38.856319","-77.11153","true","false","1377776460000","","false","true",23,28,"1404609645010",2014-07-05 21:20:45,51,0.450980392156863,0.549019607843137
"249","257","Pershing & N George Mason Dr","31069","1404673152537","38.871822","-77.107906","true","false","1377792000000","","false","true",4,1,"1404668325836",2014-07-06 13:38:45,5,0.8,0.2
"250","258","Fenton St & New York Ave ","32001","1404673315908","38.985404","-77.023082","true","false","1380292620000","","false","true",19,5,"1404671866660",2014-07-06 14:37:46,24,0.791666666666667,0.208333333333333
"251","259","Bethesda Ave & Arlington Blvd","32002","1404673235875","38.981103","-77.097426","true","false","1380292620000","","false","true",23,5,"1404671580845",2014-07-06 14:33:00,28,0.821428571428571,0.178571428571429
"252","260","Montgomery Ave & Waverly St ","32003","1404673129791","38.983838","-77.09221","true","false","1382208480000","","false","true",21,26,"1404668074447",2014-07-06 13:34:34,47,0.446808510638298,0.553191489361702
"253","261","Fallsgrove Blvd & Fallsgrove Dr","32004","1404673115500","39.096312","-77.192672","true","false","1380292620000","","false","true",22,6,"1404656688712",2014-07-06 10:24:48,28,0.785714285714286,0.214285714285714
"254","262","Traville Gateway Dr & Gudelsky Dr","32005","1404673258451","39.093783","-77.202501","true","false","1380292680000","","false","true",24,4,"1404664256425",2014-07-06 12:30:56,28,0.857142857142857,0.142857142857143
"255","263","Norfolk Ave & Fairmont St","32000","1404673097033","38.988562","-77.096539","true","false","1380292560000","","false","true",19,28,"1404668498513",2014-07-06 13:41:38,47,0.404255319148936,0.595744680851064
"256","264","E Montgomery Ave & Maryland Ave","32007","1404673209494","39.084125","-77.151291","true","false","1380292560000","","false","true",22,29,"1404606124795",2014-07-05 20:22:04,51,0.431372549019608,0.568627450980392
"257","265","Cordell & Norfolk Ave","32008","1404673317710","38.98954","-77.098029","true","false","1380292740000","","false","true",21,26,"1404669303812",2014-07-06 13:55:03,47,0.446808510638298,0.553191489361702
"258","266","Frederick Ave & Horners Ln","32009","1404673245238","39.094772","-77.145213","true","false","1380292740000","","false","true",21,26,"1404622970756",2014-07-06 01:02:50,47,0.446808510638298,0.553191489361702
"259","267","Philadelphia & Maple Ave","32010","1404673287666","38.98128","-77.011336","true","false","1380292740000","","false","true",22,29,"1404667793320",2014-07-06 13:29:53,51,0.431372549019608,0.568627450980392
"260","268","Maple & Ritchie Ave","32011","1404673156739","38.983627","-77.006311","true","false","1380292800000","","false","true",4,28,"1404672914319",2014-07-06 14:55:14,32,0.125,0.875
"261","269","Silver Spring Metro/Colesville Rd & Wayne Ave","32012","1404673267626","38.99521","-77.02918","true","false","1380292800000","","false","true",4,27,"1404670824290",2014-07-06 14:20:24,31,0.129032258064516,0.870967741935484
"262","270","Montgomery & East Ln","32013","1404673304419","38.983525","-77.095367","true","false","1380292800000","","false","true",24,19,"1404672579079",2014-07-06 14:49:39,43,0.558139534883721,0.441860465116279
"263","271","Friendship Hts Metro/Wisconsin Ave & Wisconsin Cir","32014","1404673319400","38.961763","-77.085998","true","false","1380292860000","","false","true",25,3,"1404666977369",2014-07-06 13:16:17,28,0.892857142857143,0.107142857142857
"264","272","14th & Belmont St NW","31119","1404673159085","38.921074","-77.031887","true","false","1380719160000","","false","true",2,7,"1404673157698",2014-07-06 14:59:17,9,0.222222222222222,0.777777777777778
"265","273","3rd & Tingey St SE","31634","1404673216859","38.87501","-77.0024","true","false","1380722700000","","false","true",12,10,"1404671015662",2014-07-06 14:23:35,22,0.545454545454545,0.454545454545455
"266","274","10th & Florida Ave NW","31120","1404673128999","38.920387","-77.025672","true","false","1381320720000","","false","true",6,26,"1404672613847",2014-07-06 14:50:13,32,0.1875,0.8125
"267","275","Potomac Ave & 8th St SE","31635","1404673274389","38.876737","-76.994468","true","false","1381333800000","","false","true",12,6,"1404667343151",2014-07-06 13:22:23,18,0.666666666666667,0.333333333333333
"268","276","Crabbs Branch Way & Redland Rd","32015","1404673274739","39.120045","-77.156985","true","false","1382100480000","","false","true",23,28,"1404577675018",2014-07-05 12:27:55,51,0.450980392156863,0.549019607843137
"269","277","Fallsgrove Dr & W Montgomery Ave","32016","1404673106614","39.099376","-77.188014","true","false","1382120580000","","false","true",3,25,"1404658001727",2014-07-06 10:46:41,28,0.107142857142857,0.892857142857143
"270","278","Monroe St & Monroe Pl","32017","1404673255498","39.083705","-77.149443","true","false","1383309240000","","false","true",23,27,"1404622963403",2014-07-06 01:02:43,50,0.46,0.54
"271","279","Needwood Rd & Eagles Head Ct","32018","1404673199333","39.123513","-77.15741","true","false","1382107020000","","false","true",22,28,"1404607447230",2014-07-05 20:44:07,50,0.44,0.56
"272","280","East West Hwy & Blair Mill Rd","32019","1404673149480","38.990249","-77.02935","true","false","1383148920000","","false","true",23,28,"1404673148492",2014-07-06 14:59:08,51,0.450980392156863,0.549019607843137
"273","281","Crabbs Branch Way & Calhoun Pl","32020","1404673288939","39.107709","-77.152072","true","false","1382111460000","","false","true",24,27,"1404622959939",2014-07-06 01:02:39,51,0.470588235294118,0.529411764705882
"274","282","47th & Elm St","32021","1404673289049","38.982456","-77.091991","true","false","1382208540000","","false","true",22,29,"1404666983876",2014-07-06 13:16:23,51,0.431372549019608,0.568627450980392
"275","283","Garland Ave & Walden Rd","32022","1404673136766","39.000578","-77.00149","true","false","1383059580000","","false","true",20,3,"1404664261282",2014-07-06 12:31:01,23,0.869565217391304,0.130434782608696
"276","284","Montgomery College/W Campus Dr & Mannakee St","32023","1404673239140","39.095661","-77.159048","true","false","1382199120000","","false","true",24,6,"1404622960056",2014-07-06 01:02:40,30,0.8,0.2
"277","285","Fenton St & Gist Ave","32024","1404673258807","38.989724","-77.023854","true","false","1383054960000","","false","true",22,25,"1404661914302",2014-07-06 11:51:54,47,0.468085106382979,0.531914893617021
"278","286","Carroll & Westmoreland Ave","32025","1404673125717","38.975","-77.01121","true","false","1383065460000","","false","true",22,29,"1404672882840",2014-07-06 14:54:42,51,0.431372549019608,0.568627450980392
"279","287","Carroll & Ethan Allen Ave","32026","1404673198838","38.977933","-77.006472","true","false","1383070440000","","false","true",12,6,"1404672715454",2014-07-06 14:51:55,18,0.666666666666667,0.333333333333333
"280","288","Battery Ln & Trolley Trail","32027","1404673119657","38.992375","-77.100104","true","false","1382712300000","","false","true",20,4,"1404672126317",2014-07-06 14:42:06,24,0.833333333333333,0.166666666666667
"281","289","Norfolk & Rugby Ave","32028","1404673235317","38.990639","-77.100239","true","false","1382715180000","","false","true",21,26,"1404668844919",2014-07-06 13:47:24,47,0.446808510638298,0.553191489361702
"282","290","Offutt Ln & Chevy Chase Dr","32029","1404673233176","38.977093","-77.094589","true","false","1382722080000","","false","true",21,26,"1404671299577",2014-07-06 14:28:19,47,0.446808510638298,0.553191489361702
"283","291","Broschart & Blackwell Rd","32030","1404673165672","39.102099","-77.200322","true","false","1382798640000","","false","true",23,28,"1404622962113",2014-07-06 01:02:42,51,0.450980392156863,0.549019607843137
"284","292","Taft St & E Gude Dr","32031","1404673247366","39.094103","-77.132954","true","false","1382804520000","","false","true",23,28,"1404622959473",2014-07-06 01:02:39,51,0.450980392156863,0.549019607843137
"285","293","Fleet St & Ritchie Pkwy","32032","1404673200158","39.076331","-77.141378","true","false","1382809500000","","false","true",22,29,"1404622958698",2014-07-06 01:02:38,51,0.431372549019608,0.568627450980392
"286","294","Piccard & W Gude Dr","32033","1404673177812","39.102212","-77.177091","true","false","1382795700000","","false","true",3,29,"1404536464696",2014-07-05 01:01:04,32,0.09375,0.90625
"287","295","Ripley & Bonifant St","32034","1404673269089","38.992679","-77.029457","true","false","1383141360000","","false","true",24,27,"1404664265929",2014-07-06 12:31:05,51,0.470588235294118,0.529411764705882
"288","296","Georgia Ave & Spring St","32035","1404673298424","38.999388","-77.031555","true","false","1383146520000","","false","true",22,25,"1404656395275",2014-07-06 10:19:55,47,0.468085106382979,0.531914893617021
"289","297","Fenton St & Ellsworth Dr ","32036","1404673157743","38.997033","-77.025608","true","false","1383135960000","","false","true",25,26,"1404668595820",2014-07-06 13:43:15,51,0.490196078431373,0.509803921568627
"290","298","King Farm Blvd & Pleasant Dr","32037","1404673214493","39.114688","-77.171487","true","false","1383323580000","","false","true",23,4,"1404659635294",2014-07-06 11:13:55,27,0.851851851851852,0.148148148148148
"291","299","King Farm Blvd & Piccard Dr","32038","1404673160737","39.110314","-77.182669","true","false","1383318120000","","false","true",23,27,"1404659934198",2014-07-06 11:18:54,50,0.46,0.54
"292","301","Calvert St & Woodley Pl NW","31121","1404673328206","38.923583","-77.050046","true","false","1383657120000","","false","true",21,6,"1404673086397",2014-07-06 14:58:06,27,0.777777777777778,0.222222222222222
"293","302","New Jersey Ave & N St NW/Dunbar HS","31636","1404673215297","38.90706","-77.015231","true","false","1383662880000","","false","true",23,5,"1404671611103",2014-07-06 14:33:31,28,0.821428571428571,0.178571428571429
"294","303","Nannie Helen Burroughs Ave & 49th St NE","31710","1404673202932","38.898536","-76.931862","true","false","1383923280000","","false","true",23,24,"1404622964608",2014-07-06 01:02:44,47,0.48936170212766,0.51063829787234
"295","304","Deanwood Rec Center","31711","1404673177957","38.908473","-76.933099","true","false","1383923280000","","false","true",24,27,"1404661802559",2014-07-06 11:50:02,51,0.470588235294118,0.529411764705882
"296","305","Hains Point/Buckeye & Ohio Dr SW","31273","1404673117731","38.878433","-77.03023","true","false","1383929160000","","false","true",5,25,"1404672956188",2014-07-06 14:55:56,30,0.166666666666667,0.833333333333333
"297","306","Arlington Blvd & Fillmore St","31070","1404673194958","38.873755","-77.089233","true","false","1384527780000","","false","true",23,24,"1404662959288",2014-07-06 12:09:19,47,0.48936170212766,0.51063829787234
"298","307","Long Bridge Park/Long Bridge Dr & 6th St S","31071","1404673191964","38.86646","-77.04826","true","false","1384520760000","","false","true",21,3,"1404622960530",2014-07-06 01:02:40,24,0.875,0.125
"299","308","Old Georgetown Rd & Southwick St","32039","1404673267061","38.999634","-77.109647","true","false","1384367940000","","false","true",25,3,"1404670896140",2014-07-06 14:21:36,28,0.892857142857143,0.107142857142857
"300","309","Friendship Blvd & Willard Ave","32040","1404673291566","38.96115","-77.088659","true","false","1384355760000","","false","true",22,6,"1404591692826",2014-07-05 16:21:32,28,0.785714285714286,0.214285714285714
"301","310","North Capitol St & G Pl NE","31637","1404673196278","38.899703","-77.008911","true","false","1386954360000","","false","true",20,7,"1404669744516",2014-07-06 14:02:24,27,0.740740740740741,0.259259259259259
"302","311","31st & Woodrow St S","31072","1404673299084","38.837666","-77.09482","true","false","1387298640000","","false","true",22,25,"1404653183769",2014-07-06 09:26:23,47,0.468085106382979,0.531914893617021
"303","312","Washington Blvd & Walter Reed Dr ","31073","1404673140590","38.873219","-77.082104","true","false","1387287180000","","false","true",22,29,"1404622965805",2014-07-06 01:02:45,51,0.431372549019608,0.568627450980392
"304","313","Thomas Jefferson Cmty Ctr / 2nd St S & Ivy","31074","1404673198180","38.869675","-77.093586","true","false","1386774900000","","false","true",19,28,"1404650371473",2014-07-06 08:39:31,47,0.404255319148936,0.595744680851064
"305","314","Connecticut Ave & Tilden St NW","31313","1404673143585","38.941154","-77.062036","true","false","1386954480000","","false","true",20,3,"1404670060763",2014-07-06 14:07:40,23,0.869565217391304,0.130434782608696
"306","315","Medical Center Dr & Key West Ave","32041","1404673193009","39.103091","-77.196442","true","false","1389273960000","","false","true",22,28,"1404651377613",2014-07-06 08:56:17,50,0.44,0.56
"307","316","Shady Grove Hospital","32042","1404673231970","39.097636","-77.196636","true","false","1389287040000","","false","true",24,4,"1404552055372",2014-07-05 05:20:55,28,0.857142857142857,0.142857142857143
"308","317","Veterans Pl & Pershing Dr ","32043","1404673097843","38.997445","-77.023894","true","false","1391876460000","","false","true",21,26,"1404622978927",2014-07-06 01:02:58,47,0.446808510638298,0.553191489361702
"309","318","Rockville Metro East","32044","1404673163954","39.085394","-77.145803","true","false","1393000800000","","false","true",22,27,"1404622969261",2014-07-06 01:02:49,49,0.448979591836735,0.551020408163265
"310","319","1st & H St NW","31638","1404673249876","38.900358","-77.012108","true","false","1392727500000","","false","true",3,25,"1404673006494",2014-07-06 14:56:46,28,0.107142857142857,0.892857142857143
"311","320","Fort Totten Metro","31515","1404673096709","38.952369","-77.002721","true","false","1392825840000","","false","true",20,8,"1404663702938",2014-07-06 12:21:42,28,0.714285714285714,0.285714285714286
"312","321","Takoma Metro","31408","1404673315000","38.975219","-77.016855","true","false","1392833400000","","false","true",21,7,"1404664394423",2014-07-06 12:33:14,28,0.75,0.25
"313","322","Rhode Island Ave Metro","31516","1404673121684","38.920682","-76.995876","true","false","1393259520000","","false","true",2,11,"1404671914389",2014-07-06 14:38:34,13,0.153846153846154,0.846153846153846
"314","323","Rolfe St & 9th St S","31075","1404673130044","38.866471","-77.076131","true","false","1394630640000","","false","true",21,25,"1404660657839",2014-07-06 11:30:57,46,0.456521739130435,0.543478260869565
"315","324","Shirlington Transit Center / S Quincy & Randolph St","31076","1404673183716","38.839912","-77.087083","true","false","1394637480000","","false","true",3,25,"1404672458508",2014-07-06 14:47:38,28,0.107142857142857,0.892857142857143
"316","325","Shady Grove Metro West","32045","1404673281343","39.119765","-77.166093","true","false","1397837820000","","false","true",23,5,"1404622958197",2014-07-06 01:02:38,28,0.821428571428571,0.178571428571429
"317","326","River Rd & Landy Ln","32046","1404673204914","38.964992","-77.103381","true","false","1396972380000","","false","true",21,7,"1404672962935",2014-07-06 14:56:02,28,0.75,0.25
"318","327","Rockville Metro West","32047","1404673293879","39.084379","-77.146866","true","false","1397847900000","","false","true",23,5,"1404563620017",2014-07-05 08:33:40,28,0.821428571428571,0.178571428571429
"319","328","Bethesda Metro","32048","1404673222675","38.984691","-77.094537","true","false","1398786060000","","false","true",21,27,"1404668904980",2014-07-06 13:48:24,48,0.4375,0.5625
"320","329","Iwo Jima Memorial/N Meade & 14th St N","31077","1404673240593","38.88992","-77.071301","true","false","1402585680000","","false","true",7,24,"1404672997501",2014-07-06 14:56:37,31,0.225806451612903,0.774193548387097
