"","id","name","terminalName","lastCommWithServer","lat","long","installed","locked","installDate","removalDate","temporary","public","nbBikes","nbEmptyDocks","latestUpdateTime","date","total","percentBikes","percentDocks"
"1","1","20th & Bell St","31000","1404070893833","38.8561","-77.0512","true","false","1316059200000","","false","true",23,25,"1404070892097",2014-06-29 15:41:32,48,0.479166666666667,0.520833333333333
"2","2","18th & Eads St.","31001","1404070901260","38.85725","-77.05332","true","false","1284989400000","","false","true",20,28,"1404070824518",2014-06-29 15:40:24,48,0.416666666666667,0.583333333333333
"3","3","20th & Crystal Dr","31002","1404070764533","38.8564","-77.0492","true","false","1284464580000","","false","true",1,8,"1404070522526",2014-06-29 15:35:22,9,0.111111111111111,0.888888888888889
"4","4","15th & Crystal Dr","31003","1404070806814","38.86017","-77.049593","true","false","1284464880000","","false","true",2,3,"1404070805798",2014-06-29 15:40:05,5,0.4,0.6
"5","5","Aurora Hills Community Ctr/18th & Hayes St","31004","1404070725827","38.857866","-77.05949","true","false","1284464880000","","false","true",24,21,"1404068793829",2014-06-29 15:06:33,45,0.533333333333333,0.466666666666667
"6","6","12th & Hayes St /  Pentagon City Metro","31005","1404070883294","38.862303","-77.059936","true","false","1284464940000","","false","true",5,28,"1404070399380",2014-06-29 15:33:19,33,0.151515151515152,0.848484848484849
"7","7","S Joyce & Army Navy Dr","31006","1404070734554","38.8637","-77.0633","true","false","1284464940000","","false","true",23,25,"1404069527323",2014-06-29 15:18:47,48,0.479166666666667,0.520833333333333
"8","8","Crystal City Metro / 18th & Bell St","31007","1404070923860","38.8573","-77.0511","true","false","1284465000000","","false","true",22,6,"1404070921659",2014-06-29 15:42:01,28,0.785714285714286,0.214285714285714
"9","9","12th & Army Navy Dr","31008","1404070729917","38.8629","-77.0528","true","false","1284465000000","","false","true",24,21,"1404064127130",2014-06-29 13:48:47,45,0.533333333333333,0.466666666666667
"10","10","27th & Crystal Dr","31009","1404070683847","38.848441","-77.051516","true","false","1284465060000","","false","true",20,8,"1404070392860",2014-06-29 15:33:12,28,0.714285714285714,0.285714285714286
"11","11","S Glebe & Potomac Ave","31010","1404070721726","38.8426","-77.0502","true","false","1284465120000","","false","true",17,29,"1404070623482",2014-06-29 15:37:03,46,0.369565217391304,0.630434782608696
"12","12","23rd & Crystal Dr","31011","1404070720021","38.8533","-77.0498","true","false","1284465120000","","false","true",24,30,"1404070719390",2014-06-29 15:38:39,54,0.444444444444444,0.555555555555556
"13","13","26th & S Clark St","31012","1404070727021","38.850688","-77.05152","true","false","1284465300000","","false","true",17,29,"1404060824883",2014-06-29 12:53:44,46,0.369565217391304,0.630434782608696
"14","14","19th St & Pennsylvania Ave NW","31100","1404070899025","38.9003","-77.0429","true","false","1284465360000","","false","true",2,7,"1404070173473",2014-06-29 15:29:33,9,0.222222222222222,0.777777777777778
"15","15","14th & V St NW","31101","1404070800244","38.9176","-77.0321","true","false","1284465420000","","false","true",20,17,"1404070798400",2014-06-29 15:39:58,37,0.540540540540541,0.459459459459459
"16","16","11th & Kenyon St NW","31102","1404070881041","38.929464","-77.027822","true","false","1286539080000","","false","true",1,19,"1404070638492",2014-06-29 15:37:18,20,0.05,0.95
"17","17","16th & Harvard St NW","31103","1404070818382","38.926088","-77.036536","true","false","1284465480000","","false","true",1,23,"1404070093401",2014-06-29 15:28:13,24,0.0416666666666667,0.958333333333333
"18","18","Adams Mill & Columbia Rd NW","31104","1404070856772","38.922925","-77.042581","true","false","1284465540000","","false","true",1,6,"1404070373316",2014-06-29 15:32:53,7,0.142857142857143,0.857142857142857
"19","19","14th & Harvard St NW","31105","1404070802621","38.9268","-77.0322","true","false","1284465540000","","false","true",21,7,"1404070077216",2014-06-29 15:27:57,28,0.75,0.25
"20","20","Calvert & Biltmore St NW","31106","1404070790495","38.923203","-77.047637","true","false","1284465600000","","false","true",1,17,"1404070548045",2014-06-29 15:35:48,18,0.0555555555555556,0.944444444444444
"21","21","Lamont & Mt Pleasant NW","31107","1404070896355","38.9319","-77.0388","true","false","1284465600000","","false","true",13,10,"1404070894743",2014-06-29 15:41:34,23,0.565217391304348,0.434782608695652
"22","22","4th & M St SW","31108","1404070864256","38.8767","-77.0178","true","false","1284465660000","","false","true",13,15,"1404070138200",2014-06-29 15:28:58,28,0.464285714285714,0.535714285714286
"23","23","15th & P St NW","31201","1404070893996","38.90985","-77.034438","true","false","1284465660000","","false","true",5,27,"1404070851587",2014-06-29 15:40:51,32,0.15625,0.84375
"24","24","14th & R St NW","31202","1404070896121","38.912682","-77.031681","true","false","1284465720000","","false","true",3,25,"1404070653511",2014-06-29 15:37:33,28,0.107142857142857,0.892857142857143
"25","25","14th & Rhode Island Ave NW","31203","1404070854181","38.9086","-77.0323","true","false","1284465780000","","false","true",17,14,"1404070852679",2014-06-29 15:40:52,31,0.548387096774194,0.451612903225806
"26","26","20th & E St NW","31204","1404070914707","38.8963","-77.045","true","false","1284465840000","","false","true",21,3,"1404070900462",2014-06-29 15:41:40,24,0.875,0.125
"27","27","21st & I St NW","31205","1404070848475","38.9008","-77.047","true","false","1283861040000","","false","true",20,22,"1404069751055",2014-06-29 15:22:31,42,0.476190476190476,0.523809523809524
"28","28","Georgia & New Hampshire Ave NW","31400","1404070755892","38.936043","-77.024649","true","false","1284465900000","","false","true",20,4,"1404070754477",2014-06-29 15:39:14,24,0.833333333333333,0.166666666666667
"29","29","14th St & Spring Rd NW","31401","1404070911118","38.9375","-77.0328","true","false","1284465960000","","false","true",21,27,"1404070909770",2014-06-29 15:41:49,48,0.4375,0.5625
"30","30","John McCormack Dr & Michigan Ave NE","31502","1404070751717","38.9346","-76.9955","true","false","1284465960000","","false","true",24,21,"1404068819551",2014-06-29 15:06:59,45,0.533333333333333,0.466666666666667
"31","31","5th & K St NW","31600","1404070789851","38.90304","-77.019027","true","false","1284466020000","","false","true",9,13,"1404069946729",2014-06-29 15:25:46,22,0.409090909090909,0.590909090909091
"32","32","19th & East Capitol St SE","31601","1404070881543","38.8896","-76.9769","true","false","1284466020000","","false","true",17,5,"1404070880625",2014-06-29 15:41:20,22,0.772727272727273,0.227272727272727
"33","33","Park Rd & Holmead Pl NW","31602","1404070869586","38.9308","-77.0315","true","false","1284466080000","","false","true",4,29,"1404070468437",2014-06-29 15:34:28,33,0.121212121212121,0.878787878787879
"34","34","Good Hope & Naylor Rd SE","31700","1404070758043","38.8601","-76.9672","true","false","1284466140000","","false","true",22,26,"1403977894709",2014-06-28 13:51:34,48,0.458333333333333,0.541666666666667
"35","35","Connecticut Ave & Newark St NW / Cleveland Park","31305","1404070707451","38.934267","-77.057979","true","false","1289241840000","","false","true",23,25,"1404070454878",2014-06-29 15:34:14,48,0.479166666666667,0.520833333333333
"36","36","Randle Circle & Minnesota Ave SE","31702","1404070764792","38.878","-76.9607","true","false","1284466200000","","false","true",21,27,"1403930184152",2014-06-28 00:36:24,48,0.4375,0.5625
"37","37","Minnesota Ave Metro/DOES","31703","1404070716921","38.897063","-76.947446","true","false","1284466200000","","false","true",17,29,"1404069053788",2014-06-29 15:10:53,46,0.369565217391304,0.630434782608696
"38","38","Nannie Helen Burroughs & Minnesota Ave NE","31704","1404070842753","38.901385","-76.941877","true","false","1386766320000","1298396940000","false","true",24,21,"1403995482131",2014-06-28 18:44:42,45,0.533333333333333,0.466666666666667
"39","39","Anacostia Metro","31801","1404070734402","38.862669","-76.994637","true","false","1284466260000","","false","true",21,27,"1404068626950",2014-06-29 15:03:46,48,0.4375,0.5625
"40","40","Good Hope Rd & MLK Ave SE","31802","1404070822361","38.867373","-76.988039","true","false","1305288720000","","false","true",22,26,"1404068890309",2014-06-29 15:08:10,48,0.458333333333333,0.541666666666667
"41","41","19th & E Street NW","31206","1404070829515","38.8952","-77.0436","true","false","1284545040000","","false","true",17,29,"1404070022920",2014-06-29 15:27:02,46,0.369565217391304,0.630434782608696
"42","42","4th St & Rhode Island Ave NE","31500","1404070878940","38.919488","-77.000624","true","false","1289970000000","","false","true",25,13,"1404068947387",2014-06-29 15:09:07,38,0.657894736842105,0.342105263157895
"43","43","10th & U St NW","31111","1404070859247","38.9172","-77.0259","true","false","1285822380000","","false","true",17,5,"1404070374959",2014-06-29 15:32:54,22,0.772727272727273,0.227272727272727
"44","44","Georgia Ave and Fairmont St NW","31207","1404070701979","38.9249","-77.0222","true","false","1285041600000","","false","true",25,13,"1404070459481",2014-06-29 15:34:19,38,0.657894736842105,0.342105263157895
"45","45","1st & N St  SE","31209","1404070703961","38.8743","-77.0057","true","false","1285041600000","","false","true",22,23,"1404070702639",2014-06-29 15:38:22,45,0.488888888888889,0.511111111111111
"46","46","20th St & Florida Ave NW","31110","1404070892536","38.9154","-77.0446","true","false","1285217520000","","false","true",1,7,"1404070650048",2014-06-29 15:37:30,8,0.125,0.875
"47","47","7th & T St NW","31109","1404070834040","38.9155","-77.0222","true","false","1285735680000","","false","true",25,27,"1404070832033",2014-06-29 15:40:32,52,0.480769230769231,0.519230769230769
"48","48","23rd & Eads St","31013","1404070796320","38.853613","-77.053535","true","false","1287562620000","","false","true",23,25,"1404065156919",2014-06-29 14:05:56,48,0.479166666666667,0.520833333333333
"49","49","M St & New Jersey Ave SE","31208","1404070759376","38.8763","-77.0037","true","false","1285041600000","","false","true",4,26,"1404070033892",2014-06-29 15:27:13,30,0.133333333333333,0.866666666666667
"50","51","Massachusetts Ave & Dupont Circle NW","31200","1404070882872","38.9101","-77.0444","true","false","1284523200000","","false","true",25,24,"1404070765829",2014-06-29 15:39:25,49,0.510204081632653,0.489795918367347
"51","52","1st & M St NE","31603","1404070915541","38.9057","-77.0056","true","false","1287115200000","","false","true",4,25,"1404069841160",2014-06-29 15:24:01,29,0.137931034482759,0.862068965517241
"52","53","21st & M St NW","31212","1404070902345","38.90534","-77.046774","true","false","1285041600000","","false","true",5,28,"1404070835203",2014-06-29 15:40:35,33,0.151515151515152,0.848484848484849
"53","54","17th & K St NW","31213","1404070913155","38.90276","-77.03863","true","false","1306236960000","","false","true",21,7,"1404070187861",2014-06-29 15:29:47,28,0.75,0.25
"54","55","3rd & H St NW","31604","1404070793836","38.899408","-77.015289","true","false","1287028800000","","false","true",21,3,"1404070551988",2014-06-29 15:35:51,24,0.875,0.125
"55","56","3rd & D St SE","31605","1404070695983","38.8851","-77.0023","true","false","1287201600000","","false","true",3,2,"1404070485710",2014-06-29 15:34:45,5,0.6,0.4
"56","57","Potomac & Pennsylvania Ave SE","31606","1404070773452","38.8803","-76.9862","true","false","1287460800000","","false","true",21,30,"1404067958535",2014-06-29 14:52:38,51,0.411764705882353,0.588235294117647
"57","58","14th & D St SE","31607","1404070780114","38.884","-76.9861","true","false","1287374400000","","false","true",24,28,"1404070779484",2014-06-29 15:39:39,52,0.461538461538462,0.538461538461538
"58","59","17th & Corcoran St NW","31214","1404070685106","38.9121","-77.0387","true","false","1294078980000","","false","true",1,11,"1404070684309",2014-06-29 15:38:04,12,0.0833333333333333,0.916666666666667
"59","60","Van Ness Metro / UDC","31300","1404070870429","38.944551","-77.063896","true","false","1289624400000","","false","true",20,4,"1404070868723",2014-06-29 15:41:08,24,0.833333333333333,0.166666666666667
"60","61","Florida Ave & R St NW","31503","1404070868917","38.9126","-77.0135","true","false","1290056400000","","false","true",13,6,"1404070626518",2014-06-29 15:37:06,19,0.684210526315789,0.315789473684211
"61","62","8th & Eye St SE / Barracks Row","31608","1404070797336","38.8792","-76.9953","true","false","1287374400000","","false","true",13,30,"1404069830327",2014-06-29 15:23:50,43,0.302325581395349,0.697674418604651
"62","63","Ward Circle / American University","31301","1404070704266","38.938736","-77.087171","true","false","1289538000000","","false","true",5,21,"1404068768537",2014-06-29 15:06:08,26,0.192307692307692,0.807692307692308
"63","64","Idaho Ave & Newark St NW [on 2nd District patio]","31302","1404070815931","38.934751","-77.074647","true","false","1289970000000","","false","true",2,7,"1404069004286",2014-06-29 15:10:04,9,0.222222222222222,0.777777777777778
"64","65","14th St Heights / 14th & Crittenden St NW","31402","1404070803844","38.947774","-77.032818","true","false","1289970000000","","false","true",22,26,"1404069723422",2014-06-29 15:22:03,48,0.458333333333333,0.541666666666667
"65","66","Anacostia Library","31804","1404070868577","38.865784","-76.9784","true","false","1288584000000","","false","true",22,26,"1403977830846",2014-06-28 13:50:30,48,0.458333333333333,0.541666666666667
"66","67","Pennsylvania & Minnesota Ave SE","31805","1404070794310","38.873057","-76.971015","true","false","1288584000000","","false","true",24,21,"1404067696818",2014-06-29 14:48:16,45,0.533333333333333,0.466666666666667
"67","68","Eastern Market / 7th & North Carolina Ave SE","31610","1404070895381","38.886952","-76.996806","true","false","1282363200000","","false","true",17,5,"1404070894283",2014-06-29 15:41:34,22,0.772727272727273,0.227272727272727
"68","69","McPherson Square / 14th & H St NW","31216","1404070766197","38.899641","-77.032005","true","false","1284436800000","","false","true",23,4,"1404069557713",2014-06-29 15:19:17,27,0.851851851851852,0.148148148148148
"69","70","Benning Branch Library","31705","1404070889605","38.894","-76.947974","true","false","1288584000000","","false","true",20,28,"1403994585514",2014-06-28 18:29:45,48,0.416666666666667,0.583333333333333
"70","71","USDA / 12th & Independence Ave SW","31217","1404070787605","38.887237","-77.028226","true","false","1286297580000","","false","true",19,26,"1404070258228",2014-06-29 15:30:58,45,0.422222222222222,0.577777777777778
"71","72","Georgetown Harbor / 30th St NW","31215","1404070843699","38.9022212","-77.059219","true","false","1286300580000","","false","true",21,5,"1404070843155",2014-06-29 15:40:43,26,0.807692307692308,0.192307692307692
"72","73","12th & Newton St NE","31501","1404070723182","38.933668","-76.991016","true","false","1286306220000","","false","true",13,30,"1404063585332",2014-06-29 13:39:45,43,0.302325581395349,0.697674418604651
"73","74","US Dept of State / Virginia Ave & 21st St NW","31220","1404070861306","38.894919","-77.046587","true","false","1286661900000","","false","true",13,6,"1404068196663",2014-06-29 14:56:36,19,0.684210526315789,0.315789473684211
"74","75","L'Enfant Plaza / 7th & C St SW","31218","1404070774270","38.886266","-77.022241","true","false","1286410980000","","false","true",13,6,"1404068773955",2014-06-29 15:06:13,19,0.684210526315789,0.315789473684211
"75","76","10th St & Constitution Ave NW","31219","1404070904959","38.893028","-77.026013","true","false","1286497620000","","false","true",12,5,"1404070903468",2014-06-29 15:41:43,17,0.705882352941177,0.294117647058824
"76","77","Kennedy Center","31211","1404070869210","38.895184","-77.054845","true","false","1286325060000","","false","true",20,27,"1404070863252",2014-06-29 15:41:03,47,0.425531914893617,0.574468085106383
"77","78","Eastern Market Metro / Pennsylvania Ave & 7th St SE","31613","1404070921719","38.884","-76.995397","true","false","1286411820000","","false","true",5,28,"1404070921584",2014-06-29 15:42:01,33,0.151515151515152,0.848484848484849
"78","79","18th & M St NW","31221","1404070813448","38.904742","-77.041606","true","false","1286458140000","","false","true",4,28,"1404070088619",2014-06-29 15:28:08,32,0.125,0.875
"79","80","Tenleytown / Wisconsin Ave & Albemarle St NW","31303","1404067720804","38.947607","-77.079382","true","false","1287150300000","","false","true",5,21,"1404065542167",2014-06-29 14:12:22,26,0.192307692307692,0.807692307692308
"80","81","13th & H St NE","31611","1404070740457","38.9003","-76.9882","true","false","1286547000000","","false","true",15,27,"1404070256530",2014-06-29 15:30:56,42,0.357142857142857,0.642857142857143
"81","82","5th & F St NW","31620","1404070782699","38.897222","-77.019347","true","false","1286492280000","","false","true",22,17,"1404070781342",2014-06-29 15:39:41,39,0.564102564102564,0.435897435897436
"82","83","New York Ave & 15th St NW","31222","1404070903208","38.8991","-77.0337","true","false","1286631960000","","false","true",3,21,"1404070901929",2014-06-29 15:41:41,24,0.125,0.875
"83","84","Convention Center / 7th & M St NW","31223","1404070883762","38.90572","-77.022264","true","false","1286631960000","","false","true",13,10,"1404070882567",2014-06-29 15:41:22,23,0.565217391304348,0.434782608695652
"84","85","Harvard St & Adams Mill Rd NW","31112","1404070880736","38.927872","-77.043358","true","false","1294164840000","","false","true",3,26,"1404070396384",2014-06-29 15:33:16,29,0.103448275862069,0.896551724137931
"85","86","19th & L St NW","31224","1404070902551","38.903407","-77.043648","true","false","1287182880000","","false","true",20,4,"1404069970196",2014-06-29 15:26:10,24,0.833333333333333,0.166666666666667
"86","87","C & O Canal & Wisconsin Ave NW","31225","1404070759720","38.90375","-77.06269","true","false","1287460800000","","false","true",11,13,"1404070517048",2014-06-29 15:35:17,24,0.458333333333333,0.541666666666667
"87","88","6th & Water St SW / SW Waterfront","31609","1404070902017","38.87675","-77.02127","true","false","1287720000000","","false","true",3,30,"1404070199160",2014-06-29 15:29:59,33,0.0909090909090909,0.909090909090909
"88","89","D St & Maryland Ave NE","31612","1404070736438","38.894758","-76.997114","true","false","1330094460000","","false","true",6,3,"1404070011117",2014-06-29 15:26:51,9,0.666666666666667,0.333333333333333
"89","90","34th St & Wisconsin Ave NW","31226","1404070886149","38.916442","-77.0682","true","false","1287182760000","","false","true",21,27,"1404070644697",2014-06-29 15:37:24,48,0.4375,0.5625
"90","91","13th St & New York Ave NW","31227","1404070774351","38.900283","-77.029822","true","false","1287416880000","","false","true",7,30,"1404070773198",2014-06-29 15:39:33,37,0.189189189189189,0.810810810810811
"91","92","8th & H St NW","31228","1404070875014","38.8997","-77.023086","true","false","1287115200000","","false","true",20,19,"1404070873303",2014-06-29 15:41:13,39,0.512820512820513,0.487179487179487
"92","93","10th & Monroe St NE","31504","1404070705838","38.932514","-76.992889","true","false","1287096120000","","false","true",25,13,"1404066359341",2014-06-29 14:25:59,38,0.657894736842105,0.342105263157895
"93","94","Eckington Pl & Q St NE","31505","1404070804775","38.910972","-77.00495","true","false","1287096120000","","false","true",17,29,"1404070263886",2014-06-29 15:31:03,46,0.369565217391304,0.630434782608696
"94","95","6th & H St NE","31615","1404070783093","38.900384","-76.99831","true","false","1323696720000","","false","true",24,8,"1404070782541",2014-06-29 15:39:42,32,0.75,0.25
"95","96","3rd & H St NE","31616","1404070914168","38.900412","-77.001949","true","false","1287096060000","","false","true",6,27,"1404070672092",2014-06-29 15:37:52,33,0.181818181818182,0.818181818181818
"96","97","Bladensburg Rd & Benning Rd NE","31617","1404070923272","38.900413","-76.982872","true","false","1288200360000","","false","true",20,3,"1404070439840",2014-06-29 15:33:59,23,0.869565217391304,0.130434782608696
"97","98","4th & East Capitol St NE","31618","1404070721026","38.889955","-77.000349","true","false","1287028800000","","false","true",2,3,"1404069030667",2014-06-29 15:10:30,5,0.4,0.6
"98","99","Lincoln Park / 13th & East Capitol St NE ","31619","1404070866885","38.890461","-76.988355","true","false","1288038900000","","false","true",5,6,"1404070866078",2014-06-29 15:41:06,11,0.454545454545455,0.545454545454545
"99","100","Branch & Pennsylvania Ave SE","31701","1404070843868","38.8692","-76.9599","true","false","1309008600000","","false","true",23,25,"1404045968491",2014-06-29 08:46:08,48,0.479166666666667,0.520833333333333
"100","101","13th & D St NE","31622","1404070896016","38.894832","-76.987633","true","false","1288114080000","","false","true",6,11,"1404070894187",2014-06-29 15:41:34,17,0.352941176470588,0.647058823529412
"101","102","New Hampshire Ave & T St NW","31229","1404070832306","38.91554","-77.03818","true","false","1287178020000","","false","true",2,12,"1404070831741",2014-06-29 15:40:31,14,0.142857142857143,0.857142857142857
"102","103","Metro Center / 12th & G St NW","31230","1404070684569","38.898364","-77.027869","true","false","1305259200000","","false","true",25,15,"1404070442165",2014-06-29 15:34:02,40,0.625,0.375
"103","104","14th & D St NW / Ronald Reagan Building","31231","1404070821925","38.894514","-77.031617","true","false","1303306260000","","false","true",13,17,"1404070579666",2014-06-29 15:36:19,30,0.433333333333333,0.566666666666667
"104","105","7th & F St NW / National Portrait Gallery","31232","1404070923658","38.897324","-77.022322","true","false","1304108940000","","false","true",8,13,"1404070922156",2014-06-29 15:42:02,21,0.380952380952381,0.619047619047619
"105","106","17th & K St NW / Farragut Square","31233","1404070716631","38.902061","-77.038322","true","false","1304022480000","","false","true",1,18,"1404065711171",2014-06-29 14:15:11,19,0.0526315789473684,0.947368421052632
"106","107","20th & O St NW / Dupont South","31234","1404070804088","38.908905","-77.04478","true","false","1328850000000","","false","true",22,5,"1404070320485",2014-06-29 15:32:00,27,0.814814814814815,0.185185185185185
"107","108","4th & D St NW / Judiciary Square","31621","1404070732720","38.895344","-77.016106","true","false","1304481600000","","false","true",23,29,"1404068559479",2014-06-29 15:02:39,52,0.442307692307692,0.557692307692308
"108","109","19th St & Constitution Ave NW","31235","1404070800266","38.8923","-77.0436","true","false","1287607080000","","false","true",12,9,"1404069540355",2014-06-29 15:19:00,21,0.571428571428571,0.428571428571429
"109","110","37th & O St NW / Georgetown University","31236","1404070913157","38.90774","-77.071652","true","false","1288037580000","","false","true",2,16,"1404070911570",2014-06-29 15:41:51,18,0.111111111111111,0.888888888888889
"110","111","11th & H St NE","31614","1404070900132","38.899983","-76.991383","true","false","1323666000000","","false","true",2,8,"1404070898465",2014-06-29 15:41:38,10,0.2,0.8
"111","112","25th St & Pennsylvania Ave NW","31237","1404070918023","38.903827","-77.053485","true","false","1288551000000","","false","true",17,5,"1404070917301",2014-06-29 15:41:57,22,0.772727272727273,0.227272727272727
"112","113","Columbus Circle / Union Station","31623","1404070686826","38.89696","-77.00493","true","false","1285905600000","","false","true",18,28,"1404070444247",2014-06-29 15:34:04,46,0.391304347826087,0.608695652173913
"113","114","North Capitol St & F St NW","31624","1404070808419","38.897446","-77.009888","true","false","1288122720000","","false","true",23,9,"1404066536466",2014-06-29 14:28:56,32,0.71875,0.28125
"114","115","11th & M St NW","31266","1404070761079","38.905607","-77.027137","true","false","1364995680000","","false","true",13,10,"1404070456219",2014-06-29 15:34:16,23,0.565217391304348,0.434782608695652
"115","116","36th & Calvert St NW / Glover Park","31304","1404070829507","38.922581","-77.070334","true","false","1289236620000","","false","true",6,13,"1404069862500",2014-06-29 15:24:22,19,0.315789473684211,0.684210526315789
"116","117","14th & G St NW","31238","1404070683785","38.898069","-77.031823","true","false","1289237340000","","false","true",22,9,"1404070440759",2014-06-29 15:34:00,31,0.709677419354839,0.290322580645161
"117","118","Potomac Ave & 35th St S","31052","1404070876223","38.844015","-77.050537","true","false","1351092960000","","false","true",20,12,"1404068887765",2014-06-29 15:08:07,32,0.625,0.375
"118","124","Ohio Dr & West Basin Dr SW / MLK & FDR Memorials","31240","1404070887095","38.88412","-77.04657","true","false","1331904960000","","false","true",9,28,"1404070645041",2014-06-29 15:37:25,37,0.243243243243243,0.756756756756757
"119","125","11th & F St NW","31262","1404070889389","38.897857","-77.026975","true","false","1359981840000","","false","true",22,28,"1404070647037",2014-06-29 15:37:27,50,0.44,0.56
"120","126","23rd & E St NW ","31260","1404070708873","38.896104","-77.049882","true","false","1359652440000","","false","true",22,5,"1404070155640",2014-06-29 15:29:15,27,0.814814814814815,0.185185185185185
"121","127","Lynn & 19th St North","31014","1404070812496","38.897315","-77.070993","true","false","1302957060000","","false","true",20,8,"1404069628650",2014-06-29 15:20:28,28,0.714285714285714,0.285714285714286
"122","128","Rosslyn Metro / Wilson Blvd & Ft Myer Dr","31015","1404070893541","38.8946","-77.072305","true","false","1302957120000","","false","true",22,29,"1404070650550",2014-06-29 15:37:30,51,0.431372549019608,0.568627450980392
"123","129","Clarendon Blvd & Pierce St","31016","1404070685948","38.893648","-77.076701","true","false","1302957960000","","false","true",17,29,"1404069958806",2014-06-29 15:25:58,46,0.369565217391304,0.630434782608696
"124","130","Court House Metro / Wilson Blvd & N Uhle St","31017","1404070734333","38.891696","-77.0846","true","false","1320933600000","","false","true",2,7,"1404068381816",2014-06-29 14:59:41,9,0.222222222222222,0.777777777777778
"125","131","N Rhodes & 16th St N","31018","1404070693888","38.892164","-77.079375","true","false","1302963480000","","false","true",13,30,"1404070209863",2014-06-29 15:30:09,43,0.302325581395349,0.697674418604651
"126","132","Fairfax Village","31706","1404070739356","38.86559","-76.952103","true","false","1311771600000","","false","true",24,28,"1403957523001",2014-06-28 08:12:03,52,0.461538461538462,0.538461538461538
"127","133","21st St & Constitution Ave NW","31261","1404070810293","38.892459","-77.046567","true","false","1359639120000","","false","true",1,7,"1404068878277",2014-06-29 15:07:58,8,0.125,0.875
"128","134","Wilson Blvd & N Edgewood St","31019","1404070874045","38.889","-77.0925","true","false","1321015980000","","false","true",21,3,"1404067736065",2014-06-29 14:48:56,24,0.875,0.125
"129","135","Columbia Rd & Belmont St NW","31113","1404070694777","38.920669","-77.04368","true","false","1321625100000","","false","true",1,11,"1404069563115",2014-06-29 15:19:23,12,0.0833333333333333,0.916666666666667
"130","136","17th & Rhode Island Ave NW","31239","1404070909856","38.906602","-77.038785","true","false","1321639800000","","false","true",23,9,"1404070426768",2014-06-29 15:33:46,32,0.71875,0.28125
"131","137","Thomas Circle","31241","1404070855348","38.9059","-77.0325","true","false","1321714320000","","false","true",20,20,"1404070854250",2014-06-29 15:40:54,40,0.5,0.5
"132","138","Wilson Blvd & Franklin Rd","31020","1404070874387","38.8904","-77.0889","true","false","1322715600000","","false","true",21,27,"1404070338402",2014-06-29 15:32:18,48,0.4375,0.5625
"133","139","Clarendon Blvd & N Fillmore St","31021","1404070712047","38.8881","-77.09308","true","false","1321981080000","","false","true",23,29,"1404069643966",2014-06-29 15:20:43,52,0.442307692307692,0.557692307692308
"134","140","Clarendon Metro / Wilson Blvd & N Highland St","31022","1404070743186","38.88786","-77.094875","true","false","1321983480000","","false","true",23,3,"1404070017718",2014-06-29 15:26:57,26,0.884615384615385,0.115384615384615
"135","141","18th St & Pennsylvania Ave NW","31242","1404070921628","38.89968","-77.041539","true","false","1322571600000","","false","true",2,7,"1404070921277",2014-06-29 15:42:01,9,0.222222222222222,0.777777777777778
"136","142","Maryland & Independence Ave SW","31243","1404070795008","38.887299","-77.018939","true","false","1327669020000","","false","true",6,19,"1404070794040",2014-06-29 15:39:54,25,0.24,0.76
"137","143","4th & E St SW","31244","1404070886029","38.88412","-77.017445","true","false","1322756880000","","false","true",3,30,"1404069821821",2014-06-29 15:23:41,33,0.0909090909090909,0.909090909090909
"138","144","3rd & G St SE","31625","1404070834056","38.881185","-77.001828","true","false","1322661660000","","false","true",17,8,"1404069867926",2014-06-29 15:24:27,25,0.68,0.32
"139","145","7th & R St NW / Shaw Library","31245","1404070759297","38.912719","-77.022155","true","false","1322583120000","","false","true",13,6,"1404070758063",2014-06-29 15:39:18,19,0.684210526315789,0.315789473684211
"140","146","9th & Upshur St NW","31404","1404070904041","38.9418","-77.0251","true","false","1323194880000","","false","true",24,28,"1404069212466",2014-06-29 15:13:32,52,0.461538461538462,0.538461538461538
"141","147","1st & Rhode Island Ave NW","31506","1404070807318","38.915417","-77.012289","true","false","1323178380000","","false","true",17,5,"1404070806220",2014-06-29 15:40:06,22,0.772727272727273,0.227272727272727
"142","148","Columbia Rd & Georgia Ave NW","31115","1404070774029","38.928156","-77.02344","true","false","1323234000000","","false","true",3,30,"1404068788432",2014-06-29 15:06:28,33,0.0909090909090909,0.909090909090909
"143","149","California St & Florida Ave NW","31116","1404070729950","38.917761","-77.04062","true","false","1323752400000","","false","true",1,10,"1404070487993",2014-06-29 15:34:47,11,0.0909090909090909,0.909090909090909
"144","150","Benning Rd & East Capitol St NE / Benning Rd Metro","31707","1404070744730","38.889935","-76.93723","true","false","1324404360000","","false","true",8,25,"1403995306267",2014-06-28 18:41:46,33,0.242424242424242,0.757575757575758
"145","151","3000 Connecticut Ave NW / National Zoo","31307","1404070744047","38.930282","-77.055599","true","false","1324496640000","","false","true",20,4,"1404070743060",2014-06-29 15:39:03,24,0.833333333333333,0.166666666666667
"146","152","Anacostia Ave & Benning Rd NE / River Terrace ","31708","1404070736832","38.896544","-76.96012","true","false","1324402320000","","false","true",24,28,"1404069970750",2014-06-29 15:26:10,52,0.461538461538462,0.538461538461538
"147","153","M St & Pennsylvania Ave NW","31246","1404070749576","38.905126","-77.056887","true","false","1324485480000","","false","true",5,28,"1404070747535",2014-06-29 15:39:07,33,0.151515151515152,0.848484848484849
"148","154","15th St & Massachusetts Ave SE","31626","1404070892638","38.88732","-76.983569","true","false","1324565040000","","false","true",5,21,"1404070650090",2014-06-29 15:37:30,26,0.192307692307692,0.807692307692308
"149","155","Congress Heights Metro","31806","1404070811617","38.844711","-76.987823","true","false","1324581180000","","false","true",3,26,"1403930199465",2014-06-28 00:36:39,29,0.103448275862069,0.896551724137931
"150","156","N Quincy St & Glebe Rd","31035","1404070789925","38.876393","-77.107735","true","false","1335552600000","","false","true",22,26,"1404070547688",2014-06-29 15:35:47,48,0.458333333333333,0.541666666666667
"151","157","Wilson Blvd & N Oakland St","31033","1404070732674","38.8815","-77.10396","true","false","1335387720000","","false","true",23,25,"1404066066336",2014-06-29 14:21:06,48,0.479166666666667,0.520833333333333
"152","158","N Veitch  & 20th St N","31029","1404070747089","38.896923","-77.086502","true","false","1335213360000","","false","true",20,4,"1404069138278",2014-06-29 15:12:18,24,0.833333333333333,0.166666666666667
"153","159","11th & K St NW","31263","1404070814827","38.90268","-77.02674","true","false","1360936140000","","false","true",2,9,"1404069470979",2014-06-29 15:17:50,11,0.181818181818182,0.818181818181818
"154","160","Fairfax Dr & Wilson Blvd","31023","1404070819505","38.885801","-77.097745","true","false","1335545880000","","false","true",1,30,"1404070094920",2014-06-29 15:28:14,31,0.032258064516129,0.967741935483871
"155","161","Key Blvd & N Quinn St","31027","1404070707339","38.896015","-77.078107","true","false","1335195480000","","false","true",21,27,"1404068774467",2014-06-29 15:06:14,48,0.4375,0.5625
"156","162","1st & K St SE","31628","1404070888217","38.87861","-77.006004","true","false","1328717220000","","false","true",25,27,"1404070201618",2014-06-29 15:30:01,52,0.480769230769231,0.519230769230769
"157","163","39th & Calvert St NW / Stoddert","31306","1404070687453","38.922649","-77.077271","true","false","1328898300000","","false","true",3,30,"1404070349359",2014-06-29 15:32:29,33,0.0909090909090909,0.909090909090909
"158","164","1st & Washington Hospital Center NW","31507","1404070864354","38.928743","-77.012457","true","false","1329153540000","","false","true",22,30,"1404069656480",2014-06-29 15:20:56,52,0.423076923076923,0.576923076923077
"159","165","Virginia Square Metro / N Monroe St & 9th St N","31024","1404070827173","38.882788","-77.103148","true","false","1329508980000","","false","true",20,8,"1404070825970",2014-06-29 15:40:25,28,0.714285714285714,0.285714285714286
"160","166","Central Library / N Quincy St & 10th St N","31025","1404070866932","38.88397","-77.10783","true","false","1329493920000","","false","true",17,29,"1404070865831",2014-06-29 15:41:05,46,0.369565217391304,0.630434782608696
"161","167","Washington Blvd & 10th St N","31026","1404070778805","38.884734","-77.093485","true","false","1329944340000","","false","true",22,30,"1404068085410",2014-06-29 14:54:45,52,0.423076923076923,0.576923076923077
"162","168","Jefferson Dr & 14th St SW","31247","1404070849852","38.888553","-77.032429","true","false","1331911860000","","false","true",14,1,"1404070848141",2014-06-29 15:40:48,15,0.933333333333333,0.0666666666666667
"163","169","Smithsonian / Jefferson Dr & 12th St SW","31248","1404070773204","38.888767","-77.02858","true","false","1333369620000","","false","true",16,1,"1404070326036",2014-06-29 15:32:06,17,0.941176470588235,0.0588235294117647
"164","170","George Mason Dr & Wilson Blvd","31036","1404070701843","38.87887","-77.1207","true","false","1335805380000","","false","true",21,3,"1404070700265",2014-06-29 15:38:20,24,0.875,0.125
"165","171","6th St & Indiana Ave NW","31264","1404070895100","38.894573","-77.01994","true","false","1364990040000","","false","true",10,2,"1404070411245",2014-06-29 15:33:31,12,0.833333333333333,0.166666666666667
"166","172","N Veitch & Key Blvd","31028","1404070715268","38.893241","-77.086045","true","false","1335202980000","","false","true",20,28,"1404066941079",2014-06-29 14:35:41,48,0.416666666666667,0.583333333333333
"167","173","N Adams St & Lee Hwy","31030","1404070885149","38.89593","-77.089006","true","false","1335369060000","","false","true",17,5,"1404066360769",2014-06-29 14:26:00,22,0.772727272727273,0.227272727272727
"168","174","15th & N Scott St","31031","1404070726587","38.89054","-77.08095","true","false","1335362100000","","false","true",17,29,"1404070725659",2014-06-29 15:38:45,46,0.369565217391304,0.630434782608696
"169","175","Washington Blvd & 7th St N","31032","1404070836793","38.880834","-77.091129","true","false","1335794400000","","false","true",2,3,"1404067322140",2014-06-29 14:42:02,5,0.4,0.6
"170","176","Ballston Metro / N Stuart & 9th St N","31037","1404070833428","38.881044","-77.111768","true","false","1335817440000","","false","true",22,6,"1404069249093",2014-06-29 15:14:09,28,0.785714285714286,0.214285714285714
"171","177","N Randolph St & Fairfax Dr","31034","1404070865449","38.882629","-77.109366","true","false","1335542580000","","false","true",21,27,"1404070381186",2014-06-29 15:33:01,48,0.4375,0.5625
"172","178","Jefferson Memorial","31249","1404070736548","38.879819","-77.037413","true","false","1335969180000","","false","true",6,3,"1404070493786",2014-06-29 15:34:53,9,0.666666666666667,0.333333333333333
"173","179","Good Hope Rd & 14th St SE","31803","1404070688882","38.866611","-76.985238","true","false","1335981060000","","false","true",3,26,"1404031972527",2014-06-29 04:52:52,29,0.103448275862069,0.896551724137931
"174","180","Glebe Rd & 11th St N","31038","1404070771324","38.883921","-77.116817","true","false","1337269200000","","false","true",25,13,"1404066049085",2014-06-29 14:20:49,38,0.657894736842105,0.342105263157895
"175","181","N Quincy St & Wilson Blvd","31039","1404070689342","38.880151","-77.107673","true","false","1338301620000","","false","true",17,28,"1404069378327",2014-06-29 15:16:18,45,0.377777777777778,0.622222222222222
"176","182","Fairfax Dr & Kenmore St","31040","1404070853044","38.884616","-77.10108","true","false","1366814880000","","false","true",17,29,"1404064275385",2014-06-29 13:51:15,46,0.369565217391304,0.630434782608696
"177","183","Gallaudet / 8th St & Florida Ave NE","31508","1404070869464","38.90509","-76.9941","true","false","1342033620000","","false","true",3,30,"1404069902547",2014-06-29 15:25:02,33,0.0909090909090909,0.909090909090909
"178","185","20th & L St NW","31250","1404070716725","38.903584","-77.044789","true","false","1340632500000","","false","true",20,8,"1404069266489",2014-06-29 15:14:26,28,0.714285714285714,0.285714285714286
"179","186","12th & L St NW","31251","1404070877231","38.903819","-77.0284","true","false","1340639640000","","false","true",20,8,"1404070875947",2014-06-29 15:41:15,28,0.714285714285714,0.285714285714286
"180","187","21st St & Pennsylvania Ave NW","31252","1404070762529","38.901539","-77.046564","true","false","1340811180000","","false","true",20,8,"1404068549130",2014-06-29 15:02:29,28,0.714285714285714,0.285714285714286
"181","188","19th & K St NW","31253","1404070769358","38.902204","-77.04337","true","false","1340801880000","","false","true",2,16,"1404070044647",2014-06-29 15:27:24,18,0.111111111111111,0.888888888888889
"182","189","Prince St & Union St","31041","1404070845440","38.803124","-77.040363","true","false","1346070420000","","false","true",24,30,"1404070844250",2014-06-29 15:40:44,54,0.444444444444444,0.555555555555556
"183","190","Market Square / King St & Royal St","31042","1404070874363","38.804718","-77.043363","true","false","1346077680000","","false","true",13,6,"1404070873901",2014-06-29 15:41:13,19,0.684210526315789,0.315789473684211
"184","191","Saint Asaph St & Pendleton  St","31043","1404070892196","38.810743","-77.044664","true","false","1346084880000","","false","true",24,28,"1404070649842",2014-06-29 15:37:29,52,0.461538461538462,0.538461538461538
"185","192","King St & Patrick St","31044","1404070849215","38.805317","-77.049883","true","false","1346442900000","","false","true",3,26,"1404068435350",2014-06-29 15:00:35,29,0.103448275862069,0.896551724137931
"186","193","15th & K St NW","31254","1404070898892","38.902","-77.03353","true","false","1341232920000","","false","true",2,11,"1404070414947",2014-06-29 15:33:34,13,0.153846153846154,0.846153846153846
"187","194","Commerce St & Fayette St","31045","1404070909694","38.805648","-77.05293","true","false","1346442960000","","false","true",24,28,"1404065385286",2014-06-29 14:09:45,52,0.461538461538462,0.538461538461538
"188","195","Henry St & Pendleton St","31046","1404070755410","38.811456","-77.050276","true","false","1346442960000","","false","true",21,3,"1404065526328",2014-06-29 14:12:06,24,0.875,0.125
"189","196","Braddock Rd Metro","31047","1404070882212","38.814577","-77.052808","true","false","1346442960000","","false","true",10,13,"1404070149516",2014-06-29 15:29:09,23,0.434782608695652,0.565217391304348
"190","197","King St Metro","31048","1404070821279","38.805767","-77.06072","true","false","1346443020000","","false","true",6,27,"1404068648051",2014-06-29 15:04:08,33,0.181818181818182,0.818181818181818
"191","198","24th & N St NW","31255","1404070740311","38.9066","-77.05152","true","false","1341575340000","","false","true",8,1,"1404070498231",2014-06-29 15:34:58,9,0.888888888888889,0.111111111111111
"192","199","10th & E St NW","31256","1404070879525","38.895914","-77.026064","true","false","1342109700000","","false","true",6,2,"1404069729179",2014-06-29 15:22:09,8,0.75,0.25
"193","200","22nd & I St NW / Foggy Bottom","31257","1404070897436","38.90088","-77.048911","true","false","1342442220000","","false","true",24,28,"1404070867470",2014-06-29 15:41:07,52,0.461538461538462,0.538461538461538
"194","201","Utah St & 11th St N ","31049","1404070730763","38.883669","-77.113905","true","false","1342539420000","","false","true",17,29,"1404067936451",2014-06-29 14:52:16,46,0.369565217391304,0.630434782608696
"195","202","Barton St & 10th St N","31050","1404070705269","38.884961","-77.08777","true","false","1346771820000","","false","true",2,30,"1404068737313",2014-06-29 15:05:37,32,0.0625,0.9375
"196","203","Arlington Blvd & N Queen St","31051","1404070689511","38.889365","-77.077294","true","false","1346776740000","","false","true",25,13,"1404065324613",2014-06-29 14:08:44,38,0.657894736842105,0.342105263157895
"197","204","Lincoln Memorial","31258","1404070923139","38.888251","-77.049426","true","false","1349268360000","","false","true",20,15,"1404070607398",2014-06-29 15:36:47,35,0.571428571428571,0.428571428571429
"198","206","20th St & Virginia Ave NW","31259","1404070746267","38.894722","-77.045128","true","false","1359646980000","","false","true",2,7,"1404061479388",2014-06-29 13:04:39,9,0.222222222222222,0.777777777777778
"199","207","5th St & Massachusetts Ave NW","31265","1404070737628","38.90093","-77.018677","true","false","1367842440000","","false","true",23,4,"1404070253179",2014-06-29 15:30:53,27,0.851851851851852,0.148148148148148
"200","208","39th & Veazey St NW","31308","1404070877306","38.943837","-77.077078","true","false","1360598160000","","false","true",21,3,"1404069688161",2014-06-29 15:21:28,24,0.875,0.125
"201","209","Fessenden St & Wisconsin Ave NW","31309","1404070831882","38.954812","-77.082426","true","false","1360588560000","","false","true",17,5,"1404068764398",2014-06-29 15:06:04,22,0.772727272727273,0.227272727272727
"202","210","M St & Delaware Ave NE","31627","1404070859728","38.905707","-77.003041","true","false","1360929900000","","false","true",23,9,"1404068203049",2014-06-29 14:56:43,32,0.71875,0.28125
"203","211","Columbia Pike & S Courthouse Rd","31053","1404070755657","38.863833","-77.080319","true","false","1364482620000","","false","true",21,3,"1404070512954",2014-06-29 15:35:12,24,0.875,0.125
"204","212","Walter Reed Community Center / Walter Reed Dr & 16th St S","31054","1404070898212","38.857803","-77.086733","true","false","1364466180000","","false","true",21,27,"1404052081162",2014-06-29 10:28:01,48,0.4375,0.5625
"205","213","28th St S & S Meade St","31055","1404070837701","38.846222","-77.069275","true","false","1364476320000","","false","true",22,30,"1404068728492",2014-06-29 15:05:28,52,0.423076923076923,0.576923076923077
"206","214","18th St & Wyoming Ave NW","31114","1404070904086","38.918809","-77.041571","true","false","1365003300000","","false","true",17,12,"1404070662060",2014-06-29 15:37:42,29,0.586206896551724,0.413793103448276
"207","215","5th & Kennedy St NW","31403","1404070812232","38.956595","-77.019815","true","false","1365777420000","","false","true",25,27,"1404069845285",2014-06-29 15:24:05,52,0.480769230769231,0.519230769230769
"208","216","Georgia Ave & Emerson St NW","31405","1404070910473","38.949662","-77.027333","true","false","1365783540000","","false","true",23,5,"1404060447335",2014-06-29 12:47:27,28,0.821428571428571,0.178571428571429
"209","217","14th & Upshur St NW","31406","1404070793123","38.942016","-77.032652","true","false","1365794820000","","false","true",3,30,"1404069616387",2014-06-29 15:20:16,33,0.0909090909090909,0.909090909090909
"210","218","14th St & Colorado Ave NW","31407","1404070882761","38.956432","-77.032947","true","false","1365798900000","","false","true",7,26,"1404070398451",2014-06-29 15:33:18,33,0.212121212121212,0.787878787878788
"211","219","S Troy St & 26th St S","31056","1404070693697","38.847977","-77.075104","true","false","1366725840000","","false","true",21,27,"1404069283599",2014-06-29 15:14:43,48,0.4375,0.5625
"212","220","S Four Mile Run Dr & S Shirlington Rd","31057","1404070699736","38.8444","-77.085931","true","false","1366729200000","","false","true",24,21,"1404052385610",2014-06-29 10:33:05,45,0.533333333333333,0.466666666666667
"213","221","S Oakland St & Columbia Pike","31058","1404070772722","38.860789","-77.09586","true","false","1366735380000","","false","true",21,27,"1403996635973",2014-06-28 19:03:55,48,0.4375,0.5625
"214","222","S Abingdon St & 36th St S","31059","1404070784875","38.835213","-77.094295","true","false","1366739700000","","false","true",17,29,"1404069998353",2014-06-29 15:26:38,46,0.369565217391304,0.630434782608696
"215","223","S Arlington Mill Dr & Campbell Ave","31060","1404070917187","38.84232","-77.089555","true","false","1366802400000","","false","true",25,26,"1404063725809",2014-06-29 13:42:05,51,0.490196078431373,0.509803921568627
"216","224","S Kenmore & 24th St S","31061","1404070846096","38.848454","-77.084918","true","false","1366825140000","","false","true",23,25,"1404039938691",2014-06-29 07:05:38,48,0.479166666666667,0.520833333333333
"217","225","13th St & Eastern Ave","32006","1404070827180","38.987","-77.029417","true","false","1380292680000","","false","true",25,27,"1404064075926",2014-06-29 13:47:55,52,0.480769230769231,0.519230769230769
"218","226","Wisconsin Ave & O St NW","31312","1404070879842","38.90849","-77.063586","true","false","1366910820000","","false","true",12,1,"1404070184488",2014-06-29 15:29:44,13,0.923076923076923,0.0769230769230769
"219","227","S George Mason Dr & 13th St S","31062","1404070916811","38.854691","-77.100555","true","false","1372694040000","","false","true",21,27,"1403970919411",2014-06-28 11:55:19,48,0.4375,0.5625
"220","228","Connecticut & Nebraska Ave NW","31310","1404070762705","38.955016","-77.069956","true","false","1366894140000","","false","true",20,12,"1404069795449",2014-06-29 15:23:15,32,0.625,0.375
"221","229","17th St & Massachusetts Ave NW","31267","1404070766111","38.908142","-77.038359","true","false","1367851920000","","false","true",2,11,"1404070524342",2014-06-29 15:35:24,13,0.153846153846154,0.846153846153846
"222","230","15th & Euclid St  NW","31117","1404070784413","38.92333","-77.0352","true","false","1367856780000","","false","true",22,29,"1404070300651",2014-06-29 15:31:40,51,0.431372549019608,0.568627450980392
"223","231","8th & East Capitol St NE","31629","1404070774860","38.889988","-76.995193","true","false","1368545580000","","false","true",1,4,"1404070480178",2014-06-29 15:34:40,5,0.2,0.8
"224","232","New Jersey Ave & R St NW","31509","1404070736402","38.912659","-77.017669","true","false","1368532680000","","false","true",7,2,"1404070735222",2014-06-29 15:38:55,9,0.777777777777778,0.222222222222222
"225","233","15th & East Capitol St NE","31630","1404070764694","38.889908","-76.983326","true","false","1368541260000","","false","true",21,25,"1404070763912",2014-06-29 15:39:23,46,0.456521739130435,0.543478260869565
"226","234","8th & F St NE","31631","1404070690915","38.897274","-76.994749","true","false","1368552540000","","false","true",23,29,"1404070284577",2014-06-29 15:31:24,52,0.442307692307692,0.557692307692308
"227","235","18th St & Rhode Island Ave NE","31510","1404070810039","38.927095","-76.978924","true","false","1369915500000","","false","true",25,27,"1404000273103",2014-06-28 20:04:33,52,0.480769230769231,0.519230769230769
"228","236","15th & F St NE","31632","1404070923556","38.897195","-76.983575","true","false","1369928820000","","false","true",22,6,"1404070456858",2014-06-29 15:34:16,28,0.785714285714286,0.214285714285714
"229","237","12th & Irving St NE","31511","1404070839475","38.928644","-76.990955","true","false","1369923120000","","false","true",3,26,"1404065037912",2014-06-29 14:03:57,29,0.103448275862069,0.896551724137931
"230","238","34th St & Minnesota Ave SE","31709","1404070690124","38.884085","-76.957461","true","false","1370358840000","","false","true",20,27,"1404069723225",2014-06-29 15:22:03,47,0.425531914893617,0.574468085106383
"231","239","Alabama & MLK Ave SE","31800","1404070835663","38.843222","-76.999388","true","false","1370345160000","","false","true",21,27,"1403930198515",2014-06-28 00:36:38,48,0.4375,0.5625
"232","240","Pleasant St & MLK Ave SE","31807","1404070808281","38.863897","-76.990037","true","false","1370351820000","","false","true",20,28,"1403992002817",2014-06-28 17:46:42,48,0.416666666666667,0.583333333333333
"233","241","Neal St & Trinidad Ave NE","31512","1404070781271","38.903732","-76.987211","true","false","1371221640000","","false","true",2,7,"1404070055829",2014-06-29 15:27:35,9,0.222222222222222,0.777777777777778
"234","242","13th & U St NW","31268","1404070753101","38.916794","-77.029779","true","false","1371231240000","","false","true",24,8,"1404070752240",2014-06-29 15:39:12,32,0.75,0.25
"235","243","S George Mason Dr & Four Mile Run","31063","1404070684550","38.852248","-77.105022","true","false","1372690500000","","false","true",23,25,"1404067122874",2014-06-29 14:38:42,48,0.479166666666667,0.520833333333333
"236","244","S Stafford & 34th St S","31064","1404070727380","38.834108","-77.087323","true","false","1372701360000","","false","true",22,30,"1404068514878",2014-06-29 15:01:54,52,0.423076923076923,0.576923076923077
"237","245","N Pershing Dr & Wayne St","31065","1404070829661","38.880705","-77.08596","true","false","1372680300000","","false","true",2,3,"1404057956534",2014-06-29 12:05:56,5,0.4,0.6
"238","246","Columbia Pike & S Orme St","31066","1404070732897","38.867262","-77.072315","true","false","1372684620000","","false","true",13,30,"1404064989464",2014-06-29 14:03:09,43,0.302325581395349,0.697674418604651
"239","247","3rd St & Pennsylvania Ave SE","31269","1404070708282","38.887378","-77.001955","true","false","1374598740000","","false","true",1,8,"1404070707500",2014-06-29 15:38:27,9,0.111111111111111,0.888888888888889
"240","248","8th & D St NW","31270","1404070780415","38.894851","-77.02324","true","false","1374581640000","","false","true",23,28,"1404070538076",2014-06-29 15:35:38,51,0.450980392156863,0.549019607843137
"241","249","3rd & Elm St NW","31118","1404070852176","38.917622","-77.01597","true","false","1374589740000","","false","true",1,7,"1404066637332",2014-06-29 14:30:37,8,0.125,0.875
"242","250","Rhode Island Ave & V St NE","31513","1404070807065","38.918155","-77.004746","true","false","1375196700000","","false","true",3,30,"1404065998328",2014-06-29 14:19:58,33,0.0909090909090909,0.909090909090909
"243","251","Constitution Ave & 2nd St NW/DOL","31271","1404070909830","38.892275","-77.013917","true","false","1375190280000","","false","true",9,4,"1404070909493",2014-06-29 15:41:49,13,0.692307692307692,0.307692307692308
"244","252","Washington & Independence Ave SW/HHS","31272","1404070691527","38.88731","-77.01397","true","false","1375445040000","","false","true",5,5,"1404069584115",2014-06-29 15:19:44,10,0.5,0.5
"245","253","Independence Ave & L'Enfant Plaza SW/DOE","31633","1404070792796","38.887397","-77.026154","true","false","1375789680000","","false","true",25,27,"1404069860847",2014-06-29 15:24:20,52,0.480769230769231,0.519230769230769
"246","254","Hamlin & 7th St NE","31514","1404070867536","38.927497","-76.997194","true","false","1376653440000","","false","true",22,30,"1404044295592",2014-06-29 08:18:15,52,0.423076923076923,0.576923076923077
"247","255","Columbia Pike & S Walter Reed Dr","31067","1404070791942","38.862478","-77.086599","true","false","1377605340000","","false","true",2,3,"1404066663942",2014-06-29 14:31:03,5,0.4,0.6
"248","256","Columbia Pike & S Dinwiddie St / Arlington Mill Community Center","31068","1404070790427","38.856319","-77.11153","true","false","1377776460000","","false","true",20,3,"1404057393947",2014-06-29 11:56:33,23,0.869565217391304,0.130434782608696
"249","257","Pershing & N George Mason Dr","31069","1404070907976","38.871822","-77.107906","true","false","1377792000000","","false","true",20,28,"1404066903265",2014-06-29 14:35:03,48,0.416666666666667,0.583333333333333
"250","258","Fenton St & New York Ave ","32001","1404070781646","38.985404","-77.023082","true","false","1380292620000","","false","true",22,30,"1404059292009",2014-06-29 12:28:12,52,0.423076923076923,0.576923076923077
"251","259","Bethesda Ave & Arlington Blvd","32002","1404070689791","38.981103","-77.097426","true","false","1380292620000","","false","true",20,8,"1404069666183",2014-06-29 15:21:06,28,0.714285714285714,0.285714285714286
"252","260","Montgomery Ave & Waverly St ","32003","1404070793761","38.983838","-77.09221","true","false","1382208480000","","false","true",20,28,"1404016664004",2014-06-29 00:37:44,48,0.416666666666667,0.583333333333333
"253","261","Fallsgrove Blvd & Fallsgrove Dr","32004","1404070728927","39.096312","-77.192672","true","false","1380292620000","","false","true",25,3,"1404069542809",2014-06-29 15:19:02,28,0.892857142857143,0.107142857142857
"254","262","Traville Gateway Dr & Gudelsky Dr","32005","1404070753197","39.093783","-77.202501","true","false","1380292680000","","false","true",24,4,"1403963181008",2014-06-28 09:46:21,28,0.857142857142857,0.142857142857143
"255","263","Norfolk Ave & Fairmont St","32000","1404070766091","38.988562","-77.096539","true","false","1380292560000","","false","true",13,29,"1404060188205",2014-06-29 12:43:08,42,0.30952380952381,0.69047619047619
"256","264","E Montgomery Ave & Maryland Ave","32007","1404070836588","39.084125","-77.151291","true","false","1380292560000","","false","true",20,3,"1404052839590",2014-06-29 10:40:39,23,0.869565217391304,0.130434782608696
"257","265","Cordell & Norfolk Ave","32008","1404070910111","38.98954","-77.098029","true","false","1380292740000","","false","true",22,26,"1404070908939",2014-06-29 15:41:48,48,0.458333333333333,0.541666666666667
"258","266","Frederick Ave & Horners Ln","32009","1404070730975","39.094772","-77.145213","true","false","1380292740000","","false","true",20,28,"1403994933391",2014-06-28 18:35:33,48,0.416666666666667,0.583333333333333
"259","267","Philadelphia & Maple Ave","32010","1404070781729","38.98128","-77.011336","true","false","1380292740000","","false","true",24,28,"1404063786507",2014-06-29 13:43:06,52,0.461538461538462,0.538461538461538
"260","268","Maple & Ritchie Ave","32011","1404070732618","38.983627","-77.006311","true","false","1380292800000","","false","true",3,30,"1404061327787",2014-06-29 13:02:07,33,0.0909090909090909,0.909090909090909
"261","269","Silver Spring Metro/Colesville Rd & Wayne Ave","32012","1404070909391","38.99521","-77.02918","true","false","1380292800000","","false","true",23,5,"1404063767901",2014-06-29 13:42:47,28,0.821428571428571,0.178571428571429
"262","270","Montgomery & East Ln","32013","1404070901152","38.983525","-77.095367","true","false","1380292800000","","false","true",22,26,"1404068221510",2014-06-29 14:57:01,48,0.458333333333333,0.541666666666667
"263","271","Friendship Hts Metro/Wisconsin Ave & Wisconsin Cir","32014","1404070853175","38.961763","-77.085998","true","false","1380292860000","","false","true",20,8,"1404070710090",2014-06-29 15:38:30,28,0.714285714285714,0.285714285714286
"264","272","14th & Belmont St NW","31119","1404070756145","38.921074","-77.031887","true","false","1380719160000","","false","true",2,7,"1404069548786",2014-06-29 15:19:08,9,0.222222222222222,0.777777777777778
"265","273","3rd & Tingey St SE","31634","1404070702638","38.87501","-77.0024","true","false","1380722700000","","false","true",6,27,"1404070701716",2014-06-29 15:38:21,33,0.181818181818182,0.818181818181818
"266","274","10th & Florida Ave NW","31120","1404070866428","38.920387","-77.025672","true","false","1381320720000","","false","true",22,6,"1404070382660",2014-06-29 15:33:02,28,0.785714285714286,0.214285714285714
"267","275","Potomac Ave & 8th St SE","31635","1404070771747","38.876737","-76.994468","true","false","1381333800000","","false","true",23,28,"1404059702719",2014-06-29 12:35:02,51,0.450980392156863,0.549019607843137
"268","276","Crabbs Branch Way & Redland Rd","32015","1404070742013","39.120045","-77.156985","true","false","1382100480000","","false","true",23,29,"1404000661586",2014-06-28 20:11:01,52,0.442307692307692,0.557692307692308
"269","277","Fallsgrove Dr & W Montgomery Ave","32016","1404070794772","39.099376","-77.188014","true","false","1382120580000","","false","true",3,26,"1403930178534",2014-06-28 00:36:18,29,0.103448275862069,0.896551724137931
"270","278","Monroe St & Monroe Pl","32017","1404070737996","39.083705","-77.149443","true","false","1383309240000","","false","true",24,27,"1403990546804",2014-06-28 17:22:26,51,0.470588235294118,0.529411764705882
"271","279","Needwood Rd & Eagles Head Ct","32018","1404070870160","39.123513","-77.15741","true","false","1382107020000","","false","true",22,30,"1404016662389",2014-06-29 00:37:42,52,0.423076923076923,0.576923076923077
"272","280","East West Hwy & Blair Mill Rd","32019","1404070888288","38.990249","-77.02935","true","false","1383148920000","","false","true",21,3,"1404008366787",2014-06-28 22:19:26,24,0.875,0.125
"273","281","Crabbs Branch Way & Calhoun Pl","32020","1404070787977","39.107709","-77.152072","true","false","1382111460000","","false","true",21,3,"1403930178845",2014-06-28 00:36:18,24,0.875,0.125
"274","282","47th & Elm St","32021","1404070841361","38.982456","-77.091991","true","false","1382208540000","","false","true",25,27,"1404066133675",2014-06-29 14:22:13,52,0.480769230769231,0.519230769230769
"275","283","Garland Ave & Walden Rd","32022","1404070856470","39.000578","-77.00149","true","false","1383059580000","","false","true",24,28,"1403968252725",2014-06-28 11:10:52,52,0.461538461538462,0.538461538461538
"276","284","Montgomery College/W Campus Dr & Mannakee St","32023","1404070736358","39.095661","-77.159048","true","false","1382199120000","","false","true",4,3,"1403989978692",2014-06-28 17:12:58,7,0.571428571428571,0.428571428571429
"277","285","Fenton St & Gist Ave","32024","1404070743982","38.989724","-77.023854","true","false","1383054960000","","false","true",17,29,"1404068521831",2014-06-29 15:02:01,46,0.369565217391304,0.630434782608696
"278","286","Carroll & Westmoreland Ave","32025","1404070710576","38.975","-77.01121","true","false","1383065460000","","false","true",23,29,"1404067168299",2014-06-29 14:39:28,52,0.442307692307692,0.557692307692308
"279","287","Carroll & Ethan Allen Ave","32026","1404070747711","38.977933","-77.006472","true","false","1383070440000","","false","true",24,28,"1404041288163",2014-06-29 07:28:08,52,0.461538461538462,0.538461538461538
"280","288","Battery Ln & Trolley Trail","32027","1404070898251","38.992375","-77.100104","true","false","1382712300000","","false","true",23,29,"1404067812977",2014-06-29 14:50:12,52,0.442307692307692,0.557692307692308
"281","289","Norfolk & Rugby Ave","32028","1404070748256","38.990639","-77.100239","true","false","1382715180000","","false","true",22,26,"1404069889496",2014-06-29 15:24:49,48,0.458333333333333,0.541666666666667
"282","290","Offutt Ln & Chevy Chase Dr","32029","1404070710241","38.977093","-77.094589","true","false","1382722080000","","false","true",21,27,"1404069549127",2014-06-29 15:19:09,48,0.4375,0.5625
"283","291","Broschart & Blackwell Rd","32030","1404070770160","39.102099","-77.200322","true","false","1382798640000","","false","true",23,29,"1403930182002",2014-06-28 00:36:22,52,0.442307692307692,0.557692307692308
"284","292","Taft St & E Gude Dr","32031","1404070757556","39.094103","-77.132954","true","false","1382804520000","","false","true",22,30,"1403930178443",2014-06-28 00:36:18,52,0.423076923076923,0.576923076923077
"285","293","Fleet St & Ritchie Pkwy","32032","1404070706424","39.076331","-77.141378","true","false","1382809500000","","false","true",25,27,"1403990890898",2014-06-28 17:28:10,52,0.480769230769231,0.519230769230769
"286","294","Piccard & W Gude Dr","32033","1404070728741","39.102212","-77.177091","true","false","1382795700000","","false","true",3,30,"1404069038711",2014-06-29 15:10:38,33,0.0909090909090909,0.909090909090909
"287","295","Ripley & Bonifant St","32034","1404070824568","38.992679","-77.029457","true","false","1383141360000","","false","true",22,30,"1404058536988",2014-06-29 12:15:36,52,0.423076923076923,0.576923076923077
"288","296","Georgia Ave & Spring St","32035","1404070717707","38.999388","-77.031555","true","false","1383146520000","","false","true",22,25,"1404044994177",2014-06-29 08:29:54,47,0.468085106382979,0.531914893617021
"289","297","Fenton St & Ellsworth Dr ","32036","1404070715243","38.997033","-77.025608","true","false","1383135960000","","false","true",22,30,"1404048496605",2014-06-29 09:28:16,52,0.423076923076923,0.576923076923077
"290","298","King Farm Blvd & Pleasant Dr","32037","1404070813698","39.114688","-77.171487","true","false","1383323580000","","false","true",3,29,"1404053484125",2014-06-29 10:51:24,32,0.09375,0.90625
"291","299","King Farm Blvd & Piccard Dr","32038","1404070778606","39.110314","-77.182669","true","false","1383318120000","","false","true",23,29,"1404052726109",2014-06-29 10:38:46,52,0.442307692307692,0.557692307692308
"292","301","Calvert St & Woodley Pl NW","31121","1404070752773","38.923583","-77.050046","true","false","1383657120000","","false","true",2,10,"1404070510036",2014-06-29 15:35:10,12,0.166666666666667,0.833333333333333
"293","302","New Jersey Ave & N St NW/Dunbar HS","31636","1404070846137","38.90706","-77.015231","true","false","1383662880000","","false","true",17,9,"1404070236635",2014-06-29 15:30:36,26,0.653846153846154,0.346153846153846
"294","303","Nannie Helen Burroughs Ave & 49th St NE","31710","1404070807252","38.898536","-76.931862","true","false","1383923280000","","false","true",23,25,"1404017802974",2014-06-29 00:56:42,48,0.479166666666667,0.520833333333333
"295","304","Deanwood Rec Center","31711","1404070902826","38.908473","-76.933099","true","false","1383923280000","","false","true",24,28,"1404047675064",2014-06-29 09:14:35,52,0.461538461538462,0.538461538461538
"296","305","Hains Point/Buckeye & Ohio Dr SW","31273","1404070830147","38.878433","-77.03023","true","false","1383929160000","","false","true",25,29,"1404070829065",2014-06-29 15:40:29,54,0.462962962962963,0.537037037037037
"297","306","Arlington Blvd & Fillmore St","31070","1404070886280","38.873755","-77.089233","true","false","1384527780000","","false","true",21,27,"1404059573843",2014-06-29 12:32:53,48,0.4375,0.5625
"298","307","Long Bridge Park/Long Bridge Dr & 6th St S","31071","1404070809373","38.86646","-77.04826","true","false","1384520760000","","false","true",25,27,"1404064862044",2014-06-29 14:01:02,52,0.480769230769231,0.519230769230769
"299","308","Old Georgetown Rd & Southwick St","32039","1404070919567","38.999634","-77.109647","true","false","1384367940000","","false","true",3,30,"1404061344145",2014-06-29 13:02:24,33,0.0909090909090909,0.909090909090909
"300","309","Friendship Blvd & Willard Ave","32040","1404070857395","38.96115","-77.088659","true","false","1384355760000","","false","true",22,6,"1404068442181",2014-06-29 15:00:42,28,0.785714285714286,0.214285714285714
"301","310","North Capitol St & G Pl NE","31637","1404070884096","38.899703","-77.008911","true","false","1386954360000","","false","true",13,10,"1404069539173",2014-06-29 15:18:59,23,0.565217391304348,0.434782608695652
"302","311","31st & Woodrow St S","31072","1404070823633","38.837666","-77.09482","true","false","1387298640000","","false","true",21,27,"1403953943841",2014-06-28 07:12:23,48,0.4375,0.5625
"303","312","Washington Blvd & Walter Reed Dr ","31073","1404070838859","38.873219","-77.082104","true","false","1387287180000","","false","true",22,30,"1404066890449",2014-06-29 14:34:50,52,0.423076923076923,0.576923076923077
"304","313","Thomas Jefferson Cmty Ctr / 2nd St S & Ivy","31074","1404070689942","38.869675","-77.093586","true","false","1386774900000","","false","true",20,28,"1404070688915",2014-06-29 15:38:08,48,0.416666666666667,0.583333333333333
"305","314","Connecticut Ave & Tilden St NW","31313","1404070737588","38.941154","-77.062036","true","false","1386954480000","","false","true",22,29,"1404067348643",2014-06-29 14:42:28,51,0.431372549019608,0.568627450980392
"306","315","Medical Center Dr & Key West Ave","32041","1404070867845","39.103091","-77.196442","true","false","1389273960000","","false","true",23,29,"1403962254511",2014-06-28 09:30:54,52,0.442307692307692,0.557692307692308
"307","316","Shady Grove Hospital","32042","1404070791064","39.097636","-77.196636","true","false","1389287040000","","false","true",25,3,"1403930192762",2014-06-28 00:36:32,28,0.892857142857143,0.107142857142857
"308","317","Veterans Pl & Pershing Dr ","32043","1404070851604","38.997445","-77.023894","true","false","1391876460000","","false","true",21,27,"1403974023291",2014-06-28 12:47:03,48,0.4375,0.5625
"309","318","Rockville Metro East","32044","1404070796831","39.085394","-77.145803","true","false","1393000800000","","false","true",24,26,"1404070382209",2014-06-29 15:33:02,50,0.48,0.52
"310","319","1st & H St NW","31638","1404070922839","38.900358","-77.012108","true","false","1392727500000","","false","true",17,5,"1404070920837",2014-06-29 15:42:00,22,0.772727272727273,0.227272727272727
"311","320","Fort Totten Metro","31515","1404070757909","38.952369","-77.002721","true","false","1392825840000","","false","true",20,7,"1404070514970",2014-06-29 15:35:14,27,0.740740740740741,0.259259259259259
"312","321","Takoma Metro","31408","1404070733732","38.975219","-77.016855","true","false","1392833400000","","false","true",25,3,"1404069766738",2014-06-29 15:22:46,28,0.892857142857143,0.107142857142857
"313","322","Rhode Island Ave Metro","31516","1404070918202","38.920682","-76.995876","true","false","1393259520000","","false","true",25,3,"1404068639677",2014-06-29 15:03:59,28,0.892857142857143,0.107142857142857
"314","323","Rolfe St & 9th St S","31075","1404070776579","38.866471","-77.076131","true","false","1394630640000","","false","true",21,27,"1404048874183",2014-06-29 09:34:34,48,0.4375,0.5625
"315","324","Shirlington Transit Center / S Quincy & Randolph St","31076","1404070840157","38.839912","-77.087083","true","false","1394637480000","","false","true",23,29,"1404050549560",2014-06-29 10:02:29,52,0.442307692307692,0.557692307692308
"316","325","Shady Grove Metro West","32045","1404070837964","39.119765","-77.166093","true","false","1397837820000","","false","true",21,7,"1404068321659",2014-06-29 14:58:41,28,0.75,0.25
"317","326","River Rd & Landy Ln","32046","1404070911027","38.964992","-77.103381","true","false","1396972380000","","false","true",24,4,"1404070185569",2014-06-29 15:29:45,28,0.857142857142857,0.142857142857143
"318","327","Rockville Metro West","32047","1404070727764","39.084379","-77.146866","true","false","1397847900000","","false","true",23,5,"1404016667962",2014-06-29 00:37:47,28,0.821428571428571,0.178571428571429
"319","328","Bethesda Metro","32048","1404070783400","38.984691","-77.094537","true","false","1398786060000","","false","true",20,29,"1404062623148",2014-06-29 13:23:43,49,0.408163265306122,0.591836734693878
"320","329","Iwo Jima Memorial/N Meade & 14th St N","31077","1404070781339","38.88992","-77.071301","true","false","1402585680000","","false","true",25,29,"1404069331757",2014-06-29 15:15:31,54,0.462962962962963,0.537037037037037
