"","id","name","terminalName","lastCommWithServer","lat","long","installed","locked","installDate","removalDate","temporary","public","nbBikes","nbEmptyDocks","latestUpdateTime","date","total","percentBikes","percentDocks"
"1","1","20th & Bell St","31000","1404518983774","38.8561","-77.0512","true","false","1316059200000","","false","true",3,2,"1404501837387",2014-07-04 15:23:57,5,0.6,0.4
"2","2","18th & Eads St.","31001","1404518974914","38.85725","-77.05332","true","false","1284989400000","","false","true",20,28,"1404518108597",2014-07-04 19:55:08,48,0.416666666666667,0.583333333333333
"3","3","20th & Crystal Dr","31002","1404518959176","38.8564","-77.0492","true","false","1284464580000","","false","true",6,13,"1404518234579",2014-07-04 19:57:14,19,0.315789473684211,0.684210526315789
"4","4","15th & Crystal Dr","31003","1404519039758","38.86017","-77.049593","true","false","1284464880000","","false","true",21,26,"1404517722302",2014-07-04 19:48:42,47,0.446808510638298,0.553191489361702
"5","5","Aurora Hills Community Ctr/18th & Hayes St","31004","1404518990626","38.857866","-77.05949","true","false","1284464880000","","false","true",2,3,"1404516920980",2014-07-04 19:35:20,5,0.4,0.6
"6","6","12th & Hayes St /  Pentagon City Metro","31005","1404518884029","38.862303","-77.059936","true","false","1284464940000","","false","true",23,4,"1404517193629",2014-07-04 19:39:53,27,0.851851851851852,0.148148148148148
"7","7","S Joyce & Army Navy Dr","31006","1404519076309","38.8637","-77.0633","true","false","1284464940000","","false","true",1,4,"1404513400455",2014-07-04 18:36:40,5,0.2,0.8
"8","8","Crystal City Metro / 18th & Bell St","31007","1404519000158","38.8573","-77.0511","true","false","1284465000000","","false","true",22,5,"1404518516213",2014-07-04 20:01:56,27,0.814814814814815,0.185185185185185
"9","9","12th & Army Navy Dr","31008","1404519005492","38.8629","-77.0528","true","false","1284465000000","","false","true",20,28,"1404517797306",2014-07-04 19:49:57,48,0.416666666666667,0.583333333333333
"10","10","27th & Crystal Dr","31009","1404519063769","38.848441","-77.051516","true","false","1284465060000","","false","true",23,4,"1404517614631",2014-07-04 19:46:54,27,0.851851851851852,0.148148148148148
"11","11","S Glebe & Potomac Ave","31010","1404518873071","38.8426","-77.0502","true","false","1284465120000","","false","true",18,30,"1404517665541",2014-07-04 19:47:45,48,0.375,0.625
"12","12","23rd & Crystal Dr","31011","1404519026886","38.8533","-77.0498","true","false","1284465120000","","false","true",22,3,"1404518124070",2014-07-04 19:55:24,25,0.88,0.12
"13","13","26th & S Clark St","31012","1404518936965","38.850688","-77.05152","true","false","1284465300000","","false","true",20,28,"1404514769791",2014-07-04 18:59:29,48,0.416666666666667,0.583333333333333
"14","14","19th St & Pennsylvania Ave NW","31100","1404519023916","38.9003","-77.0429","true","false","1284465360000","","false","true",8,1,"1404519022958",2014-07-04 20:10:22,9,0.888888888888889,0.111111111111111
"15","15","14th & V St NW","31101","1404518974578","38.9176","-77.0321","true","false","1284465420000","","false","true",12,19,"1404518685726",2014-07-04 20:04:45,31,0.387096774193548,0.612903225806452
"16","16","11th & Kenyon St NW","31102","1404518937205","38.929464","-77.027822","true","false","1286539080000","","false","true",2,20,"1404518695372",2014-07-04 20:04:55,22,0.0909090909090909,0.909090909090909
"17","17","16th & Harvard St NW","31103","1404518897585","38.926088","-77.036536","true","false","1284465480000","","false","true",4,16,"1404517931028",2014-07-04 19:52:11,20,0.2,0.8
"18","18","Adams Mill & Columbia Rd NW","31104","1404519030052","38.922925","-77.042581","true","false","1284465540000","","false","true",12,6,"1404518788000",2014-07-04 20:06:28,18,0.666666666666667,0.333333333333333
"19","19","14th & Harvard St NW","31105","1404519059773","38.9268","-77.0322","true","false","1284465540000","","false","true",23,4,"1404519058022",2014-07-04 20:10:58,27,0.851851851851852,0.148148148148148
"20","20","Calvert & Biltmore St NW","31106","1404519071135","38.923203","-77.047637","true","false","1284465600000","","false","true",12,15,"1404518587744",2014-07-04 20:03:07,27,0.444444444444444,0.555555555555556
"21","21","Lamont & Mt Pleasant NW","31107","1404518960526","38.9319","-77.0388","true","false","1284465600000","","false","true",1,12,"1404516864173",2014-07-04 19:34:24,13,0.0769230769230769,0.923076923076923
"22","22","4th & M St SW","31108","1404519074995","38.8767","-77.0178","true","false","1284465660000","","false","true",14,13,"1404519045759",2014-07-04 20:10:45,27,0.518518518518518,0.481481481481481
"23","23","15th & P St NW","31201","1404519010465","38.90985","-77.034438","true","false","1284465660000","","false","true",6,28,"1404518625826",2014-07-04 20:03:45,34,0.176470588235294,0.823529411764706
"24","24","14th & R St NW","31202","1404518886003","38.912682","-77.031681","true","false","1284465720000","","false","true",18,5,"1404518452887",2014-07-04 20:00:52,23,0.782608695652174,0.217391304347826
"25","25","14th & Rhode Island Ave NW","31203","1404519005809","38.9086","-77.0323","true","false","1284465780000","","false","true",10,27,"1404518763713",2014-07-04 20:06:03,37,0.27027027027027,0.72972972972973
"26","26","20th & E St NW","31204","1404518937325","38.8963","-77.045","true","false","1284465840000","","false","true",7,1,"1404518212459",2014-07-04 19:56:52,8,0.875,0.125
"27","27","21st & I St NW","31205","1404519057142","38.9008","-77.047","true","false","1283861040000","","false","true",20,22,"1404519056030",2014-07-04 20:10:56,42,0.476190476190476,0.523809523809524
"28","28","Georgia & New Hampshire Ave NW","31400","1404518859115","38.936043","-77.024649","true","false","1284465900000","","false","true",2,7,"1404518305776",2014-07-04 19:58:25,9,0.222222222222222,0.777777777777778
"29","29","14th St & Spring Rd NW","31401","1404519018704","38.9375","-77.0328","true","false","1284465960000","","false","true",23,13,"1404518006920",2014-07-04 19:53:26,36,0.638888888888889,0.361111111111111
"30","30","John McCormack Dr & Michigan Ave NE","31502","1404518944013","38.9346","-76.9955","true","false","1284465960000","","false","true",12,31,"1404513494721",2014-07-04 18:38:14,43,0.27906976744186,0.720930232558139
"31","31","5th & K St NW","31600","1404518943412","38.90304","-77.019027","true","false","1284466020000","","false","true",24,31,"1404518942294",2014-07-04 20:09:02,55,0.436363636363636,0.563636363636364
"32","32","19th & East Capitol St SE","31601","1404518997051","38.8896","-76.9769","true","false","1284466020000","","false","true",20,31,"1404518271734",2014-07-04 19:57:51,51,0.392156862745098,0.607843137254902
"33","33","Park Rd & Holmead Pl NW","31602","1404519078312","38.9308","-77.0315","true","false","1284466080000","","false","true",2,11,"1404519077158",2014-07-04 20:11:17,13,0.153846153846154,0.846153846153846
"34","34","Good Hope & Naylor Rd SE","31700","1404519012766","38.8601","-76.9672","true","false","1284466140000","","false","true",22,26,"1404503041952",2014-07-04 15:44:01,48,0.458333333333333,0.541666666666667
"35","35","Connecticut Ave & Newark St NW / Cleveland Park","31305","1404518847711","38.934267","-77.057979","true","false","1289241840000","","false","true",19,29,"1404516674397",2014-07-04 19:31:14,48,0.395833333333333,0.604166666666667
"36","36","Randle Circle & Minnesota Ave SE","31702","1404518843179","38.878","-76.9607","true","false","1284466200000","","false","true",20,28,"1404449982696",2014-07-04 00:59:42,48,0.416666666666667,0.583333333333333
"37","37","Minnesota Ave Metro/DOES","31703","1404519020406","38.897063","-76.947446","true","false","1284466200000","","false","true",22,26,"1404513264249",2014-07-04 18:34:24,48,0.458333333333333,0.541666666666667
"38","38","Nannie Helen Burroughs & Minnesota Ave NE","31704","1404518980568","38.901385","-76.941877","true","false","1386766320000","1298396940000","false","true",3,2,"1404514809479",2014-07-04 19:00:09,5,0.6,0.4
"39","39","Anacostia Metro","31801","1404519016395","38.862669","-76.994637","true","false","1284466260000","","false","true",20,28,"1404508831762",2014-07-04 17:20:31,48,0.416666666666667,0.583333333333333
"40","40","Good Hope Rd & MLK Ave SE","31802","1404518860298","38.867373","-76.988039","true","false","1305288720000","","false","true",20,28,"1404449980705",2014-07-04 00:59:40,48,0.416666666666667,0.583333333333333
"41","41","19th & E Street NW","31206","1404519042913","38.8952","-77.0436","true","false","1284545040000","","false","true",23,21,"1404518939696",2014-07-04 20:08:59,44,0.522727272727273,0.477272727272727
"42","42","4th St & Rhode Island Ave NE","31500","1404518935058","38.919488","-77.000624","true","false","1289970000000","","false","true",20,28,"1404513438483",2014-07-04 18:37:18,48,0.416666666666667,0.583333333333333
"43","43","10th & U St NW","31111","1404518983488","38.9172","-77.0259","true","false","1285822380000","","false","true",21,31,"1404518960318",2014-07-04 20:09:20,52,0.403846153846154,0.596153846153846
"44","44","Georgia Ave and Fairmont St NW","31207","1404518899557","38.9249","-77.0222","true","false","1285041600000","","false","true",2,3,"1404514274121",2014-07-04 18:51:14,5,0.4,0.6
"45","45","1st & N St  SE","31209","1404518914340","38.8743","-77.0057","true","false","1285041600000","","false","true",12,25,"1404518189076",2014-07-04 19:56:29,37,0.324324324324324,0.675675675675676
"46","46","20th St & Florida Ave NW","31110","1404518983942","38.9154","-77.0446","true","false","1285217520000","","false","true",18,5,"1404518017341",2014-07-04 19:53:37,23,0.782608695652174,0.217391304347826
"47","47","7th & T St NW","31109","1404519075539","38.9155","-77.0222","true","false","1285735680000","","false","true",2,7,"1404519038807",2014-07-04 20:10:38,9,0.222222222222222,0.777777777777778
"48","48","23rd & Eads St","31013","1404519079661","38.853613","-77.053535","true","false","1287562620000","","false","true",21,27,"1404516664801",2014-07-04 19:31:04,48,0.4375,0.5625
"49","49","M St & New Jersey Ave SE","31208","1404518958837","38.8763","-77.0037","true","false","1285041600000","","false","true",3,29,"1404518474874",2014-07-04 20:01:14,32,0.09375,0.90625
"50","51","Massachusetts Ave & Dupont Circle NW","31200","1404518839591","38.9101","-77.0444","true","false","1284523200000","","false","true",16,12,"1404518552280",2014-07-04 20:02:32,28,0.571428571428571,0.428571428571429
"51","52","1st & M St NE","31603","1404518924639","38.9057","-77.0056","true","false","1287115200000","","false","true",4,26,"1404518440157",2014-07-04 20:00:40,30,0.133333333333333,0.866666666666667
"52","53","21st & M St NW","31212","1404519065683","38.90534","-77.046774","true","false","1285041600000","","false","true",12,9,"1404518824095",2014-07-04 20:07:04,21,0.571428571428571,0.428571428571429
"53","54","17th & K St NW","31213","1404518890557","38.90276","-77.03863","true","false","1306236960000","","false","true",2,11,"1404516672368",2014-07-04 19:31:12,13,0.153846153846154,0.846153846153846
"54","55","3rd & H St NW","31604","1404519002028","38.899408","-77.015289","true","false","1287028800000","","false","true",20,3,"1404518738328",2014-07-04 20:05:38,23,0.869565217391304,0.130434782608696
"55","56","3rd & D St SE","31605","1404519078564","38.8851","-77.0023","true","false","1287201600000","","false","true",24,13,"1404518836206",2014-07-04 20:07:16,37,0.648648648648649,0.351351351351351
"56","57","Potomac & Pennsylvania Ave SE","31606","1404518878508","38.8803","-76.9862","true","false","1287460800000","","false","true",23,29,"1404518575610",2014-07-04 20:02:55,52,0.442307692307692,0.557692307692308
"57","58","14th & D St SE","31607","1404519028904","38.884","-76.9861","true","false","1287374400000","","false","true",4,21,"1404518545777",2014-07-04 20:02:25,25,0.16,0.84
"58","59","17th & Corcoran St NW","31214","1404518931901","38.9121","-77.0387","true","false","1294078980000","","false","true",18,9,"1404518930784",2014-07-04 20:08:50,27,0.666666666666667,0.333333333333333
"59","60","Van Ness Metro / UDC","31300","1404519011385","38.944551","-77.063896","true","false","1289624400000","","false","true",23,29,"1404511997053",2014-07-04 18:13:17,52,0.442307692307692,0.557692307692308
"60","61","Florida Ave & R St NW","31503","1404519000523","38.9126","-77.0135","true","false","1290056400000","","false","true",20,3,"1404513552445",2014-07-04 18:39:12,23,0.869565217391304,0.130434782608696
"61","62","8th & Eye St SE / Barracks Row","31608","1404518970746","38.8792","-76.9953","true","false","1287374400000","","false","true",2,3,"1404518969741",2014-07-04 20:09:29,5,0.4,0.6
"62","63","Ward Circle / American University","31301","1404518985562","38.938736","-77.087171","true","false","1289538000000","","false","true",12,6,"1404518019101",2014-07-04 19:53:39,18,0.666666666666667,0.333333333333333
"63","64","Idaho Ave & Newark St NW [on 2nd District patio]","31302","1404518866250","38.934751","-77.074647","true","false","1289970000000","","false","true",12,6,"1404518382210",2014-07-04 19:59:42,18,0.666666666666667,0.333333333333333
"64","65","14th St Heights / 14th & Crittenden St NW","31402","1404519003320","38.947774","-77.032818","true","false","1289970000000","","false","true",20,28,"1404514752964",2014-07-04 18:59:12,48,0.416666666666667,0.583333333333333
"65","66","Anacostia Library","31804","1404519008616","38.865784","-76.9784","true","false","1288584000000","","false","true",21,27,"1404449985394",2014-07-04 00:59:45,48,0.4375,0.5625
"66","67","Pennsylvania & Minnesota Ave SE","31805","1404519070190","38.873057","-76.971015","true","false","1288584000000","","false","true",23,21,"1404507025959",2014-07-04 16:50:25,44,0.522727272727273,0.477272727272727
"67","68","Eastern Market / 7th & North Carolina Ave SE","31610","1404519049984","38.886952","-76.996806","true","false","1282363200000","","false","true",3,27,"1404518565789",2014-07-04 20:02:45,30,0.1,0.9
"68","69","McPherson Square / 14th & H St NW","31216","1404518914489","38.899641","-77.032005","true","false","1284436800000","","false","true",19,8,"1404517464917",2014-07-04 19:44:24,27,0.703703703703704,0.296296296296296
"69","70","Benning Branch Library","31705","1404518950572","38.894","-76.947974","true","false","1288584000000","","false","true",20,27,"1404489165565",2014-07-04 11:52:45,47,0.425531914893617,0.574468085106383
"70","71","USDA / 12th & Independence Ave SW","31217","1404518981283","38.887237","-77.028226","true","false","1286297580000","","false","true",23,23,"1404518496731",2014-07-04 20:01:36,46,0.5,0.5
"71","72","Georgetown Harbor / 30th St NW","31215","1404519008518","38.9022212","-77.059219","true","false","1286300580000","","false","true",11,1,"1404518519887",2014-07-04 20:01:59,12,0.916666666666667,0.0833333333333333
"72","73","12th & Newton St NE","31501","1404519038117","38.933668","-76.991016","true","false","1286306220000","","false","true",12,31,"1404516540124",2014-07-04 19:29:00,43,0.27906976744186,0.720930232558139
"73","74","US Dept of State / Virginia Ave & 21st St NW","31220","1404518928561","38.894919","-77.046587","true","false","1286661900000","","false","true",7,1,"1404518927313",2014-07-04 20:08:47,8,0.875,0.125
"74","75","L'Enfant Plaza / 7th & C St SW","31218","1404518868782","38.886266","-77.022241","true","false","1286410980000","","false","true",21,31,"1404517660427",2014-07-04 19:47:40,52,0.403846153846154,0.596153846153846
"75","76","10th St & Constitution Ave NW","31219","1404518993597","38.893028","-77.026013","true","false","1286497620000","","false","true",14,3,"1404518992993",2014-07-04 20:09:52,17,0.823529411764706,0.176470588235294
"76","77","Kennedy Center","31211","1404519039741","38.895184","-77.054845","true","false","1286325060000","","false","true",12,31,"1404518176298",2014-07-04 19:56:16,43,0.27906976744186,0.720930232558139
"77","78","Eastern Market Metro / Pennsylvania Ave & 7th St SE","31613","1404518999599","38.884","-76.995397","true","false","1286411820000","","false","true",1,12,"1404518000574",2014-07-04 19:53:20,13,0.0769230769230769,0.923076923076923
"78","79","18th & M St NW","31221","1404518966069","38.904742","-77.041606","true","false","1286458140000","","false","true",20,7,"1404517517109",2014-07-04 19:45:17,27,0.740740740740741,0.259259259259259
"79","80","Tenleytown / Wisconsin Ave & Albemarle St NW","31303","1404518900961","38.947607","-77.079382","true","false","1287150300000","","false","true",21,31,"1404517610098",2014-07-04 19:46:50,52,0.403846153846154,0.596153846153846
"80","81","13th & H St NE","31611","1404518955444","38.9003","-76.9882","true","false","1286547000000","","false","true",1,20,"1404517637858",2014-07-04 19:47:17,21,0.0476190476190476,0.952380952380952
"81","82","5th & F St NW","31620","1404518914456","38.897222","-77.019347","true","false","1286492280000","","false","true",20,20,"1404517948004",2014-07-04 19:52:28,40,0.5,0.5
"82","83","New York Ave & 15th St NW","31222","1404518850984","38.8991","-77.0337","true","false","1286631960000","","false","true",24,28,"1404518366599",2014-07-04 19:59:26,52,0.461538461538462,0.538461538461538
"83","84","Convention Center / 7th & M St NW","31223","1404519011508","38.90572","-77.022264","true","false","1286631960000","","false","true",19,8,"1404518769612",2014-07-04 20:06:09,27,0.703703703703704,0.296296296296296
"84","85","Harvard St & Adams Mill Rd NW","31112","1404519067857","38.927872","-77.043358","true","false","1294164840000","","false","true",3,27,"1404519066621",2014-07-04 20:11:06,30,0.1,0.9
"85","86","19th & L St NW","31224","1404519043085","38.903407","-77.043648","true","false","1287182880000","","false","true",1,7,"1404518318177",2014-07-04 19:58:38,8,0.125,0.875
"86","87","C & O Canal & Wisconsin Ave NW","31225","1404519052458","38.90375","-77.06269","true","false","1287460800000","","false","true",8,30,"1404518879379",2014-07-04 20:07:59,38,0.210526315789474,0.789473684210526
"87","88","6th & Water St SW / SW Waterfront","31609","1404518894376","38.87675","-77.02127","true","false","1287720000000","","false","true",19,8,"1404518410615",2014-07-04 20:00:10,27,0.703703703703704,0.296296296296296
"88","89","D St & Maryland Ave NE","31612","1404518937055","38.894758","-76.997114","true","false","1330094460000","","false","true",2,15,"1404517155323",2014-07-04 19:39:15,17,0.117647058823529,0.882352941176471
"89","90","34th St & Wisconsin Ave NW","31226","1404519005485","38.916442","-77.0682","true","false","1287182760000","","false","true",20,28,"1404517269761",2014-07-04 19:41:09,48,0.416666666666667,0.583333333333333
"90","91","13th St & New York Ave NW","31227","1404518925767","38.900283","-77.029822","true","false","1287416880000","","false","true",12,15,"1404517056517",2014-07-04 19:37:36,27,0.444444444444444,0.555555555555556
"91","92","8th & H St NW","31228","1404518999336","38.8997","-77.023086","true","false","1287115200000","","false","true",1,24,"1404518756775",2014-07-04 20:05:56,25,0.04,0.96
"92","93","10th & Monroe St NE","31504","1404519040603","38.932514","-76.992889","true","false","1287096120000","","false","true",18,30,"1404510404396",2014-07-04 17:46:44,48,0.375,0.625
"93","94","Eckington Pl & Q St NE","31505","1404518868600","38.910972","-77.00495","true","false","1287096120000","","false","true",19,29,"1404516454778",2014-07-04 19:27:34,48,0.395833333333333,0.604166666666667
"94","95","6th & H St NE","31615","1404518931064","38.900384","-76.99831","true","false","1323696720000","","false","true",22,9,"1404518446956",2014-07-04 20:00:46,31,0.709677419354839,0.290322580645161
"95","96","3rd & H St NE","31616","1404519047965","38.900412","-77.001949","true","false","1287096060000","","false","true",12,10,"1404519046834",2014-07-04 20:10:46,22,0.545454545454545,0.454545454545455
"96","97","Bladensburg Rd & Benning Rd NE","31617","1404518993743","38.900413","-76.982872","true","false","1288200360000","","false","true",3,27,"1404518752030",2014-07-04 20:05:52,30,0.1,0.9
"97","98","4th & East Capitol St NE","31618","1404518921447","38.889955","-77.000349","true","false","1287028800000","","false","true",3,2,"1404518196136",2014-07-04 19:56:36,5,0.6,0.4
"98","99","Lincoln Park / 13th & East Capitol St NE ","31619","1404519053185","38.890461","-76.988355","true","false","1288038900000","","false","true",5,6,"1404518811275",2014-07-04 20:06:51,11,0.454545454545455,0.545454545454545
"99","100","Branch & Pennsylvania Ave SE","31701","1404519007450","38.8692","-76.9599","true","false","1309008600000","","false","true",19,29,"1404519006627",2014-07-04 20:10:06,48,0.395833333333333,0.604166666666667
"100","101","13th & D St NE","31622","1404518902744","38.894832","-76.987633","true","false","1288114080000","","false","true",9,7,"1404518418345",2014-07-04 20:00:18,16,0.5625,0.4375
"101","102","New Hampshire Ave & T St NW","31229","1404518947212","38.91554","-77.03818","true","false","1287178020000","","false","true",3,5,"1404517373014",2014-07-04 19:42:53,8,0.375,0.625
"102","103","Metro Center / 12th & G St NW","31230","1404518908084","38.898364","-77.027869","true","false","1305259200000","","false","true",22,18,"1404518666044",2014-07-04 20:04:26,40,0.55,0.45
"103","104","14th & D St NW / Ronald Reagan Building","31231","1404518988086","38.894514","-77.031617","true","false","1303306260000","","false","true",8,3,"1404518745884",2014-07-04 20:05:45,11,0.727272727272727,0.272727272727273
"104","105","7th & F St NW / National Portrait Gallery","31232","1404519027297","38.897324","-77.022322","true","false","1304108940000","","false","true",23,3,"1404518114628",2014-07-04 19:55:14,26,0.884615384615385,0.115384615384615
"105","106","17th & K St NW / Farragut Square","31233","1404519049551","38.902061","-77.038322","true","false","1304022480000","","false","true",21,15,"1404519048815",2014-07-04 20:10:48,36,0.583333333333333,0.416666666666667
"106","107","20th & O St NW / Dupont South","31234","1404518969186","38.908905","-77.04478","true","false","1328850000000","","false","true",2,11,"1404517371217",2014-07-04 19:42:51,13,0.153846153846154,0.846153846153846
"107","108","4th & D St NW / Judiciary Square","31621","1404518893253","38.895344","-77.016106","true","false","1304481600000","","false","true",4,26,"1404517684893",2014-07-04 19:48:04,30,0.133333333333333,0.866666666666667
"108","109","19th St & Constitution Ave NW","31235","1404519078024","38.8923","-77.0436","true","false","1287607080000","","false","true",7,15,"1404519058478",2014-07-04 20:10:58,22,0.318181818181818,0.681818181818182
"109","110","37th & O St NW / Georgetown University","31236","1404519011071","38.90774","-77.071652","true","false","1288037580000","","false","true",19,12,"1404516668581",2014-07-04 19:31:08,31,0.612903225806452,0.387096774193548
"110","111","11th & H St NE","31614","1404519046390","38.899983","-76.991383","true","false","1323666000000","","false","true",21,6,"1404519045779",2014-07-04 20:10:45,27,0.777777777777778,0.222222222222222
"111","112","25th St & Pennsylvania Ave NW","31237","1404518913669","38.903827","-77.053485","true","false","1288551000000","","false","true",2,7,"1404518188351",2014-07-04 19:56:28,9,0.222222222222222,0.777777777777778
"112","113","Columbus Circle / Union Station","31623","1404519012048","38.89696","-77.00493","true","false","1285905600000","","false","true",9,15,"1404518769679",2014-07-04 20:06:09,24,0.375,0.625
"113","114","North Capitol St & F St NW","31624","1404519042977","38.897446","-77.009888","true","false","1288122720000","","false","true",4,5,"1404518799973",2014-07-04 20:06:39,9,0.444444444444444,0.555555555555556
"114","115","11th & M St NW","31266","1404518850186","38.905607","-77.027137","true","false","1364995680000","","false","true",24,3,"1404518849310",2014-07-04 20:07:29,27,0.888888888888889,0.111111111111111
"115","116","36th & Calvert St NW / Glover Park","31304","1404519022301","38.922581","-77.070334","true","false","1289236620000","","false","true",18,5,"1404513457586",2014-07-04 18:37:37,23,0.782608695652174,0.217391304347826
"116","117","14th & G St NW","31238","1404518919224","38.898069","-77.031823","true","false","1289237340000","","false","true",3,4,"1404518918040",2014-07-04 20:08:38,7,0.428571428571429,0.571428571428571
"117","118","Potomac Ave & 35th St S","31052","1404518846229","38.844015","-77.050537","true","false","1351092960000","","false","true",3,6,"1404517880100",2014-07-04 19:51:20,9,0.333333333333333,0.666666666666667
"118","124","Ohio Dr & West Basin Dr SW / MLK & FDR Memorials","31240","1404518946880","38.88412","-77.04657","true","false","1331904960000","","false","true",24,7,"1404518221767",2014-07-04 19:57:01,31,0.774193548387097,0.225806451612903
"119","125","11th & F St NW","31262","1404519030283","38.897857","-77.026975","true","false","1359981840000","","false","true",21,31,"1404518589931",2014-07-04 20:03:09,52,0.403846153846154,0.596153846153846
"120","126","23rd & E St NW ","31260","1404519077756","38.896104","-77.049882","true","false","1359652440000","","false","true",9,13,"1404518551295",2014-07-04 20:02:31,22,0.409090909090909,0.590909090909091
"121","127","Lynn & 19th St North","31014","1404518854833","38.897315","-77.070993","true","false","1302957060000","","false","true",18,9,"1404517405115",2014-07-04 19:43:25,27,0.666666666666667,0.333333333333333
"122","128","Rosslyn Metro / Wilson Blvd & Ft Myer Dr","31015","1404518879677","38.8946","-77.072305","true","false","1302957120000","","false","true",24,28,"1404515983048",2014-07-04 19:19:43,52,0.461538461538462,0.538461538461538
"123","129","Clarendon Blvd & Pierce St","31016","1404518869796","38.893648","-77.076701","true","false","1302957960000","","false","true",21,27,"1404516763882",2014-07-04 19:32:43,48,0.4375,0.5625
"124","130","Court House Metro / Wilson Blvd & N Uhle St","31017","1404518890541","38.891696","-77.0846","true","false","1320933600000","","false","true",23,29,"1404518203857",2014-07-04 19:56:43,52,0.442307692307692,0.557692307692308
"125","131","N Rhodes & 16th St N","31018","1404518912927","38.892164","-77.079375","true","false","1302963480000","","false","true",12,30,"1404516017498",2014-07-04 19:20:17,42,0.285714285714286,0.714285714285714
"126","132","Fairfax Village","31706","1404519060351","38.86559","-76.952103","true","false","1311771600000","","false","true",22,30,"1404449978487",2014-07-04 00:59:38,52,0.423076923076923,0.576923076923077
"127","133","21st St & Constitution Ave NW","31261","1404519054370","38.892459","-77.046567","true","false","1359639120000","","false","true",8,1,"1404518811610",2014-07-04 20:06:51,9,0.888888888888889,0.111111111111111
"128","134","Wilson Blvd & N Edgewood St","31019","1404519014587","38.889","-77.0925","true","false","1321015980000","","false","true",12,6,"1404518530859",2014-07-04 20:02:10,18,0.666666666666667,0.333333333333333
"129","135","Columbia Rd & Belmont St NW","31113","1404519018393","38.920669","-77.04368","true","false","1321625100000","","false","true",1,12,"1404517125595",2014-07-04 19:38:45,13,0.0769230769230769,0.923076923076923
"130","136","17th & Rhode Island Ave NW","31239","1404518983151","38.906602","-77.038785","true","false","1321639800000","","false","true",2,16,"1404518499010",2014-07-04 20:01:39,18,0.111111111111111,0.888888888888889
"131","137","Thomas Circle","31241","1404519062648","38.9059","-77.0325","true","false","1321714320000","","false","true",7,12,"1404519061219",2014-07-04 20:11:01,19,0.368421052631579,0.631578947368421
"132","138","Wilson Blvd & Franklin Rd","31020","1404518998521","38.8904","-77.0889","true","false","1322715600000","","false","true",20,28,"1404499280268",2014-07-04 14:41:20,48,0.416666666666667,0.583333333333333
"133","139","Clarendon Blvd & N Fillmore St","31021","1404518925058","38.8881","-77.09308","true","false","1321981080000","","false","true",21,31,"1404518441560",2014-07-04 20:00:41,52,0.403846153846154,0.596153846153846
"134","140","Clarendon Metro / Wilson Blvd & N Highland St","31022","1404519046048","38.88786","-77.094875","true","false","1321983480000","","false","true",22,3,"1404513622237",2014-07-04 18:40:22,25,0.88,0.12
"135","141","18th St & Pennsylvania Ave NW","31242","1404518895115","38.89968","-77.041539","true","false","1322571600000","","false","true",8,1,"1404516963239",2014-07-04 19:36:03,9,0.888888888888889,0.111111111111111
"136","142","Maryland & Independence Ave SW","31243","1404519058791","38.887299","-77.018939","true","false","1327669020000","","false","true",2,25,"1404518816916",2014-07-04 20:06:56,27,0.0740740740740741,0.925925925925926
"137","143","4th & E St SW","31244","1404519030451","38.88412","-77.017445","true","false","1322756880000","","false","true",24,3,"1404518546416",2014-07-04 20:02:26,27,0.888888888888889,0.111111111111111
"138","144","3rd & G St SE","31625","1404518951999","38.881185","-77.001828","true","false","1322661660000","","false","true",3,30,"1404515920968",2014-07-04 19:18:40,33,0.0909090909090909,0.909090909090909
"139","145","7th & R St NW / Shaw Library","31245","1404519045935","38.912719","-77.022155","true","false","1322583120000","","false","true",20,3,"1404518977095",2014-07-04 20:09:37,23,0.869565217391304,0.130434782608696
"140","146","9th & Upshur St NW","31404","1404519021001","38.9418","-77.0251","true","false","1323194880000","","false","true",21,31,"1404518779167",2014-07-04 20:06:19,52,0.403846153846154,0.596153846153846
"141","147","1st & Rhode Island Ave NW","31506","1404518965057","38.915417","-77.012289","true","false","1323178380000","","false","true",19,4,"1404518380874",2014-07-04 19:59:40,23,0.826086956521739,0.173913043478261
"142","148","Columbia Rd & Georgia Ave NW","31115","1404519052261","38.928156","-77.02344","true","false","1323234000000","","false","true",23,4,"1404519051003",2014-07-04 20:10:51,27,0.851851851851852,0.148148148148148
"143","149","California St & Florida Ave NW","31116","1404519075090","38.917761","-77.04062","true","false","1323752400000","","false","true",19,8,"1404519022373",2014-07-04 20:10:22,27,0.703703703703704,0.296296296296296
"144","150","Benning Rd & East Capitol St NE / Benning Rd Metro","31707","1404519006280","38.889935","-76.93723","true","false","1324404360000","","false","true",3,31,"1404489567770",2014-07-04 11:59:27,34,0.0882352941176471,0.911764705882353
"145","151","3000 Connecticut Ave NW / National Zoo","31307","1404518953230","38.930282","-77.055599","true","false","1324496640000","","false","true",23,29,"1404511779698",2014-07-04 18:09:39,52,0.442307692307692,0.557692307692308
"146","152","Anacostia Ave & Benning Rd NE / River Terrace ","31708","1404518939792","38.896544","-76.96012","true","false","1324402320000","","false","true",24,28,"1404505365290",2014-07-04 16:22:45,52,0.461538461538462,0.538461538461538
"147","153","M St & Pennsylvania Ave NW","31246","1404519056875","38.905126","-77.056887","true","false","1324485480000","","false","true",18,9,"1404519055507",2014-07-04 20:10:55,27,0.666666666666667,0.333333333333333
"148","154","15th St & Massachusetts Ave SE","31626","1404519057496","38.88732","-76.983569","true","false","1324565040000","","false","true",20,3,"1404519056496",2014-07-04 20:10:56,23,0.869565217391304,0.130434782608696
"149","155","Congress Heights Metro","31806","1404518867935","38.844711","-76.987823","true","false","1324581180000","","false","true",24,28,"1404450000464",2014-07-04 01:00:00,52,0.461538461538462,0.538461538461538
"150","156","N Quincy St & Glebe Rd","31035","1404518998292","38.876393","-77.107735","true","false","1335552600000","","false","true",1,4,"1404514586224",2014-07-04 18:56:26,5,0.2,0.8
"151","157","Wilson Blvd & N Oakland St","31033","1404519068492","38.8815","-77.10396","true","false","1335387720000","","false","true",1,4,"1404517584830",2014-07-04 19:46:24,5,0.2,0.8
"152","158","N Veitch  & 20th St N","31029","1404519015182","38.896923","-77.086502","true","false","1335213360000","","false","true",2,7,"1404518049267",2014-07-04 19:54:09,9,0.222222222222222,0.777777777777778
"153","159","11th & K St NW","31263","1404518999113","38.90268","-77.02674","true","false","1360936140000","","false","true",3,31,"1404518998296",2014-07-04 20:09:58,34,0.0882352941176471,0.911764705882353
"154","160","Fairfax Dr & Wilson Blvd","31023","1404518843527","38.885801","-77.097745","true","false","1335545880000","","false","true",21,27,"1404516361934",2014-07-04 19:26:01,48,0.4375,0.5625
"155","161","Key Blvd & N Quinn St","31027","1404518865513","38.896015","-77.078107","true","false","1335195480000","","false","true",22,26,"1404516029639",2014-07-04 19:20:29,48,0.458333333333333,0.541666666666667
"156","162","1st & K St SE","31628","1404518924423","38.87861","-77.006004","true","false","1328717220000","","false","true",12,6,"1404518681360",2014-07-04 20:04:41,18,0.666666666666667,0.333333333333333
"157","163","39th & Calvert St NW / Stoddert","31306","1404518935747","38.922649","-77.077271","true","false","1328898300000","","false","true",19,8,"1404518451964",2014-07-04 20:00:51,27,0.703703703703704,0.296296296296296
"158","164","1st & Washington Hospital Center NW","31507","1404518896072","38.928743","-77.012457","true","false","1329153540000","","false","true",24,28,"1404518653465",2014-07-04 20:04:13,52,0.461538461538462,0.538461538461538
"159","165","Virginia Square Metro / N Monroe St & 9th St N","31024","1404519019871","38.882788","-77.103148","true","false","1329508980000","","false","true",20,7,"1404516611131",2014-07-04 19:30:11,27,0.740740740740741,0.259259259259259
"160","166","Central Library / N Quincy St & 10th St N","31025","1404518987272","38.88397","-77.10783","true","false","1329493920000","","false","true",20,28,"1404516654003",2014-07-04 19:30:54,48,0.416666666666667,0.583333333333333
"161","167","Washington Blvd & 10th St N","31026","1404519027691","38.884734","-77.093485","true","false","1329944340000","","false","true",22,30,"1404517830222",2014-07-04 19:50:30,52,0.423076923076923,0.576923076923077
"162","168","Jefferson Dr & 14th St SW","31247","1404518925749","38.888553","-77.032429","true","false","1331911860000","","false","true",13,2,"1404518217441",2014-07-04 19:56:57,15,0.866666666666667,0.133333333333333
"163","169","Smithsonian / Jefferson Dr & 12th St SW","31248","1404518987359","38.888767","-77.02858","true","false","1333369620000","","false","true",9,26,"1404518574062",2014-07-04 20:02:54,35,0.257142857142857,0.742857142857143
"164","170","George Mason Dr & Wilson Blvd","31036","1404518950181","38.87887","-77.1207","true","false","1335805380000","","false","true",21,31,"1404517741704",2014-07-04 19:49:01,52,0.403846153846154,0.596153846153846
"165","171","6th St & Indiana Ave NW","31264","1404518970654","38.894573","-77.01994","true","false","1364990040000","","false","true",10,2,"1404518969672",2014-07-04 20:09:29,12,0.833333333333333,0.166666666666667
"166","172","N Veitch & Key Blvd","31028","1404519038203","38.893241","-77.086045","true","false","1335202980000","","false","true",2,31,"1404517588542",2014-07-04 19:46:28,33,0.0606060606060606,0.939393939393939
"167","173","N Adams St & Lee Hwy","31030","1404519029772","38.89593","-77.089006","true","false","1335369060000","","false","true",2,7,"1404517579837",2014-07-04 19:46:19,9,0.222222222222222,0.777777777777778
"168","174","15th & N Scott St","31031","1404518887700","38.89054","-77.08095","true","false","1335362100000","","false","true",19,29,"1404518645430",2014-07-04 20:04:05,48,0.395833333333333,0.604166666666667
"169","175","Washington Blvd & 7th St N","31032","1404518908127","38.880834","-77.091129","true","false","1335794400000","","false","true",22,26,"1404498420217",2014-07-04 14:27:00,48,0.458333333333333,0.541666666666667
"170","176","Ballston Metro / N Stuart & 9th St N","31037","1404519050988","38.881044","-77.111768","true","false","1335817440000","","false","true",21,6,"1404518282657",2014-07-04 19:58:02,27,0.777777777777778,0.222222222222222
"171","177","N Randolph St & Fairfax Dr","31034","1404518982364","38.882629","-77.109366","true","false","1335542580000","","false","true",1,4,"1404518980514",2014-07-04 20:09:40,5,0.2,0.8
"172","178","Jefferson Memorial","31249","1404518881477","38.879819","-77.037413","true","false","1335969180000","","false","true",24,5,"1404518879550",2014-07-04 20:07:59,29,0.827586206896552,0.172413793103448
"173","179","Good Hope Rd & 14th St SE","31803","1404519035801","38.866611","-76.985238","true","false","1335981060000","","false","true",24,28,"1404512391696",2014-07-04 18:19:51,52,0.461538461538462,0.538461538461538
"174","180","Glebe Rd & 11th St N","31038","1404519025948","38.883921","-77.116817","true","false","1337269200000","","false","true",19,28,"1404509545487",2014-07-04 17:32:25,47,0.404255319148936,0.595744680851064
"175","181","N Quincy St & Wilson Blvd","31039","1404519031584","38.880151","-77.107673","true","false","1338301620000","","false","true",1,4,"1404516616425",2014-07-04 19:30:16,5,0.2,0.8
"176","182","Fairfax Dr & Kenmore St","31040","1404518851655","38.884616","-77.10108","true","false","1366814880000","","false","true",1,4,"1404515421463",2014-07-04 19:10:21,5,0.2,0.8
"177","183","Gallaudet / 8th St & Florida Ave NE","31508","1404518942694","38.90509","-76.9941","true","false","1342033620000","","false","true",2,11,"1404514984338",2014-07-04 19:03:04,13,0.153846153846154,0.846153846153846
"178","185","20th & L St NW","31250","1404518904008","38.903584","-77.044789","true","false","1340632500000","","false","true",19,8,"1404518420187",2014-07-04 20:00:20,27,0.703703703703704,0.296296296296296
"179","186","12th & L St NW","31251","1404518854152","38.903819","-77.0284","true","false","1340639640000","","false","true",19,8,"1404517405201",2014-07-04 19:43:25,27,0.703703703703704,0.296296296296296
"180","187","21st St & Pennsylvania Ave NW","31252","1404518906250","38.901539","-77.046564","true","false","1340811180000","","false","true",1,12,"1404514317285",2014-07-04 18:51:57,13,0.0769230769230769,0.923076923076923
"181","188","19th & K St NW","31253","1404519014209","38.902204","-77.04337","true","false","1340801880000","","false","true",21,10,"1404518531021",2014-07-04 20:02:11,31,0.67741935483871,0.32258064516129
"182","189","Prince St & Union St","31041","1404518926038","38.803124","-77.040363","true","false","1346070420000","","false","true",9,13,"1404516334612",2014-07-04 19:25:34,22,0.409090909090909,0.590909090909091
"183","190","Market Square / King St & Royal St","31042","1404518967561","38.804718","-77.043363","true","false","1346077680000","","false","true",1,8,"1404515729559",2014-07-04 19:15:29,9,0.111111111111111,0.888888888888889
"184","191","Saint Asaph St & Pendleton  St","31043","1404518983668","38.810743","-77.044664","true","false","1346084880000","","false","true",18,5,"1404517775638",2014-07-04 19:49:35,23,0.782608695652174,0.217391304347826
"185","192","King St & Patrick St","31044","1404518872219","38.805317","-77.049883","true","false","1346442900000","","false","true",2,7,"1404518629663",2014-07-04 20:03:49,9,0.222222222222222,0.777777777777778
"186","193","15th & K St NW","31254","1404519042491","38.902","-77.03353","true","false","1341232920000","","false","true",18,9,"1404517661150",2014-07-04 19:47:41,27,0.666666666666667,0.333333333333333
"187","194","Commerce St & Fayette St","31045","1404519048336","38.805648","-77.05293","true","false","1346442960000","","false","true",19,4,"1404503121979",2014-07-04 15:45:21,23,0.826086956521739,0.173913043478261
"188","195","Henry St & Pendleton St","31046","1404519062745","38.811456","-77.050276","true","false","1346442960000","","false","true",2,9,"1404519061646",2014-07-04 20:11:01,11,0.181818181818182,0.818181818181818
"189","196","Braddock Rd Metro","31047","1404518942584","38.814577","-77.052808","true","false","1346442960000","","false","true",19,8,"1404517975984",2014-07-04 19:52:55,27,0.703703703703704,0.296296296296296
"190","197","King St Metro","31048","1404519010401","38.805767","-77.06072","true","false","1346443020000","","false","true",7,27,"1404514412468",2014-07-04 18:53:32,34,0.205882352941176,0.794117647058823
"191","198","24th & N St NW","31255","1404519002406","38.9066","-77.05152","true","false","1341575340000","","false","true",2,7,"1404517063663",2014-07-04 19:37:43,9,0.222222222222222,0.777777777777778
"192","199","10th & E St NW","31256","1404519069957","38.895914","-77.026064","true","false","1342109700000","","false","true",5,21,"1404518825980",2014-07-04 20:07:05,26,0.192307692307692,0.807692307692308
"193","200","22nd & I St NW / Foggy Bottom","31257","1404518994932","38.90088","-77.048911","true","false","1342442220000","","false","true",6,13,"1404518994897",2014-07-04 20:09:54,19,0.315789473684211,0.684210526315789
"194","201","Utah St & 11th St N ","31049","1404518992023","38.883669","-77.113905","true","false","1342539420000","","false","true",18,30,"1404515616661",2014-07-04 19:13:36,48,0.375,0.625
"195","202","Barton St & 10th St N","31050","1404519028588","38.884961","-77.08777","true","false","1346771820000","","false","true",1,4,"1404513806926",2014-07-04 18:43:26,5,0.2,0.8
"196","203","Arlington Blvd & N Queen St","31051","1404519067606","38.889365","-77.077294","true","false","1346776740000","","false","true",1,4,"1404513037060",2014-07-04 18:30:37,5,0.2,0.8
"197","204","Lincoln Memorial","31258","1404518935161","38.888251","-77.049426","true","false","1349268360000","","false","true",15,13,"1404518933833",2014-07-04 20:08:53,28,0.535714285714286,0.464285714285714
"198","206","20th St & Virginia Ave NW","31259","1404519014641","38.894722","-77.045128","true","false","1359646980000","","false","true",3,27,"1404514464153",2014-07-04 18:54:24,30,0.1,0.9
"199","207","5th St & Massachusetts Ave NW","31265","1404519041431","38.90093","-77.018677","true","false","1367842440000","","false","true",20,7,"1404518798708",2014-07-04 20:06:38,27,0.740740740740741,0.259259259259259
"200","208","39th & Veazey St NW","31308","1404518923207","38.943837","-77.077078","true","false","1360598160000","","false","true",19,4,"1404517715632",2014-07-04 19:48:35,23,0.826086956521739,0.173913043478261
"201","209","Fessenden St & Wisconsin Ave NW","31309","1404518930661","38.954812","-77.082426","true","false","1360588560000","","false","true",4,26,"1404515349927",2014-07-04 19:09:09,30,0.133333333333333,0.866666666666667
"202","210","M St & Delaware Ave NE","31627","1404518850806","38.905707","-77.003041","true","false","1360929900000","","false","true",12,14,"1404517935474",2014-07-04 19:52:15,26,0.461538461538462,0.538461538461538
"203","211","Columbia Pike & S Courthouse Rd","31053","1404518860692","38.863833","-77.080319","true","false","1364482620000","","false","true",18,5,"1404518376512",2014-07-04 19:59:36,23,0.782608695652174,0.217391304347826
"204","212","Walter Reed Community Center / Walter Reed Dr & 16th St S","31054","1404518975540","38.857803","-77.086733","true","false","1364466180000","","false","true",18,30,"1404491971857",2014-07-04 12:39:31,48,0.375,0.625
"205","213","28th St S & S Meade St","31055","1404518988242","38.846222","-77.069275","true","false","1364476320000","","false","true",1,8,"1404518020940",2014-07-04 19:53:40,9,0.111111111111111,0.888888888888889
"206","214","18th St & Wyoming Ave NW","31114","1404519045298","38.918809","-77.041571","true","false","1365003300000","","false","true",1,17,"1404519043845",2014-07-04 20:10:43,18,0.0555555555555556,0.944444444444444
"207","215","5th & Kennedy St NW","31403","1404518988579","38.956595","-77.019815","true","false","1365777420000","","false","true",6,13,"1404515932096",2014-07-04 19:18:52,19,0.315789473684211,0.684210526315789
"208","216","Georgia Ave & Emerson St NW","31405","1404518842281","38.949662","-77.027333","true","false","1365783540000","","false","true",5,29,"1404508374909",2014-07-04 17:12:54,34,0.147058823529412,0.852941176470588
"209","217","14th & Upshur St NW","31406","1404519074482","38.942016","-77.032652","true","false","1365794820000","","false","true",6,28,"1404519073825",2014-07-04 20:11:13,34,0.176470588235294,0.823529411764706
"210","218","14th St & Colorado Ave NW","31407","1404518919656","38.956432","-77.032947","true","false","1365798900000","","false","true",5,28,"1404518434740",2014-07-04 20:00:34,33,0.151515151515152,0.848484848484849
"211","219","S Troy St & 26th St S","31056","1404518887273","38.847977","-77.075104","true","false","1366725840000","","false","true",2,3,"1404516897395",2014-07-04 19:34:57,5,0.4,0.6
"212","220","S Four Mile Run Dr & S Shirlington Rd","31057","1404519018631","38.8444","-77.085931","true","false","1366729200000","","false","true",2,3,"1404517109790",2014-07-04 19:38:29,5,0.4,0.6
"213","221","S Oakland St & Columbia Pike","31058","1404518853799","38.860789","-77.09586","true","false","1366735380000","","false","true",21,27,"1404517528499",2014-07-04 19:45:28,48,0.4375,0.5625
"214","222","S Abingdon St & 36th St S","31059","1404518908066","38.835213","-77.094295","true","false","1366739700000","","false","true",19,28,"1404517585697",2014-07-04 19:46:25,47,0.404255319148936,0.595744680851064
"215","223","S Arlington Mill Dr & Campbell Ave","31060","1404519052794","38.84232","-77.089555","true","false","1366802400000","","false","true",19,3,"1404519052142",2014-07-04 20:10:52,22,0.863636363636364,0.136363636363636
"216","224","S Kenmore & 24th St S","31061","1404518960472","38.848454","-77.084918","true","false","1366825140000","","false","true",12,31,"1404491023417",2014-07-04 12:23:43,43,0.27906976744186,0.720930232558139
"217","225","13th St & Eastern Ave","32006","1404519043553","38.987","-77.029417","true","false","1380292680000","","false","true",23,29,"1404478727503",2014-07-04 08:58:47,52,0.442307692307692,0.557692307692308
"218","226","Wisconsin Ave & O St NW","31312","1404518883082","38.90849","-77.063586","true","false","1366910820000","","false","true",21,6,"1404517784849",2014-07-04 19:49:44,27,0.777777777777778,0.222222222222222
"219","227","S George Mason Dr & 13th St S","31062","1404519077148","38.854691","-77.100555","true","false","1372694040000","","false","true",22,26,"1404508399357",2014-07-04 17:13:19,48,0.458333333333333,0.541666666666667
"220","228","Connecticut & Nebraska Ave NW","31310","1404519030266","38.955016","-77.069956","true","false","1366894140000","","false","true",24,6,"1404517822928",2014-07-04 19:50:22,30,0.8,0.2
"221","229","17th St & Massachusetts Ave NW","31267","1404519066006","38.908142","-77.038359","true","false","1367851920000","","false","true",1,12,"1404516084219",2014-07-04 19:21:24,13,0.0769230769230769,0.923076923076923
"222","230","15th & Euclid St  NW","31117","1404519024536","38.92333","-77.0352","true","false","1367856780000","","false","true",23,29,"1404518782223",2014-07-04 20:06:22,52,0.442307692307692,0.557692307692308
"223","231","8th & East Capitol St NE","31629","1404518845174","38.889988","-76.995193","true","false","1368545580000","","false","true",1,4,"1404518119449",2014-07-04 19:55:19,5,0.2,0.8
"224","232","New Jersey Ave & R St NW","31509","1404518998679","38.912659","-77.017669","true","false","1368532680000","","false","true",3,27,"1404516067796",2014-07-04 19:21:07,30,0.1,0.9
"225","233","15th & East Capitol St NE","31630","1404518882265","38.889908","-76.983326","true","false","1368541260000","","false","true",21,27,"1404516226055",2014-07-04 19:23:46,48,0.4375,0.5625
"226","234","8th & F St NE","31631","1404519002133","38.897274","-76.994749","true","false","1368552540000","","false","true",21,31,"1404518429946",2014-07-04 20:00:29,52,0.403846153846154,0.596153846153846
"227","235","18th St & Rhode Island Ave NE","31510","1404519064420","38.927095","-76.978924","true","false","1369915500000","","false","true",4,26,"1404505910372",2014-07-04 16:31:50,30,0.133333333333333,0.866666666666667
"228","236","15th & F St NE","31632","1404518976096","38.897195","-76.983575","true","false","1369928820000","","false","true",2,11,"1404516802235",2014-07-04 19:33:22,13,0.153846153846154,0.846153846153846
"229","237","12th & Irving St NE","31511","1404518968858","38.928644","-76.990955","true","false","1369923120000","","false","true",4,26,"1404514630036",2014-07-04 18:57:10,30,0.133333333333333,0.866666666666667
"230","238","34th St & Minnesota Ave SE","31709","1404519058724","38.884085","-76.957461","true","false","1370358840000","","false","true",20,27,"1404477271473",2014-07-04 08:34:31,47,0.425531914893617,0.574468085106383
"231","239","Alabama & MLK Ave SE","31800","1404518937658","38.843222","-76.999388","true","false","1370345160000","","false","true",22,26,"1404450000733",2014-07-04 01:00:00,48,0.458333333333333,0.541666666666667
"232","240","Pleasant St & MLK Ave SE","31807","1404518872174","38.863897","-76.990037","true","false","1370351820000","","false","true",21,27,"1404487366363",2014-07-04 11:22:46,48,0.4375,0.5625
"233","241","Neal St & Trinidad Ave NE","31512","1404519052231","38.903732","-76.987211","true","false","1371221640000","","false","true",22,30,"1404518809966",2014-07-04 20:06:49,52,0.423076923076923,0.576923076923077
"234","242","13th & U St NW","31268","1404519061862","38.916794","-77.029779","true","false","1371231240000","","false","true",12,15,"1404518630746",2014-07-04 20:03:50,27,0.444444444444444,0.555555555555556
"235","243","S George Mason Dr & Four Mile Run","31063","1404519038232","38.852248","-77.105022","true","false","1372690500000","","false","true",20,28,"1404514248418",2014-07-04 18:50:48,48,0.416666666666667,0.583333333333333
"236","244","S Stafford & 34th St S","31064","1404519048254","38.834108","-77.087323","true","false","1372701360000","","false","true",2,7,"1404501964733",2014-07-04 15:26:04,9,0.222222222222222,0.777777777777778
"237","245","N Pershing Dr & Wayne St","31065","1404519006916","38.880705","-77.08596","true","false","1372680300000","","false","true",20,28,"1404516592576",2014-07-04 19:29:52,48,0.416666666666667,0.583333333333333
"238","246","Columbia Pike & S Orme St","31066","1404519051154","38.867262","-77.072315","true","false","1372684620000","","false","true",23,21,"1404518566730",2014-07-04 20:02:46,44,0.522727272727273,0.477272727272727
"239","247","3rd St & Pennsylvania Ave SE","31269","1404518897975","38.887378","-77.001955","true","false","1374598740000","","false","true",4,26,"1404518896721",2014-07-04 20:08:16,30,0.133333333333333,0.866666666666667
"240","248","8th & D St NW","31270","1404519057936","38.894851","-77.02324","true","false","1374581640000","","false","true",6,13,"1404519057242",2014-07-04 20:10:57,19,0.315789473684211,0.684210526315789
"241","249","3rd & Elm St NW","31118","1404519057882","38.917622","-77.01597","true","false","1374589740000","","false","true",3,27,"1404519056595",2014-07-04 20:10:56,30,0.1,0.9
"242","250","Rhode Island Ave & V St NE","31513","1404519035410","38.918155","-77.004746","true","false","1375196700000","","false","true",7,27,"1404518551612",2014-07-04 20:02:31,34,0.205882352941176,0.794117647058823
"243","251","Constitution Ave & 2nd St NW/DOL","31271","1404519039390","38.892275","-77.013917","true","false","1375190280000","","false","true",17,1,"1404515301308",2014-07-04 19:08:21,18,0.944444444444444,0.0555555555555556
"244","252","Washington & Independence Ave SW/HHS","31272","1404518939139","38.88731","-77.01397","true","false","1375445040000","","false","true",14,26,"1404518938488",2014-07-04 20:08:58,40,0.35,0.65
"245","253","Independence Ave & L'Enfant Plaza SW/DOE","31633","1404518857220","38.887397","-77.026154","true","false","1375789680000","","false","true",18,5,"1404518856450",2014-07-04 20:07:36,23,0.782608695652174,0.217391304347826
"246","254","Hamlin & 7th St NE","31514","1404518971310","38.927497","-76.997194","true","false","1376653440000","","false","true",24,28,"1404512325805",2014-07-04 18:18:45,52,0.461538461538462,0.538461538461538
"247","255","Columbia Pike & S Walter Reed Dr","31067","1404518921464","38.862478","-77.086599","true","false","1377605340000","","false","true",20,29,"1404518437234",2014-07-04 20:00:37,49,0.408163265306122,0.591836734693878
"248","256","Columbia Pike & S Dinwiddie St / Arlington Mill Community Center","31068","1404518949824","38.856319","-77.11153","true","false","1377776460000","","false","true",18,5,"1404518465957",2014-07-04 20:01:05,23,0.782608695652174,0.217391304347826
"249","257","Pershing & N George Mason Dr","31069","1404519044081","38.871822","-77.107906","true","false","1377792000000","","false","true",18,30,"1404511670046",2014-07-04 18:07:50,48,0.375,0.625
"250","258","Fenton St & New York Ave ","32001","1404518871427","38.985404","-77.023082","true","false","1380292620000","","false","true",24,28,"1404449994754",2014-07-04 00:59:54,52,0.461538461538462,0.538461538461538
"251","259","Bethesda Ave & Arlington Blvd","32002","1404519048215","38.981103","-77.097426","true","false","1380292620000","","false","true",23,4,"1404512135264",2014-07-04 18:15:35,27,0.851851851851852,0.148148148148148
"252","260","Montgomery Ave & Waverly St ","32003","1404518854730","38.983838","-77.09221","true","false","1382208480000","","false","true",21,27,"1404518853634",2014-07-04 20:07:33,48,0.4375,0.5625
"253","261","Fallsgrove Blvd & Fallsgrove Dr","32004","1404518906567","39.096312","-77.192672","true","false","1380292620000","","false","true",23,4,"1404515767969",2014-07-04 19:16:07,27,0.851851851851852,0.148148148148148
"254","262","Traville Gateway Dr & Gudelsky Dr","32005","1404519070692","39.093783","-77.202501","true","false","1380292680000","","false","true",23,4,"1404484651424",2014-07-04 10:37:31,27,0.851851851851852,0.148148148148148
"255","263","Norfolk Ave & Fairmont St","32000","1404518863016","38.988562","-77.096539","true","false","1380292560000","","false","true",20,28,"1404508907689",2014-07-04 17:21:47,48,0.416666666666667,0.583333333333333
"256","264","E Montgomery Ave & Maryland Ave","32007","1404519017366","39.084125","-77.151291","true","false","1380292560000","","false","true",21,31,"1404515699812",2014-07-04 19:14:59,52,0.403846153846154,0.596153846153846
"257","265","Cordell & Norfolk Ave","32008","1404519002528","38.98954","-77.098029","true","false","1380292740000","","false","true",21,27,"1404509701238",2014-07-04 17:35:01,48,0.4375,0.5625
"258","266","Frederick Ave & Horners Ln","32009","1404518863317","39.094772","-77.145213","true","false","1380292740000","","false","true",20,28,"1404512161377",2014-07-04 18:16:01,48,0.416666666666667,0.583333333333333
"259","267","Philadelphia & Maple Ave","32010","1404518938420","38.98128","-77.011336","true","false","1380292740000","","false","true",23,29,"1404503550712",2014-07-04 15:52:30,52,0.442307692307692,0.557692307692308
"260","268","Maple & Ritchie Ave","32011","1404519065056","38.983627","-77.006311","true","false","1380292800000","","false","true",5,29,"1404513873279",2014-07-04 18:44:33,34,0.147058823529412,0.852941176470588
"261","269","Silver Spring Metro/Colesville Rd & Wayne Ave","32012","1404518985645","38.99521","-77.02918","true","false","1380292800000","","false","true",22,4,"1404509959132",2014-07-04 17:39:19,26,0.846153846153846,0.153846153846154
"262","270","Montgomery & East Ln","32013","1404518969123","38.983525","-77.095367","true","false","1380292800000","","false","true",20,28,"1404505820042",2014-07-04 16:30:20,48,0.416666666666667,0.583333333333333
"263","271","Friendship Hts Metro/Wisconsin Ave & Wisconsin Cir","32014","1404519078199","38.961763","-77.085998","true","false","1380292860000","","false","true",19,8,"1404508232058",2014-07-04 17:10:32,27,0.703703703703704,0.296296296296296
"264","272","14th & Belmont St NW","31119","1404519009868","38.921074","-77.031887","true","false","1380719160000","","false","true",2,7,"1404519008781",2014-07-04 20:10:08,9,0.222222222222222,0.777777777777778
"265","273","3rd & Tingey St SE","31634","1404519072330","38.87501","-77.0024","true","false","1380722700000","","false","true",22,5,"1404518345343",2014-07-04 19:59:05,27,0.814814814814815,0.185185185185185
"266","274","10th & Florida Ave NW","31120","1404518945973","38.920387","-77.025672","true","false","1381320720000","","false","true",6,28,"1404518462987",2014-07-04 20:01:02,34,0.176470588235294,0.823529411764706
"267","275","Potomac Ave & 8th St SE","31635","1404519008548","38.876737","-76.994468","true","false","1381333800000","","false","true",19,4,"1404517800319",2014-07-04 19:50:00,23,0.826086956521739,0.173913043478261
"268","276","Crabbs Branch Way & Redland Rd","32015","1404519057996","39.120045","-77.156985","true","false","1382100480000","","false","true",22,30,"1404449994963",2014-07-04 00:59:54,52,0.423076923076923,0.576923076923077
"269","277","Fallsgrove Dr & W Montgomery Ave","32016","1404518884690","39.099376","-77.188014","true","false","1382120580000","","false","true",23,29,"1404449975797",2014-07-04 00:59:35,52,0.442307692307692,0.557692307692308
"270","278","Monroe St & Monroe Pl","32017","1404519065168","39.083705","-77.149443","true","false","1383309240000","","false","true",21,30,"1404449982802",2014-07-04 00:59:42,51,0.411764705882353,0.588235294117647
"271","279","Needwood Rd & Eagles Head Ct","32018","1404519009513","39.123513","-77.15741","true","false","1382107020000","","false","true",22,30,"1404503063857",2014-07-04 15:44:23,52,0.423076923076923,0.576923076923077
"272","280","East West Hwy & Blair Mill Rd","32019","1404519074981","38.990249","-77.02935","true","false","1383148920000","","false","true",2,7,"1404519053793",2014-07-04 20:10:53,9,0.222222222222222,0.777777777777778
"273","281","Crabbs Branch Way & Calhoun Pl","32020","1404519083292","39.107709","-77.152072","true","false","1382111460000","","false","true",23,29,"1404449975954",2014-07-04 00:59:35,52,0.442307692307692,0.557692307692308
"274","282","47th & Elm St","32021","1404518925735","38.982456","-77.091991","true","false","1382208540000","","false","true",22,29,"1404512638391",2014-07-04 18:23:58,51,0.431372549019608,0.568627450980392
"275","283","Garland Ave & Walden Rd","32022","1404518949608","39.000578","-77.00149","true","false","1383059580000","","false","true",24,28,"1404493824019",2014-07-04 13:10:24,52,0.461538461538462,0.538461538461538
"276","284","Montgomery College/W Campus Dr & Mannakee St","32023","1404519050543","39.095661","-77.159048","true","false","1382199120000","","false","true",5,31,"1404489194862",2014-07-04 11:53:14,36,0.138888888888889,0.861111111111111
"277","285","Fenton St & Gist Ave","32024","1404518971541","38.989724","-77.023854","true","false","1383054960000","","false","true",21,27,"1404517038928",2014-07-04 19:37:18,48,0.4375,0.5625
"278","286","Carroll & Westmoreland Ave","32025","1404519016934","38.975","-77.01121","true","false","1383065460000","","false","true",22,30,"1404514709499",2014-07-04 18:58:29,52,0.423076923076923,0.576923076923077
"279","287","Carroll & Ethan Allen Ave","32026","1404518855866","38.977933","-77.006472","true","false","1383070440000","","false","true",19,4,"1404516199945",2014-07-04 19:23:19,23,0.826086956521739,0.173913043478261
"280","288","Battery Ln & Trolley Trail","32027","1404518995268","38.992375","-77.100104","true","false","1382712300000","","false","true",21,31,"1404509215638",2014-07-04 17:26:55,52,0.403846153846154,0.596153846153846
"281","289","Norfolk & Rugby Ave","32028","1404519056810","38.990639","-77.100239","true","false","1382715180000","","false","true",20,28,"1404449979283",2014-07-04 00:59:39,48,0.416666666666667,0.583333333333333
"282","290","Offutt Ln & Chevy Chase Dr","32029","1404519035074","38.977093","-77.094589","true","false","1382722080000","","false","true",19,29,"1404518068629",2014-07-04 19:54:28,48,0.395833333333333,0.604166666666667
"283","291","Broschart & Blackwell Rd","32030","1404519057251","39.102099","-77.200322","true","false","1382798640000","","false","true",22,30,"1404449978499",2014-07-04 00:59:38,52,0.423076923076923,0.576923076923077
"284","292","Taft St & E Gude Dr","32031","1404519070742","39.094103","-77.132954","true","false","1382804520000","","false","true",22,30,"1404449975027",2014-07-04 00:59:35,52,0.423076923076923,0.576923076923077
"285","293","Fleet St & Ritchie Pkwy","32032","1404519019386","39.076331","-77.141378","true","false","1382809500000","","false","true",3,27,"1404513584815",2014-07-04 18:39:44,30,0.1,0.9
"286","294","Piccard & W Gude Dr","32033","1404518878011","39.102212","-77.177091","true","false","1382795700000","","false","true",3,31,"1404423414159",2014-07-03 17:36:54,34,0.0882352941176471,0.911764705882353
"287","295","Ripley & Bonifant St","32034","1404518938584","38.992679","-77.029457","true","false","1383141360000","","false","true",21,27,"1404511777750",2014-07-04 18:09:37,48,0.4375,0.5625
"288","296","Georgia Ave & Spring St","32035","1404518857706","38.999388","-77.031555","true","false","1383146520000","","false","true",20,28,"1404506209453",2014-07-04 16:36:49,48,0.416666666666667,0.583333333333333
"289","297","Fenton St & Ellsworth Dr ","32036","1404519071027","38.997033","-77.025608","true","false","1383135960000","","false","true",24,28,"1404518103471",2014-07-04 19:55:03,52,0.461538461538462,0.538461538461538
"290","298","King Farm Blvd & Pleasant Dr","32037","1404518984743","39.114688","-77.171487","true","false","1383323580000","","false","true",3,30,"1404518259211",2014-07-04 19:57:39,33,0.0909090909090909,0.909090909090909
"291","299","King Farm Blvd & Piccard Dr","32038","1404518875869","39.110314","-77.182669","true","false","1383318120000","","false","true",21,31,"1404497388399",2014-07-04 14:09:48,52,0.403846153846154,0.596153846153846
"292","301","Calvert St & Woodley Pl NW","31121","1404519030905","38.923583","-77.050046","true","false","1383657120000","","false","true",1,12,"1404519029563",2014-07-04 20:10:29,13,0.0769230769230769,0.923076923076923
"293","302","New Jersey Ave & N St NW/Dunbar HS","31636","1404518969876","38.90706","-77.015231","true","false","1383662880000","","false","true",8,26,"1404518968906",2014-07-04 20:09:28,34,0.235294117647059,0.764705882352941
"294","303","Nannie Helen Burroughs Ave & 49th St NE","31710","1404519017343","38.898536","-76.931862","true","false","1383923280000","","false","true",21,27,"1404449981528",2014-07-04 00:59:41,48,0.4375,0.5625
"295","304","Deanwood Rec Center","31711","1404518989362","38.908473","-76.933099","true","false","1383923280000","","false","true",23,29,"1404515365027",2014-07-04 19:09:25,52,0.442307692307692,0.557692307692308
"296","305","Hains Point/Buckeye & Ohio Dr SW","31273","1404518949171","38.878433","-77.03023","true","false","1383929160000","","false","true",19,6,"1404518921888",2014-07-04 20:08:41,25,0.76,0.24
"297","306","Arlington Blvd & Fillmore St","31070","1404518993036","38.873755","-77.089233","true","false","1384527780000","","false","true",21,27,"1404502455492",2014-07-04 15:34:15,48,0.4375,0.5625
"298","307","Long Bridge Park/Long Bridge Dr & 6th St S","31071","1404518898881","38.86646","-77.04826","true","false","1384520760000","","false","true",4,26,"1404517999182",2014-07-04 19:53:19,30,0.133333333333333,0.866666666666667
"299","308","Old Georgetown Rd & Southwick St","32039","1404518967979","38.999634","-77.109647","true","false","1384367940000","","false","true",23,4,"1404514244822",2014-07-04 18:50:44,27,0.851851851851852,0.148148148148148
"300","309","Friendship Blvd & Willard Ave","32040","1404518866522","38.96115","-77.088659","true","false","1384355760000","","false","true",21,6,"1404502381308",2014-07-04 15:33:01,27,0.777777777777778,0.222222222222222
"301","310","North Capitol St & G Pl NE","31637","1404519003974","38.899703","-77.008911","true","false","1386954360000","","false","true",21,6,"1404515666471",2014-07-04 19:14:26,27,0.777777777777778,0.222222222222222
"302","311","31st & Woodrow St S","31072","1404518967381","38.837666","-77.09482","true","false","1387298640000","","false","true",19,29,"1404518966009",2014-07-04 20:09:26,48,0.395833333333333,0.604166666666667
"303","312","Washington Blvd & Walter Reed Dr ","31073","1404518919696","38.873219","-77.082104","true","false","1387287180000","","false","true",21,31,"1404486258181",2014-07-04 11:04:18,52,0.403846153846154,0.596153846153846
"304","313","Thomas Jefferson Cmty Ctr / 2nd St S & Ivy","31074","1404519020638","38.869675","-77.093586","true","false","1386774900000","","false","true",18,30,"1404487007952",2014-07-04 11:16:47,48,0.375,0.625
"305","314","Connecticut Ave & Tilden St NW","31313","1404518963124","38.941154","-77.062036","true","false","1386954480000","","false","true",18,4,"1404515280955",2014-07-04 19:08:00,22,0.818181818181818,0.181818181818182
"306","315","Medical Center Dr & Key West Ave","32041","1404518992706","39.103091","-77.196442","true","false","1389273960000","","false","true",22,30,"1404482111699",2014-07-04 09:55:11,52,0.423076923076923,0.576923076923077
"307","316","Shady Grove Hospital","32042","1404518869825","39.097636","-77.196636","true","false","1389287040000","","false","true",23,4,"1404449993942",2014-07-04 00:59:53,27,0.851851851851852,0.148148148148148
"308","317","Veterans Pl & Pershing Dr ","32043","1404518920000","38.997445","-77.023894","true","false","1391876460000","","false","true",20,28,"1404511445143",2014-07-04 18:04:05,48,0.416666666666667,0.583333333333333
"309","318","Rockville Metro East","32044","1404518910913","39.085394","-77.145803","true","false","1393000800000","","false","true",21,29,"1404487892091",2014-07-04 11:31:32,50,0.42,0.58
"310","319","1st & H St NW","31638","1404518934119","38.900358","-77.012108","true","false","1392727500000","","false","true",22,30,"1404517967885",2014-07-04 19:52:47,52,0.423076923076923,0.576923076923077
"311","320","Fort Totten Metro","31515","1404518924050","38.952369","-77.002721","true","false","1392825840000","","false","true",21,6,"1404516136075",2014-07-04 19:22:16,27,0.777777777777778,0.222222222222222
"312","321","Takoma Metro","31408","1404519052495","38.975219","-77.016855","true","false","1392833400000","","false","true",4,30,"1404517602575",2014-07-04 19:46:42,34,0.117647058823529,0.882352941176471
"313","322","Rhode Island Ave Metro","31516","1404519025100","38.920682","-76.995876","true","false","1393259520000","","false","true",18,9,"1404513038652",2014-07-04 18:30:38,27,0.666666666666667,0.333333333333333
"314","323","Rolfe St & 9th St S","31075","1404518927333","38.866471","-77.076131","true","false","1394630640000","","false","true",20,27,"1404491542312",2014-07-04 12:32:22,47,0.425531914893617,0.574468085106383
"315","324","Shirlington Transit Center / S Quincy & Randolph St","31076","1404518860855","38.839912","-77.087083","true","false","1394637480000","","false","true",23,29,"1404518617900",2014-07-04 20:03:37,52,0.442307692307692,0.557692307692308
"316","325","Shady Grove Metro West","32045","1404518859115","39.119765","-77.166093","true","false","1397837820000","","false","true",24,3,"1404497874165",2014-07-04 14:17:54,27,0.888888888888889,0.111111111111111
"317","326","River Rd & Landy Ln","32046","1404519040765","38.964992","-77.103381","true","false","1396972380000","","false","true",21,6,"1404510299616",2014-07-04 17:44:59,27,0.777777777777778,0.222222222222222
"318","327","Rockville Metro West","32047","1404518914266","39.084379","-77.146866","true","false","1397847900000","","false","true",23,4,"1404487389161",2014-07-04 11:23:09,27,0.851851851851852,0.148148148148148
"319","328","Bethesda Metro","32048","1404518853390","38.984691","-77.094537","true","false","1398786060000","","false","true",21,28,"1404518610643",2014-07-04 20:03:30,49,0.428571428571429,0.571428571428571
"320","329","Iwo Jima Memorial/N Meade & 14th St N","31077","1404518971648","38.88992","-77.071301","true","false","1402585680000","","false","true",5,29,"1404518246033",2014-07-04 19:57:26,34,0.147058823529412,0.852941176470588
